zip,lat,lng,city,state_id,state_name,zcta,parent_zcta,population,density,county_fips,county_name,county_weights,county_names_all,county_fips_all,imprecise,military,timezone,Coord,distance_miles,market_total_population,market_id,market_center_lat,market_center_lng,radius_miles
59001,45.52952,-109.54022,Absarokee,MT,Montana,True,,1574.0,4.3,30095,Stillwater,"{""30095"": 94.29, ""30009"": 5.71}",Stillwater|Carbon,30095|30009,False,False,America/Denver,"(45.52952, -109.54022)",245.32054942877164,3804499.0,23_0_yes,46.27368061120017,-114.53002895034211,250.0
59011,45.92453,-109.97244,Big Timber,MT,Montana,True,,3083.0,1.3,30097,Sweet Grass,"{""30097"": 100}",Sweet Grass,30097,False,False,America/Denver,"(45.92453, -109.97244)",219.65280069368404,3804499.0,23_0_yes,46.27368061120017,-114.53002895034211,250.0
59018,45.85791,-110.62326,Clyde Park,MT,Montana,True,,475.0,1.0,30067,Park,"{""30067"": 100}",Park,30067,False,False,America/Denver,"(45.85791, -110.62326)",189.45745136262553,3804499.0,23_0_yes,46.27368061120017,-114.53002895034211,250.0
59020,45.08831,-110.01499,Cooke City,MT,Montana,True,,69.0,0.1,30067,Park,"{""30067"": 100}",Park,30067,False,False,America/Denver,"(45.08831, -110.01499)",232.78958011206507,3804499.0,23_0_yes,46.27368061120017,-114.53002895034211,250.0
59027,45.26118,-110.90674,Emigrant,MT,Montana,True,,721.0,1.2,30067,Park,"{""30067"": 100}",Park,30067,False,False,America/Denver,"(45.26118, -110.90674)",188.1024715909611,3804499.0,23_0_yes,46.27368061120017,-114.53002895034211,250.0
59028,45.32093,-109.7434,Fishtail,MT,Montana,True,,525.0,0.6,30095,Stillwater,"{""30095"": 100}",Stillwater,30095,False,False,America/Denver,"(45.32093, -109.7434)",239.7496973763854,3804499.0,23_0_yes,46.27368061120017,-114.53002895034211,250.0
59030,45.08882,-110.59376,Gardiner,MT,Montana,True,,1249.0,1.0,30067,Park,"{""30067"": 100}",Park,30067,False,False,America/Denver,"(45.08882, -110.59376)",206.8670251464758,3804499.0,23_0_yes,46.27368061120017,-114.53002895034211,250.0
59033,45.72296,-109.73246,Greycliff,MT,Montana,True,,298.0,3.3,30097,Sweet Grass,"{""30097"": 100}",Sweet Grass,30097,False,False,America/Denver,"(45.72296, -109.73246)",233.35730412915746,3804499.0,23_0_yes,46.27368061120017,-114.53002895034211,250.0
59036,46.46606,-109.89035,Harlowton,MT,Montana,True,,1405.0,0.8,30107,Wheatland,"{""30107"": 100}",Wheatland,30107,False,False,America/Denver,"(46.46606, -109.89035)",221.56122919657926,3804499.0,23_0_yes,46.27368061120017,-114.53002895034211,250.0
59047,45.56852,-110.55174,Livingston,MT,Montana,True,,12711.0,6.3,30067,Park,"{""30067"": 100}",Park,30067,False,False,America/Denver,"(45.56852, -110.55174)",197.30082273175688,3804499.0,23_0_yes,46.27368061120017,-114.53002895034211,250.0
59052,45.43651,-110.18676,McLeod,MT,Montana,True,,149.0,0.1,30097,Sweet Grass,"{""30097"": 58.83, ""30067"": 41.17}",Sweet Grass|Park,30097|30067,False,False,America/Denver,"(45.43651, -110.18676)",216.83030456984244,3804499.0,23_0_yes,46.27368061120017,-114.53002895034211,250.0
59053,46.45713,-110.43492,Martinsdale,MT,Montana,True,,370.0,0.3,30059,Meagher,"{""30059"": 96.81, ""30107"": 3.19}",Meagher|Wheatland,30059|30107,False,False,America/Denver,"(46.45713, -110.43492)",195.63704253890384,3804499.0,23_0_yes,46.27368061120017,-114.53002895034211,250.0
59055,46.10282,-109.78662,Melville,MT,Montana,True,,85.0,0.1,30097,Sweet Grass,"{""30097"": 100}",Sweet Grass,30097,False,False,America/Denver,"(46.10282, -109.78662)",227.16321286615255,3804499.0,23_0_yes,46.27368061120017,-114.53002895034211,250.0
59061,45.39634,-109.87728,Nye,MT,Montana,True,,260.0,0.6,30095,Stillwater,"{""30095"": 100}",Stillwater,30095,False,False,America/Denver,"(45.39634, -109.87728)",231.99842822323757,3804499.0,23_0_yes,46.27368061120017,-114.53002895034211,250.0
59065,45.26883,-110.6784,Pray,MT,Montana,True,,125.0,0.4,30067,Park,"{""30067"": 100}",Park,30067,False,False,America/Denver,"(45.26883, -110.6784)",198.1597735751227,3804499.0,23_0_yes,46.27368061120017,-114.53002895034211,250.0
59068,45.15929,-109.45626,Red Lodge,MT,Montana,True,,3178.0,2.4,30009,Carbon,"{""30009"": 100}",Carbon,30009,False,False,America/Denver,"(45.15929, -109.45626)",256.53763750043373,3804499.0,23_0_yes,46.27368061120017,-114.53002895034211,250.0
59069,45.72204,-109.57945,Reed Point,MT,Montana,True,,517.0,0.5,30095,Stillwater,"{""30095"": 50.66, ""30097"": 49.34}",Stillwater|Sweet Grass,30095|30097,False,False,America/Denver,"(45.72204, -109.57945)",240.61461721730285,3804499.0,23_0_yes,46.27368061120017,-114.53002895034211,250.0
59071,45.26582,-109.57003,Roscoe,MT,Montana,True,,160.0,0.7,30009,Carbon,"{""30009"": 100}",Carbon,30009,False,False,America/Denver,"(45.26582, -109.57003)",248.9375417954429,3804499.0,23_0_yes,46.27368061120017,-114.53002895034211,250.0
59078,46.32585,-109.5442,Shawmut,MT,Montana,True,,167.0,0.2,30107,Wheatland,"{""30107"": 69.81, ""30037"": 22.1, ""30097"": 8.09}",Wheatland|Golden Valley|Sweet Grass,30107|30037|30097,False,False,America/Denver,"(46.32585, -109.5442)",237.989700429792,3804499.0,23_0_yes,46.27368061120017,-114.53002895034211,250.0
59081,45.01979,-109.98295,Silver Gate,MT,Montana,True,,82.0,7.3,30067,Park,"{""30067"": 100}",Park,30067,False,False,America/Denver,"(45.01979, -109.98295)",236.05755261158342,3804499.0,23_0_yes,46.27368061120017,-114.53002895034211,250.0
59085,46.36172,-110.14019,Two Dot,MT,Montana,True,,199.0,0.3,30107,Wheatland,"{""30107"": 100}",Wheatland,30107,False,False,America/Denver,"(46.36172, -110.14019)",209.54450696207164,3804499.0,23_0_yes,46.27368061120017,-114.53002895034211,250.0
59086,46.05608,-110.65293,Wilsall,MT,Montana,True,,832.0,0.5,30067,Park,"{""30067"": 66.28, ""30031"": 31.45, ""30059"": 2.27}",Park|Gallatin|Meagher,30067|30031|30059,False,False,America/Denver,"(46.05608, -110.65293)",186.12054105578125,3804499.0,23_0_yes,46.27368061120017,-114.53002895034211,250.0
59401,47.51083,-111.27691,Great Falls,MT,Montana,True,,13410.0,1748.1,30013,Cascade,"{""30013"": 100}",Cascade,30013,False,False,America/Denver,"(47.51083, -111.27691)",175.76256405867068,3804499.0,23_0_yes,46.27368061120017,-114.53002895034211,250.0
59404,47.63197,-111.34807,Great Falls,MT,Montana,True,,27914.0,32.5,30013,Cascade,"{""30013"": 71.69, ""30015"": 28.31}",Cascade|Chouteau,30013|30015,False,False,America/Denver,"(47.63197, -111.34807)",176.97807322604191,3804499.0,23_0_yes,46.27368061120017,-114.53002895034211,250.0
59405,47.28102,-111.25937,Great Falls,MT,Montana,True,,31745.0,25.6,30013,Cascade,"{""30013"": 98.85, ""30015"": 1.15}",Cascade|Chouteau,30013|30015,False,False,America/Denver,"(47.28102, -111.25937)",169.67217869841068,3804499.0,23_0_yes,46.27368061120017,-114.53002895034211,250.0
59410,47.49442,-112.64299,Augusta,MT,Montana,True,,519.0,0.2,30049,Lewis and Clark,"{""30049"": 97.51, ""30099"": 2.49}",Lewis and Clark|Teton,30049|30099,False,False,America/Denver,"(47.49442, -112.64299)",122.6927829855732,3804499.0,23_0_yes,46.27368061120017,-114.53002895034211,250.0
59411,48.88965,-113.41403,Babb,MT,Montana,True,,1188.0,2.1,30035,Glacier,"{""30035"": 100}",Glacier,30035,False,False,America/Denver,"(48.88965, -113.41403)",188.0752593862332,3804499.0,23_0_yes,46.27368061120017,-114.53002895034211,250.0
59412,47.32538,-110.8762,Belt,MT,Montana,True,,1490.0,1.5,30013,Cascade,"{""30013"": 96.89, ""30045"": 3.11}",Cascade|Judith Basin,30013|30045,False,False,America/Denver,"(47.32538, -110.8762)",187.450490157259,3804499.0,23_0_yes,46.27368061120017,-114.53002895034211,250.0
59414,47.5276,-111.26871,Black Eagle,MT,Montana,True,,836.0,185.1,30013,Cascade,"{""30013"": 100}",Cascade,30013,False,False,America/Denver,"(47.5276, -111.26871)",176.64489734352244,3804499.0,23_0_yes,46.27368061120017,-114.53002895034211,250.0
59416,48.04059,-111.52359,Brady,MT,Montana,True,,268.0,0.3,30073,Pondera,"{""30073"": 56.26, ""30015"": 41.1, ""30099"": 1.51, ""30051"": 1.13}",Pondera|Chouteau|Teton|Liberty,30073|30015|30099|30051,False,False,America/Denver,"(48.04059, -111.52359)",186.67154045664162,3804499.0,23_0_yes,46.27368061120017,-114.53002895034211,250.0
59417,48.54483,-113.0086,Browning,MT,Montana,True,,7680.0,3.9,30035,Glacier,"{""30035"": 100}",Glacier,30035,False,False,America/Denver,"(48.54483, -113.0086)",172.28535167018345,3804499.0,23_0_yes,46.27368061120017,-114.53002895034211,250.0
59418,46.80258,-109.87849,Buffalo,MT,Montana,True,,65.0,0.2,30045,Judith Basin,"{""30045"": 76.86, ""30027"": 23.14}",Judith Basin|Fergus,30045|30027,False,False,America/Denver,"(46.80258, -109.87849)",224.04059286889276,3804499.0,23_0_yes,46.27368061120017,-114.53002895034211,250.0
59419,48.00641,-112.40855,Bynum,MT,Montana,True,,94.0,0.4,30099,Teton,"{""30099"": 100}",Teton,30099,False,False,America/Denver,"(48.00641, -112.40855)",155.78843157590995,3804499.0,23_0_yes,46.27368061120017,-114.53002895034211,250.0
59420,47.89688,-111.04034,Carter,MT,Montana,True,,255.0,0.4,30015,Chouteau,"{""30015"": 100}",Chouteau,30015,False,False,America/Denver,"(47.89688, -111.04034)",198.7957274363644,3804499.0,23_0_yes,46.27368061120017,-114.53002895034211,250.0
59421,47.20179,-111.72,Cascade,MT,Montana,True,,1838.0,1.0,30013,Cascade,"{""30013"": 95.54, ""30049"": 4.46}",Cascade|Lewis and Clark,30013|30049,False,False,America/Denver,"(47.20179, -111.72)",147.6956126284971,3804499.0,23_0_yes,46.27368061120017,-114.53002895034211,250.0
59422,47.83957,-112.48266,Choteau,MT,Montana,True,,2718.0,0.9,30099,Teton,"{""30099"": 100}",Teton,30099,False,False,America/Denver,"(47.83957, -112.48266)",144.88028035574953,3804499.0,23_0_yes,46.27368061120017,-114.53002895034211,250.0
59424,47.34929,-110.1022,Coffee Creek,MT,Montana,True,,16.0,0.1,30027,Fergus,"{""30027"": 66.71, ""30045"": 33.29}",Fergus|Judith Basin,30027|30045,False,False,America/Denver,"(47.34929, -110.1022)",222.14049825927557,3804499.0,23_0_yes,46.27368061120017,-114.53002895034211,250.0
59425,48.18641,-111.88738,Conrad,MT,Montana,True,,3616.0,2.5,30073,Pondera,"{""30073"": 91.09, ""30099"": 8.91}",Pondera|Teton,30073|30099,False,False,America/Denver,"(48.18641, -111.88738)",181.1926232655066,3804499.0,23_0_yes,46.27368061120017,-114.53002895034211,250.0
59427,48.77357,-112.61639,Cut Bank,MT,Montana,True,,4417.0,1.2,30035,Glacier,"{""30035"": 97.27, ""30101"": 2.73}",Glacier|Toole,30035|30101,False,False,America/Denver,"(48.77357, -112.61639)",194.42241617961832,3804499.0,23_0_yes,46.27368061120017,-114.53002895034211,250.0
59430,47.43089,-109.83434,Denton,MT,Montana,True,,448.0,0.3,30027,Fergus,"{""30027"": 94.67, ""30045"": 5.33}",Fergus|Judith Basin,30027|30045,False,False,America/Denver,"(47.43089, -109.83434)",235.79925194665324,3804499.0,23_0_yes,46.27368061120017,-114.53002895034211,250.0
59432,48.14595,-112.58853,Dupuyer,MT,Montana,True,,114.0,0.2,30073,Pondera,"{""30073"": 73.19, ""30099"": 26.81}",Pondera|Teton,30073|30099,False,False,America/Denver,"(48.14595, -112.58853)",158.22360540758953,3804499.0,23_0_yes,46.27368061120017,-114.53002895034211,250.0
59433,47.89565,-111.68483,Dutton,MT,Montana,True,,484.0,0.6,30099,Teton,"{""30099"": 99.65, ""30073"": 0.35}",Teton|Pondera,30099|30073,False,False,America/Denver,"(47.89565, -111.68483)",174.5556374938698,3804499.0,23_0_yes,46.27368061120017,-114.53002895034211,250.0
59434,48.68682,-113.55678,East Glacier Park,MT,Montana,True,,421.0,0.2,30035,Glacier,"{""30035"": 100}",Glacier,30035,False,False,America/Denver,"(48.68682, -113.55678)",172.81089210218585,3804499.0,23_0_yes,46.27368061120017,-114.53002895034211,250.0
59436,47.6135,-112.0907,Fairfield,MT,Montana,True,,2045.0,3.2,30099,Teton,"{""30099"": 99.58, ""30013"": 0.42}",Teton|Cascade,30099|30013,False,False,America/Denver,"(47.6135, -112.0907)",147.66933583898236,3804499.0,23_0_yes,46.27368061120017,-114.53002895034211,250.0
59440,47.72489,-111.14261,Floweree,MT,Montana,True,,221.0,0.4,30015,Chouteau,"{""30015"": 67.52, ""30013"": 32.48}",Chouteau|Cascade,30015|30013,False,False,America/Denver,"(47.72489, -111.14261)",188.4761549897547,3804499.0,23_0_yes,46.27368061120017,-114.53002895034211,250.0
59442,47.93005,-110.64697,Fort Benton,MT,Montana,True,,1742.0,0.9,30015,Chouteau,"{""30015"": 100}",Chouteau,30015,False,False,America/Denver,"(47.93005, -110.64697)",215.482677322688,3804499.0,23_0_yes,46.27368061120017,-114.53002895034211,250.0
59443,47.5621,-111.82647,Fort Shaw,MT,Montana,True,,383.0,2.5,30013,Cascade,"{""30013"": 93.54, ""30099"": 6.46}",Cascade|Teton,30013|30099,False,False,America/Denver,"(47.5621, -111.82647)",155.56277062319663,3804499.0,23_0_yes,46.27368061120017,-114.53002895034211,250.0
59444,48.65227,-111.34881,Galata,MT,Montana,True,,262.0,0.2,30101,Toole,"{""30101"": 80.5, ""30051"": 19.5}",Toole|Liberty,30101|30051,False,False,America/Denver,"(48.65227, -111.34881)",221.52591137542933,3804499.0,23_0_yes,46.27368061120017,-114.53002895034211,250.0
59446,47.64083,-110.17894,Geraldine,MT,Montana,True,,580.0,0.3,30015,Chouteau,"{""30015"": 100}",Chouteau,30015,False,False,America/Denver,"(47.64083, -110.17894)",225.84924654157157,3804499.0,23_0_yes,46.27368061120017,-114.53002895034211,250.0
59447,47.28116,-110.45955,Geyser,MT,Montana,True,,271.0,0.3,30045,Judith Basin,"{""30045"": 96.99, ""30015"": 3.01}",Judith Basin|Chouteau,30045|30015,False,False,America/Denver,"(47.28116, -110.45955)",204.76768496858588,3804499.0,23_0_yes,46.27368061120017,-114.53002895034211,250.0
59448,48.25789,-112.86703,Heart Butte,MT,Montana,True,,775.0,3.9,30073,Pondera,"{""30073"": 99.14, ""30035"": 0.86}",Pondera|Glacier,30073|30035,False,False,America/Denver,"(48.25789, -112.86703)",157.70859013507817,3804499.0,23_0_yes,46.27368061120017,-114.53002895034211,250.0
59450,47.5992,-110.73923,Highwood,MT,Montana,True,,584.0,0.6,30015,Chouteau,"{""30015"": 100}",Chouteau,30015,False,False,America/Denver,"(47.5992, -110.73923)",200.89614717425823,3804499.0,23_0_yes,46.27368061120017,-114.53002895034211,250.0
59451,47.38984,-109.39779,Hilger,MT,Montana,True,,127.0,0.2,30027,Fergus,"{""30027"": 100}",Fergus,30027,False,False,America/Denver,"(47.38984, -109.39779)",254.50517824440587,3804499.0,23_0_yes,46.27368061120017,-114.53002895034211,250.0
59452,46.86946,-110.09831,Hobson,MT,Montana,True,,470.0,0.5,30045,Judith Basin,"{""30045"": 100}",Judith Basin,30045,False,False,America/Denver,"(46.86946, -110.09831)",214.4543787245025,3804499.0,23_0_yes,46.27368061120017,-114.53002895034211,250.0
59453,46.65903,-109.66996,Judith Gap,MT,Montana,True,,301.0,0.3,30107,Wheatland,"{""30107"": 76.59, ""30027"": 18.54, ""30045"": 4.87}",Wheatland|Fergus|Judith Basin,30107|30027|30045,False,False,America/Denver,"(46.65903, -109.66996)",232.78096097223136,3804499.0,23_0_yes,46.27368061120017,-114.53002895034211,250.0
59454,48.74481,-111.97769,Kevin,MT,Montana,True,,202.0,0.7,30101,Toole,"{""30101"": 100}",Toole,30101,False,False,America/Denver,"(48.74481, -111.97769)",208.15806956222508,3804499.0,23_0_yes,46.27368061120017,-114.53002895034211,250.0
59456,48.27221,-111.35432,Ledger,MT,Montana,True,,175.0,0.2,30051,Liberty,"{""30051"": 52.28, ""30101"": 38.35, ""30073"": 9.37}",Liberty|Toole|Pondera,30051|30101|30073,False,False,America/Denver,"(48.27221, -111.35432)",203.02480721066019,3804499.0,23_0_yes,46.27368061120017,-114.53002895034211,250.0
59457,47.08027,-109.38656,Lewistown,MT,Montana,True,,9058.0,3.5,30027,Fergus,"{""30027"": 100}",Fergus,30027,False,False,America/Denver,"(47.08027, -109.38656)",250.06688343910162,3804499.0,23_0_yes,46.27368061120017,-114.53002895034211,250.0
59460,48.07682,-110.50908,Loma,MT,Montana,True,,170.0,0.3,30015,Chouteau,"{""30015"": 100}",Chouteau,30015,False,False,America/Denver,"(48.07682, -110.50908)",226.1970498715059,3804499.0,23_0_yes,46.27368061120017,-114.53002895034211,250.0
59461,48.4894,-111.19985,Lothair,MT,Montana,True,,12.0,0.1,30051,Liberty,"{""30051"": 100}",Liberty,30051,False,False,America/Denver,"(48.4894, -111.19985)",218.38731428884157,3804499.0,23_0_yes,46.27368061120017,-114.53002895034211,250.0
59462,47.10833,-109.88513,Moccasin,MT,Montana,True,,159.0,0.5,30045,Judith Basin,"{""30045"": 100}",Judith Basin,30045,False,False,America/Denver,"(47.10833, -109.88513)",227.52688298144378,3804499.0,23_0_yes,46.27368061120017,-114.53002895034211,250.0
59463,47.0489,-110.86668,Monarch,MT,Montana,True,,97.0,0.2,30013,Cascade,"{""30013"": 94.01, ""30045"": 5.99}",Cascade|Judith Basin,30013|30045,False,False,America/Denver,"(47.0489, -110.86668)",181.76388039958042,3804499.0,23_0_yes,46.27368061120017,-114.53002895034211,250.0
59464,46.87409,-109.60589,Moore,MT,Montana,True,,418.0,0.7,30027,Fergus,"{""30027"": 94.58, ""30045"": 5.42}",Fergus|Judith Basin,30027|30045,False,False,America/Denver,"(46.87409, -109.60589)",237.48610841993957,3804499.0,23_0_yes,46.27368061120017,-114.53002895034211,250.0
59465,46.93777,-110.70788,Neihart,MT,Montana,True,,35.0,0.1,30013,Cascade,"{""30013"": 100}",Cascade,30013,False,False,America/Denver,"(46.93777, -110.70788)",187.12123982066538,3804499.0,23_0_yes,46.27368061120017,-114.53002895034211,250.0
59466,48.78746,-111.69124,Oilmont,MT,Montana,True,,109.0,0.3,30101,Toole,"{""30101"": 100}",Toole,30101,False,False,America/Denver,"(48.78746, -111.69124)",218.38192838844665,3804499.0,23_0_yes,46.27368061120017,-114.53002895034211,250.0
59467,48.07149,-112.37794,Pendroy,MT,Montana,True,,107.0,0.4,30099,Teton,"{""30099"": 100}",Teton,30099,False,False,America/Denver,"(48.07149, -112.37794)",160.1341291639593,3804499.0,23_0_yes,46.27368061120017,-114.53002895034211,250.0
59468,47.71253,-111.62842,Power,MT,Montana,True,,587.0,0.9,30099,Teton,"{""30099"": 71.23, ""30013"": 28.77}",Teton|Cascade,30099|30013,False,False,America/Denver,"(47.71253, -111.62842)",169.04535648805108,3804499.0,23_0_yes,46.27368061120017,-114.53002895034211,250.0
59469,47.19087,-110.68378,Raynesford,MT,Montana,True,,143.0,0.5,30045,Judith Basin,"{""30045"": 100}",Judith Basin,30045,False,False,America/Denver,"(47.19087, -110.68378)",192.8315533067294,3804499.0,23_0_yes,46.27368061120017,-114.53002895034211,250.0
59472,47.37939,-111.17095,Sand Coulee,MT,Montana,True,,843.0,5.9,30013,Cascade,"{""30013"": 100}",Cascade,30013,False,False,America/Denver,"(47.37939, -111.17095)",176.1992009162504,3804499.0,23_0_yes,46.27368061120017,-114.53002895034211,250.0
59474,48.53314,-111.69254,Shelby,MT,Montana,True,,3286.0,2.3,30101,Toole,"{""30101"": 100}",Toole,30101,False,False,America/Denver,"(48.53314, -111.69254)",204.8582996685418,3804499.0,23_0_yes,46.27368061120017,-114.53002895034211,250.0
59477,47.44467,-111.97419,Simms,MT,Montana,True,,390.0,2.3,30013,Cascade,"{""30013"": 100}",Cascade,30013,False,False,America/Denver,"(47.44467, -111.97419)",145.33972460439452,3804499.0,23_0_yes,46.27368061120017,-114.53002895034211,250.0
59479,47.016,-110.33696,Stanford,MT,Montana,True,,766.0,0.4,30045,Judith Basin,"{""30045"": 100}",Judith Basin,30045,False,False,America/Denver,"(47.016, -110.33696)",205.3717523745195,3804499.0,23_0_yes,46.27368061120017,-114.53002895034211,250.0
59480,47.22696,-111.12013,Stockett,MT,Montana,True,,365.0,1.0,30013,Cascade,"{""30013"": 100}",Cascade,30013,False,False,America/Denver,"(47.22696, -111.12013)",174.32991512039416,3804499.0,23_0_yes,46.27368061120017,-114.53002895034211,250.0
59482,48.88446,-111.86622,Sunburst,MT,Montana,True,,923.0,1.7,30101,Toole,"{""30101"": 100}",Toole,30101,False,False,America/Denver,"(48.88446, -111.86622)",218.953627004135,3804499.0,23_0_yes,46.27368061120017,-114.53002895034211,250.0
59483,47.47212,-111.72261,Sun River,MT,Montana,True,,621.0,3.0,30013,Cascade,"{""30013"": 100}",Cascade,30013,False,False,America/Denver,"(47.47212, -111.72261)",156.3194746563017,3804499.0,23_0_yes,46.27368061120017,-114.53002895034211,250.0
59484,48.95074,-111.76795,Sweet Grass,MT,Montana,True,,101.0,0.2,30101,Toole,"{""30101"": 100}",Toole,30101,False,False,America/Denver,"(48.95074, -111.76795)",225.2760961326925,3804499.0,23_0_yes,46.27368061120017,-114.53002895034211,250.0
59485,47.43264,-111.56667,Ulm,MT,Montana,True,,482.0,3.3,30013,Cascade,"{""30013"": 100}",Cascade,30013,False,False,America/Denver,"(47.43264, -111.56667)",161.28542614451297,3804499.0,23_0_yes,46.27368061120017,-114.53002895034211,250.0
59486,48.33709,-112.35552,Valier,MT,Montana,True,,1200.0,0.9,30073,Pondera,"{""30073"": 100}",Pondera,30073,False,False,America/Denver,"(48.33709, -112.35552)",175.2120526105114,3804499.0,23_0_yes,46.27368061120017,-114.53002895034211,250.0
59487,47.58393,-111.64592,Vaughn,MT,Montana,True,,1291.0,9.1,30013,Cascade,"{""30013"": 92.37, ""30099"": 7.63}",Cascade|Teton,30013|30099,False,False,America/Denver,"(47.58393, -111.64592)",163.42895045279818,3804499.0,23_0_yes,46.27368061120017,-114.53002895034211,250.0
59501,48.69591,-109.78556,Havre,MT,Montana,True,,12528.0,3.6,30041,Hill,"{""30041"": 95.74, ""30005"": 4.26}",Hill|Blaine,30041|30005,False,False,America/Denver,"(48.69591, -109.78556)",277.55449759679345,3804499.0,23_0_yes,46.27368061120017,-114.53002895034211,250.0
59520,48.03822,-109.93749,Big Sandy,MT,Montana,True,,1093.0,0.4,30015,Chouteau,"{""30015"": 97.14, ""30005"": 2.33, ""30041"": 0.53}",Chouteau|Blaine|Hill,30015|30005|30041,False,False,America/Denver,"(48.03822, -109.93749)",247.77627775670615,3804499.0,23_0_yes,46.27368061120017,-114.53002895034211,250.0
59521,48.30489,-109.972,Box Elder,MT,Montana,True,,3863.0,5.3,30041,Hill,"{""30041"": 81.61, ""30015"": 18.39}",Hill|Chouteau,30041|30015,False,False,America/Denver,"(48.30489, -109.972)",255.5257269503234,3804499.0,23_0_yes,46.27368061120017,-114.53002895034211,250.0
59522,48.56497,-110.98827,Chester,MT,Montana,True,,1908.0,0.9,30051,Liberty,"{""30051"": 100}",Liberty,30051,False,False,America/Denver,"(48.56497, -110.98827)",229.0372655198533,3804499.0,23_0_yes,46.27368061120017,-114.53002895034211,250.0
59525,48.6524,-110.27405,Gildford,MT,Montana,True,,237.0,0.3,30041,Hill,"{""30041"": 100}",Hill,30041,False,False,America/Denver,"(48.6524, -110.27405)",257.8748305410717,3804499.0,23_0_yes,46.27368061120017,-114.53002895034211,250.0
59528,48.6233,-110.42628,Hingham,MT,Montana,True,,264.0,0.5,30041,Hill,"{""30041"": 100}",Hill,30041,False,False,America/Denver,"(48.6233, -110.42628)",251.1769538186553,3804499.0,23_0_yes,46.27368061120017,-114.53002895034211,250.0
59530,48.60212,-110.68802,Inverness,MT,Montana,True,,125.0,0.2,30041,Hill,"{""30041"": 100}",Hill,30041,False,False,America/Denver,"(48.60212, -110.68802)",241.02833337738045,3804499.0,23_0_yes,46.27368061120017,-114.53002895034211,250.0
59531,48.77294,-110.78334,Joplin,MT,Montana,True,,291.0,0.4,30051,Liberty,"{""30051"": 72.94, ""30041"": 27.06}",Liberty|Hill,30051|30041,False,False,America/Denver,"(48.77294, -110.78334)",245.66404310580057,3804499.0,23_0_yes,46.27368061120017,-114.53002895034211,250.0
59532,48.58837,-110.08515,Kremlin,MT,Montana,True,,115.0,0.2,30041,Hill,"{""30041"": 100}",Hill,30041,False,False,America/Denver,"(48.58837, -110.08515)",262.10850444739253,3804499.0,23_0_yes,46.27368061120017,-114.53002895034211,250.0
59540,48.60665,-110.56418,Rudyard,MT,Montana,True,,343.0,0.3,30041,Hill,"{""30041"": 96.17, ""30015"": 3.83}",Hill|Chouteau,30041|30015,False,False,America/Denver,"(48.60665, -110.56418)",245.56474003168395,3804499.0,23_0_yes,46.27368061120017,-114.53002895034211,250.0
59545,48.94067,-111.21768,Whitlash,MT,Montana,True,,48.0,0.2,30051,Liberty,"{""30051"": 67.98, ""30101"": 32.02}",Liberty|Toole,30051|30101,False,False,America/Denver,"(48.94067, -111.21768)",240.29412649147483,3804499.0,23_0_yes,46.27368061120017,-114.53002895034211,250.0
59601,46.54199,-112.17474,Helena,MT,Montana,True,,32165.0,95.4,30049,Lewis and Clark,"{""30049"": 100}",Lewis and Clark,30049,False,False,America/Denver,"(46.54199, -112.17474)",113.72565561570751,3804499.0,23_0_yes,46.27368061120017,-114.53002895034211,250.0
59602,46.73577,-111.90753,Helena,MT,Montana,True,,27154.0,20.0,30049,Lewis and Clark,"{""30049"": 100}",Lewis and Clark,30049,False,False,America/Denver,"(46.73577, -111.90753)",128.7320796787841,3804499.0,23_0_yes,46.27368061120017,-114.53002895034211,250.0
59631,46.29168,-112.38687,Basin,MT,Montana,True,,278.0,0.7,30043,Jefferson,"{""30043"": 100}",Jefferson,30043,False,False,America/Denver,"(46.29168, -112.38687)",102.34140430903118,3804499.0,23_0_yes,46.27368061120017,-114.53002895034211,250.0
59632,46.16522,-111.99918,Boulder,MT,Montana,True,,1836.0,1.6,30043,Jefferson,"{""30043"": 100}",Jefferson,30043,False,False,America/Denver,"(46.16522, -111.99918)",121.21543445634696,3804499.0,23_0_yes,46.27368061120017,-114.53002895034211,250.0
59633,46.82338,-112.36362,Canyon Creek,MT,Montana,True,,317.0,0.6,30049,Lewis and Clark,"{""30049"": 100}",Lewis and Clark,30049,False,False,America/Denver,"(46.82338, -112.36362)",109.72233711326913,3804499.0,23_0_yes,46.27368061120017,-114.53002895034211,250.0
59634,46.43583,-112.00986,Clancy,MT,Montana,True,,5320.0,8.2,30043,Jefferson,"{""30043"": 100}",Jefferson,30043,False,False,America/Denver,"(46.43583, -112.00986)",120.6968308675851,3804499.0,23_0_yes,46.27368061120017,-114.53002895034211,250.0
59635,46.5546,-111.81749,East Helena,MT,Montana,True,,7172.0,34.8,30049,Lewis and Clark,"{""30049"": 38.17, ""30043"": 36.11, ""30007"": 25.72}",Lewis and Clark|Jefferson|Broadwater,30049|30043|30007,False,False,America/Denver,"(46.5546, -111.81749)",130.65687484140363,3804499.0,23_0_yes,46.27368061120017,-114.53002895034211,250.0
59636,46.61614,-112.11399,Fort Harrison,MT,Montana,True,,54.0,6.4,30049,Lewis and Clark,"{""30049"": 100}",Lewis and Clark,30049,False,False,America/Denver,"(46.61614, -112.11399)",117.4284358250191,3804499.0,23_0_yes,46.27368061120017,-114.53002895034211,250.0
59638,46.3579,-112.02772,Jefferson City,MT,Montana,True,,705.0,4.5,30043,Jefferson,"{""30043"": 100}",Jefferson,30043,False,False,America/Denver,"(46.3579, -112.02772)",119.55102700167109,3804499.0,23_0_yes,46.27368061120017,-114.53002895034211,250.0
59639,47.09436,-112.69371,Lincoln,MT,Montana,True,,1184.0,0.7,30049,Lewis and Clark,"{""30049"": 100}",Lewis and Clark,30049,False,False,America/Denver,"(47.09436, -112.69371)",103.87716978489257,3804499.0,23_0_yes,46.27368061120017,-114.53002895034211,250.0
59642,46.28045,-110.75624,Ringling,MT,Montana,True,,36.0,0.0,30059,Meagher,"{""30059"": 100}",Meagher,30059,False,False,America/Denver,"(46.28045, -110.75624)",180.20246314571517,3804499.0,23_0_yes,46.27368061120017,-114.53002895034211,250.0
59643,46.13283,-111.57884,Toston,MT,Montana,True,,302.0,0.4,30007,Broadwater,"{""30007"": 100}",Broadwater,30007,False,False,America/Denver,"(46.13283, -111.57884)",141.45187588425497,3804499.0,23_0_yes,46.27368061120017,-114.53002895034211,250.0
59644,46.419,-111.43885,Townsend,MT,Montana,True,,4334.0,2.3,30007,Broadwater,"{""30007"": 100}",Broadwater,30007,False,False,America/Denver,"(46.419, -111.43885)",147.76580580299117,3804499.0,23_0_yes,46.27368061120017,-114.53002895034211,250.0
59645,46.69476,-111.04729,White Sulphur Springs,MT,Montana,True,,1513.0,0.4,30059,Meagher,"{""30059"": 98.62, ""30007"": 1.38}",Meagher|Broadwater,30059|30007,False,False,America/Denver,"(46.69476, -111.04729)",168.20994227453397,3804499.0,23_0_yes,46.27368061120017,-114.53002895034211,250.0
59647,46.46726,-111.65138,Winston,MT,Montana,True,,522.0,2.4,30007,Broadwater,"{""30007"": 100}",Broadwater,30007,False,False,America/Denver,"(46.46726, -111.65138)",137.87899529966228,3804499.0,23_0_yes,46.27368061120017,-114.53002895034211,250.0
59648,47.07221,-112.14059,Wolf Creek,MT,Montana,True,,402.0,0.2,30049,Lewis and Clark,"{""30049"": 100}",Lewis and Clark,30049,False,False,America/Denver,"(47.07221, -112.14059)",125.99561219135336,3804499.0,23_0_yes,46.27368061120017,-114.53002895034211,250.0
59701,46.03497,-112.46087,Butte,MT,Montana,True,,33685.0,25.5,30093,Silver Bow,"{""30093"": 48.47, ""30043"": 46.89, ""30023"": 4.64}",Silver Bow|Jefferson|Deer Lodge,30093|30043|30023,False,False,America/Denver,"(46.03497, -112.46087)",100.3956123981705,3804499.0,23_0_yes,46.27368061120017,-114.53002895034211,250.0
59710,45.06801,-112.08613,Alder,MT,Montana,True,,243.0,0.1,30057,Madison,"{""30057"": 100}",Madison,30057,False,False,America/Denver,"(45.06801, -112.08613)",144.4261770173185,3804499.0,23_0_yes,46.27368061120017,-114.53002895034211,250.0
59711,46.09734,-113.10317,Anaconda,MT,Montana,True,,8855.0,6.1,30023,Deer Lodge,"{""30023"": 63.43, ""30039"": 25.76, ""30093"": 10.81}",Deer Lodge|Granite|Silver Bow,30023|30039|30093,False,False,America/Denver,"(46.09734, -113.10317)",69.3319410059241,3804499.0,23_0_yes,46.27368061120017,-114.53002895034211,250.0
59713,46.67973,-112.61228,Avon,MT,Montana,True,,182.0,0.3,30077,Powell,"{""30077"": 100}",Powell,30077,False,False,America/Denver,"(46.67973, -112.61228)",95.46133174456672,3804499.0,23_0_yes,46.27368061120017,-114.53002895034211,250.0
59714,45.97538,-111.13112,Belgrade,MT,Montana,True,,21530.0,19.9,30031,Gallatin,"{""30031"": 100}",Gallatin,30031,False,False,America/Denver,"(45.97538, -111.13112)",164.05422757887706,3804499.0,23_0_yes,46.27368061120017,-114.53002895034211,250.0
59715,45.6928,-110.9065,Bozeman,MT,Montana,True,,36760.0,48.1,30031,Gallatin,"{""30031"": 91.82, ""30067"": 8.18}",Gallatin|Park,30031|30067,False,False,America/Denver,"(45.6928, -110.9065)",178.52067486257909,3804499.0,23_0_yes,46.27368061120017,-114.53002895034211,250.0
59716,45.28578,-111.3873,Big Sky,MT,Montana,True,,2477.0,14.8,30057,Madison,"{""30057"": 55.87, ""30031"": 44.13}",Madison|Gallatin,30057|30031,False,False,America/Denver,"(45.28578, -111.3873)",166.0947573884331,3804499.0,23_0_yes,46.27368061120017,-114.53002895034211,250.0
59718,45.63999,-111.16978,Bozeman,MT,Montana,True,,39282.0,92.2,30031,Gallatin,"{""30031"": 100}",Gallatin,30031,False,False,America/Denver,"(45.63999, -111.16978)",167.22362630433477,3804499.0,23_0_yes,46.27368061120017,-114.53002895034211,250.0
59720,44.95821,-111.59366,Cameron,MT,Montana,True,,126.0,0.1,30057,Madison,"{""30057"": 100}",Madison,30057,False,False,America/Denver,"(44.95821, -111.59366)",168.50399581511076,3804499.0,23_0_yes,46.27368061120017,-114.53002895034211,250.0
59721,45.85189,-111.88177,Cardwell,MT,Montana,True,,565.0,1.0,30043,Jefferson,"{""30043"": 61.65, ""30057"": 38.35}",Jefferson|Madison,30043|30057,False,False,America/Denver,"(45.85189, -111.88177)",130.25728893244613,3804499.0,23_0_yes,46.27368061120017,-114.53002895034211,250.0
59722,46.35143,-112.75684,Deer Lodge,MT,Montana,True,,5655.0,5.6,30077,Powell,"{""30077"": 85.75, ""30023"": 14.25}",Powell|Deer Lodge,30077|30023,False,False,America/Denver,"(46.35143, -112.75684)",84.79306665254957,3804499.0,23_0_yes,46.27368061120017,-114.53002895034211,250.0
59724,44.67716,-112.79359,Dell,MT,Montana,True,,81.0,0.1,30001,Beaverhead,"{""30001"": 100}",Beaverhead,30001,False,False,America/Denver,"(44.67716, -112.79359)",138.72160473412686,3804499.0,23_0_yes,46.27368061120017,-114.53002895034211,250.0
59725,45.06267,-112.85714,Dillon,MT,Montana,True,,8018.0,1.6,30001,Beaverhead,"{""30001"": 96.05, ""30057"": 3.95}",Beaverhead|Madison,30001|30057,False,False,America/Denver,"(45.06267, -112.85714)",116.29330726725314,3804499.0,23_0_yes,46.27368061120017,-114.53002895034211,250.0
59727,45.78797,-112.79394,Divide,MT,Montana,True,,269.0,0.3,30093,Silver Bow,"{""30093"": 79.64, ""30001"": 20.36}",Silver Bow|Beaverhead,30093|30001,False,False,America/Denver,"(45.78797, -112.79394)",89.7844652373247,3804499.0,23_0_yes,46.27368061120017,-114.53002895034211,250.0
59728,46.50487,-112.41135,Elliston,MT,Montana,True,,327.0,0.7,30077,Powell,"{""30077"": 100}",Powell,30077,False,False,America/Denver,"(46.50487, -112.41135)",102.22346277276779,3804499.0,23_0_yes,46.27368061120017,-114.53002895034211,250.0
59729,45.31343,-111.64827,Ennis,MT,Montana,True,,2384.0,2.0,30057,Madison,"{""30057"": 100}",Madison,30057,False,False,America/Denver,"(45.31343, -111.64827)",153.8552774559675,3804499.0,23_0_yes,46.27368061120017,-114.53002895034211,250.0
59730,45.30988,-111.19025,Gallatin Gateway,MT,Montana,True,,2092.0,1.2,30031,Gallatin,"{""30031"": 94.04, ""30057"": 5.96}",Gallatin|Madison,30031|30057,False,False,America/Denver,"(45.30988, -111.19025)",174.1171961097645,3804499.0,23_0_yes,46.27368061120017,-114.53002895034211,250.0
59731,46.58455,-112.76326,Garrison,MT,Montana,True,,142.0,0.4,30077,Powell,"{""30077"": 100}",Powell,30077,False,False,America/Denver,"(46.58455, -112.76326)",86.83458982510702,3804499.0,23_0_yes,46.27368061120017,-114.53002895034211,250.0
59732,45.48899,-112.69457,Glen,MT,Montana,True,,334.0,0.6,30001,Beaverhead,"{""30001"": 58.44, ""30057"": 41.56}",Beaverhead|Madison,30001|30057,False,False,America/Denver,"(45.48899, -112.69457)",103.5987139602306,3804499.0,23_0_yes,46.27368061120017,-114.53002895034211,250.0
59733,46.54922,-112.94987,Gold Creek,MT,Montana,True,,234.0,0.6,30077,Powell,"{""30077"": 100}",Powell,30077,False,False,America/Denver,"(46.54922, -112.94987)",77.64449104098601,3804499.0,23_0_yes,46.27368061120017,-114.53002895034211,250.0
59735,45.65775,-111.84615,Harrison,MT,Montana,True,,260.0,0.9,30057,Madison,"{""30057"": 100}",Madison,30057,False,False,America/Denver,"(45.65775, -111.84615)",135.7315062197436,3804499.0,23_0_yes,46.27368061120017,-114.53002895034211,250.0
59736,45.34242,-113.3458,Jackson,MT,Montana,True,,146.0,0.2,30001,Beaverhead,"{""30001"": 100}",Beaverhead,30001,False,False,America/Denver,"(45.34242, -113.3458)",85.98161026540546,3804499.0,23_0_yes,46.27368061120017,-114.53002895034211,250.0
59739,44.65378,-112.16963,Lima,MT,Montana,True,,267.0,0.1,30001,Beaverhead,"{""30001"": 100}",Beaverhead,30001,False,False,America/Denver,"(44.65378, -112.16963)",160.0192672085003,3804499.0,23_0_yes,46.27368061120017,-114.53002895034211,250.0
59740,45.49871,-111.81159,McAllister,MT,Montana,True,,458.0,1.1,30057,Madison,"{""30057"": 100}",Madison,30057,False,False,America/Denver,"(45.49871, -111.81159)",141.27328195407728,3804499.0,23_0_yes,46.27368061120017,-114.53002895034211,250.0
59741,45.77265,-111.3638,Manhattan,MT,Montana,True,,5041.0,11.8,30031,Gallatin,"{""30031"": 100}",Gallatin,30031,False,False,America/Denver,"(45.77265, -111.3638)",155.78663035664718,3804499.0,23_0_yes,46.27368061120017,-114.53002895034211,250.0
59743,45.60068,-112.74964,Melrose,MT,Montana,True,,153.0,0.3,30001,Beaverhead,"{""30001"": 62.75, ""30057"": 27.89, ""30093"": 9.36}",Beaverhead|Madison|Silver Bow,30001|30057|30093,False,False,America/Denver,"(45.60068, -112.74964)",97.36647698122208,3804499.0,23_0_yes,46.27368061120017,-114.53002895034211,250.0
59745,45.5941,-111.60658,Norris,MT,Montana,True,,67.0,0.2,30057,Madison,"{""30057"": 100}",Madison,30057,False,False,America/Denver,"(45.5941, -111.60658)",148.1109001306409,3804499.0,23_0_yes,46.27368061120017,-114.53002895034211,250.0
59746,45.37137,-113.05332,Polaris,MT,Montana,True,,147.0,0.3,30001,Beaverhead,"{""30001"": 100}",Beaverhead,30001,False,False,America/Denver,"(45.37137, -113.05332)",94.5615222615105,3804499.0,23_0_yes,46.27368061120017,-114.53002895034211,250.0
59747,45.69862,-111.93281,Pony,MT,Montana,True,,165.0,1.6,30057,Madison,"{""30057"": 100}",Madison,30057,False,False,America/Denver,"(45.69862, -111.93281)",130.8583697849769,3804499.0,23_0_yes,46.27368061120017,-114.53002895034211,250.0
59748,46.04611,-112.69601,Ramsay,MT,Montana,True,,245.0,4.4,30093,Silver Bow,"{""30093"": 100}",Silver Bow,30093,False,False,America/Denver,"(46.04611, -112.69601)",89.1665449150396,3804499.0,23_0_yes,46.27368061120017,-114.53002895034211,250.0
59749,45.44332,-112.09548,Sheridan,MT,Montana,True,,2080.0,3.4,30057,Madison,"{""30057"": 100}",Madison,30057,False,False,America/Denver,"(45.44332, -112.09548)",130.43447566396432,3804499.0,23_0_yes,46.27368061120017,-114.53002895034211,250.0
59750,45.91857,-112.68323,Butte,MT,Montana,True,,390.0,1.5,30093,Silver Bow,"{""30093"": 100}",Silver Bow,30093,False,False,America/Denver,"(45.91857, -112.68323)",91.82167656576831,3804499.0,23_0_yes,46.27368061120017,-114.53002895034211,250.0
59751,45.69001,-112.29755,Silver Star,MT,Montana,True,,277.0,4.0,30057,Madison,"{""30057"": 100}",Madison,30057,False,False,America/Denver,"(45.69001, -112.29755)",114.51630802697892,3804499.0,23_0_yes,46.27368061120017,-114.53002895034211,250.0
59752,45.92412,-111.52577,Three Forks,MT,Montana,True,,3878.0,3.7,30031,Gallatin,"{""30031"": 62.21, ""30043"": 19.43, ""30007"": 18.36}",Gallatin|Jefferson|Broadwater,30031|30043|30007,False,False,America/Denver,"(45.92412, -111.52577)",145.93835945148626,3804499.0,23_0_yes,46.27368061120017,-114.53002895034211,250.0
59754,45.52435,-112.35339,Twin Bridges,MT,Montana,True,,966.0,1.0,30057,Madison,"{""30057"": 100}",Madison,30057,False,False,America/Denver,"(45.52435, -112.35339)",116.76110228951873,3804499.0,23_0_yes,46.27368061120017,-114.53002895034211,250.0
59755,45.27174,-111.94274,Virginia City,MT,Montana,True,,169.0,1.0,30057,Madison,"{""30057"": 100}",Madison,30057,False,False,America/Denver,"(45.27174, -111.94274)",142.60753817738762,3804499.0,23_0_yes,46.27368061120017,-114.53002895034211,250.0
59756,46.17418,-112.83453,Warm Springs,MT,Montana,True,,475.0,17.8,30023,Deer Lodge,"{""30023"": 100}",Deer Lodge,30023,False,False,America/Denver,"(46.17418, -112.83453)",81.33721721498283,3804499.0,23_0_yes,46.27368061120017,-114.53002895034211,250.0
59758,44.78962,-111.19348,West Yellowstone,MT,Montana,True,,1623.0,1.5,30031,Gallatin,"{""30031"": 100}",Gallatin,30031,False,False,America/Denver,"(44.78962, -111.19348)",191.26999068806683,3804499.0,23_0_yes,46.27368061120017,-114.53002895034211,250.0
59759,45.83972,-112.16233,Whitehall,MT,Montana,True,,3784.0,3.3,30043,Jefferson,"{""30043"": 61.28, ""30057"": 32.23, ""30093"": 6.49}",Jefferson|Madison|Silver Bow,30043|30057|30093,False,False,America/Denver,"(45.83972, -112.16233)",117.41205887890007,3804499.0,23_0_yes,46.27368061120017,-114.53002895034211,250.0
59760,45.76267,-111.60386,Willow Creek,MT,Montana,True,,251.0,2.1,30031,Gallatin,"{""30031"": 100}",Gallatin,30031,False,False,America/Denver,"(45.76267, -111.60386)",144.76112759648422,3804499.0,23_0_yes,46.27368061120017,-114.53002895034211,250.0
59761,45.60427,-113.52661,Wisdom,MT,Montana,True,,319.0,0.1,30001,Beaverhead,"{""30001"": 100}",Beaverhead,30001,False,False,America/Denver,"(45.60427, -113.52661)",66.81044746690614,3804499.0,23_0_yes,46.27368061120017,-114.53002895034211,250.0
59762,45.82231,-113.15271,Wise River,MT,Montana,True,,199.0,0.1,30023,Deer Lodge,"{""30023"": 56.11, ""30001"": 43.89}",Deer Lodge|Beaverhead,30023|30001,False,False,America/Denver,"(45.82231, -113.15271)",73.04014376059988,3804499.0,23_0_yes,46.27368061120017,-114.53002895034211,250.0
59801,46.85505,-114.01009,Missoula,MT,Montana,True,,33427.0,1673.8,30063,Missoula,"{""30063"": 100}",Missoula,30063,False,False,America/Denver,"(46.85505, -114.01009)",47.15472604468936,3804499.0,23_0_yes,46.27368061120017,-114.53002895034211,250.0
59802,46.90569,-113.92077,Missoula,MT,Montana,True,,20778.0,176.8,30063,Missoula,"{""30063"": 100}",Missoula,30063,False,False,America/Denver,"(46.90569, -113.92077)",52.38046063176811,3804499.0,23_0_yes,46.27368061120017,-114.53002895034211,250.0
59803,46.77781,-113.95826,Missoula,MT,Montana,True,,18156.0,72.3,30063,Missoula,"{""30063"": 100}",Missoula,30063,False,False,America/Denver,"(46.77781, -113.95826)",44.18197454958101,3804499.0,23_0_yes,46.27368061120017,-114.53002895034211,250.0
59804,46.90084,-114.25066,Missoula,MT,Montana,True,,8072.0,24.7,30063,Missoula,"{""30063"": 100}",Missoula,30063,False,False,America/Denver,"(46.90084, -114.25066)",45.31757975927934,3804499.0,23_0_yes,46.27368061120017,-114.53002895034211,250.0
59808,46.97984,-114.064,Missoula,MT,Montana,True,,20165.0,49.6,30063,Missoula,"{""30063"": 100}",Missoula,30063,False,False,America/Denver,"(46.97984, -114.064)",53.56783875863892,3804499.0,23_0_yes,46.27368061120017,-114.53002895034211,250.0
59820,46.89803,-114.61474,Alberton,MT,Montana,True,,2064.0,2.1,30061,Mineral,"{""30061"": 72.05, ""30063"": 27.95}",Mineral|Missoula,30061|30063,False,False,America/Denver,"(46.89803, -114.61474)",43.32556684922733,3804499.0,23_0_yes,46.27368061120017,-114.53002895034211,250.0
59821,47.17603,-114.00431,Arlee,MT,Montana,True,,2650.0,3.2,30063,Missoula,"{""30063"": 43.96, ""30047"": 37.18, ""30089"": 18.86}",Missoula|Lake|Sanders,30063|30047|30089,False,False,America/Denver,"(47.17603, -114.00431)",67.13438627432271,3804499.0,23_0_yes,46.27368061120017,-114.53002895034211,250.0
59823,46.96334,-113.59753,Bonner,MT,Montana,True,,1840.0,1.4,30063,Missoula,"{""30063"": 100}",Missoula,30063,False,False,America/Denver,"(46.96334, -113.59753)",65.02973528107987,3804499.0,23_0_yes,46.27368061120017,-114.53002895034211,250.0
59824,47.41817,-114.20362,Charlo,MT,Montana,True,,1258.0,5.2,30047,Lake,"{""30047"": 100}",Lake,30047,False,False,America/Denver,"(47.41817, -114.20362)",80.56689107473079,3804499.0,23_0_yes,46.27368061120017,-114.53002895034211,250.0
59825,46.66009,-113.66421,Clinton,MT,Montana,True,,2341.0,2.2,30039,Granite,"{""30039"": 61.49, ""30063"": 38.51}",Granite|Missoula,30039|30063,False,False,America/Denver,"(46.66009, -113.66421)",49.09718815291158,3804499.0,23_0_yes,46.27368061120017,-114.53002895034211,250.0
59826,47.46339,-113.69827,Condon,MT,Montana,True,,578.0,0.6,30063,Missoula,"{""30063"": 100}",Missoula,30063,False,False,America/Denver,"(47.46339, -113.69827)",91.10694341711192,3804499.0,23_0_yes,46.27368061120017,-114.53002895034211,250.0
59827,45.88649,-114.08346,Conner,MT,Montana,True,,335.0,7.9,30081,Ravalli,"{""30081"": 100}",Ravalli,30081,False,False,America/Denver,"(45.88649, -114.08346)",34.26004183556562,3804499.0,23_0_yes,46.27368061120017,-114.53002895034211,250.0
59828,46.33478,-113.96444,Corvallis,MT,Montana,True,,5709.0,13.4,30081,Ravalli,"{""30081"": 100}",Ravalli,30081,False,False,America/Denver,"(46.33478, -113.96444)",27.324561174753654,3804499.0,23_0_yes,46.27368061120017,-114.53002895034211,250.0
59829,45.79814,-114.2614,Darby,MT,Montana,True,,2432.0,1.1,30081,Ravalli,"{""30081"": 100}",Ravalli,30081,False,False,America/Denver,"(45.79814, -114.2614)",35.29276379425624,3804499.0,23_0_yes,46.27368061120017,-114.53002895034211,250.0
59830,47.43419,-115.45896,De Borgia,MT,Montana,True,,183.0,0.7,30061,Mineral,"{""30061"": 100}",Mineral,30061,False,False,America/Denver,"(47.43419, -115.45896)",91.40907478438398,3804499.0,23_0_yes,46.27368061120017,-114.53002895034211,250.0
59831,47.27732,-114.36296,Dixon,MT,Montana,True,,498.0,1.9,30089,Sanders,"{""30089"": 100}",Sanders,30089,False,False,America/Denver,"(47.27732, -114.36296)",69.79400402607574,3804499.0,23_0_yes,46.27368061120017,-114.53002895034211,250.0
59832,46.67864,-113.22904,Drummond,MT,Montana,True,,625.0,1.0,30039,Granite,"{""30039"": 100}",Granite,30039,False,False,America/Denver,"(46.67864, -113.22904)",67.9317889460589,3804499.0,23_0_yes,46.27368061120017,-114.53002895034211,250.0
59833,46.64437,-114.07678,Florence,MT,Montana,True,,5444.0,13.7,30081,Ravalli,"{""30081"": 70.2, ""30063"": 29.8}",Ravalli|Missoula,30081|30063,False,False,America/Denver,"(46.64437, -114.07678)",33.486943820680416,3804499.0,23_0_yes,46.27368061120017,-114.53002895034211,250.0
59834,47.06979,-114.2221,Frenchtown,MT,Montana,True,,2161.0,12.5,30063,Missoula,"{""30063"": 100}",Missoula,30063,False,False,America/Denver,"(47.06979, -114.2221)",56.91016740151207,3804499.0,23_0_yes,46.27368061120017,-114.53002895034211,250.0
59837,46.53898,-113.27688,Hall,MT,Montana,True,,560.0,1.1,30039,Granite,"{""30039"": 100}",Granite,30039,False,False,America/Denver,"(46.53898, -113.27688)",62.45310715529411,3804499.0,23_0_yes,46.27368061120017,-114.53002895034211,250.0
59840,46.17558,-114.11674,Hamilton,MT,Montana,True,,13966.0,10.0,30081,Ravalli,"{""30081"": 100}",Ravalli,30081,False,False,America/Denver,"(46.17558, -114.11674)",20.886065591894535,3804499.0,23_0_yes,46.27368061120017,-114.53002895034211,250.0
59841,46.33384,-114.22319,Pinesdale,MT,Montana,True,,987.0,292.2,30081,Ravalli,"{""30081"": 100}",Ravalli,30081,False,False,America/Denver,"(46.33384, -114.22319)",15.224482126410056,3804499.0,23_0_yes,46.27368061120017,-114.53002895034211,250.0
59842,47.32526,-115.40107,Haugan,MT,Montana,True,,91.0,0.3,30061,Mineral,"{""30061"": 100}",Mineral,30061,False,False,America/Denver,"(47.32526, -115.40107)",83.52348224354313,3804499.0,23_0_yes,46.27368061120017,-114.53002895034211,250.0
59843,46.84897,-113.01114,Helmville,MT,Montana,True,,295.0,0.3,30077,Powell,"{""30077"": 100}",Powell,30077,False,False,America/Denver,"(46.84897, -113.01114)",82.37953358610818,3804499.0,23_0_yes,46.27368061120017,-114.53002895034211,250.0
59844,48.00803,-115.9707,Heron,MT,Montana,True,,783.0,4.0,30089,Sanders,"{""30089"": 100}",Sanders,30089,False,False,America/Denver,"(48.00803, -115.9707)",137.631216283012,3804499.0,23_0_yes,46.27368061120017,-114.53002895034211,250.0
59845,47.65892,-114.54734,Hot Springs,MT,Montana,True,,1355.0,1.2,30089,Sanders,"{""30089"": 66.98, ""30047"": 17.32, ""30029"": 15.7}",Sanders|Lake|Flathead,30089|30047|30029,False,False,America/Denver,"(47.65892, -114.54734)",95.71440517895566,3804499.0,23_0_yes,46.27368061120017,-114.53002895034211,250.0
59846,47.14899,-114.50615,Huson,MT,Montana,True,,1236.0,2.3,30063,Missoula,"{""30063"": 100}",Missoula,30063,False,False,America/Denver,"(47.14899, -114.50615)",60.48869714196119,3804499.0,23_0_yes,46.27368061120017,-114.53002895034211,250.0
59847,46.73105,-114.37782,Lolo,MT,Montana,True,,6005.0,7.7,30063,Missoula,"{""30063"": 94.85, ""16049"": 5.15}",Missoula|Idaho,30063|16049,False,False,America/Denver,"(46.73105, -114.37782)",32.41969543007091,3804499.0,23_0_yes,46.27368061120017,-114.53002895034211,250.0
59848,47.71526,-114.68162,Lonepine,MT,Montana,True,,108.0,1.4,30089,Sanders,"{""30089"": 100}",Sanders,30089,False,False,America/Denver,"(47.71526, -114.68162)",99.85945569061086,3804499.0,23_0_yes,46.27368061120017,-114.53002895034211,250.0
59851,46.87215,-113.87348,Milltown,MT,Montana,True,,99.0,108.4,30063,Missoula,"{""30063"": 100}",Missoula,30063,False,False,America/Denver,"(46.87215, -113.87348)",51.790437071351846,3804499.0,23_0_yes,46.27368061120017,-114.53002895034211,250.0
59853,48.0571,-115.81522,Noxon,MT,Montana,True,,699.0,0.9,30089,Sanders,"{""30089"": 100}",Sanders,30089,False,False,America/Denver,"(48.0571, -115.81522)",137.2123722218061,3804499.0,23_0_yes,46.27368061120017,-114.53002895034211,250.0
59854,47.26481,-113.18997,Ovando,MT,Montana,True,,155.0,0.1,30077,Powell,"{""30077"": 100}",Powell,30077,False,False,America/Denver,"(47.26481, -113.18997)",93.33207732269642,3804499.0,23_0_yes,46.27368061120017,-114.53002895034211,250.0
59855,47.60032,-114.11787,Pablo,MT,Montana,True,,675.0,738.5,30047,Lake,"{""30047"": 100}",Lake,30047,False,False,America/Denver,"(47.60032, -114.11787)",93.7013528820494,3804499.0,23_0_yes,46.27368061120017,-114.53002895034211,250.0
59856,47.38237,-114.73627,Paradise,MT,Montana,True,,526.0,10.5,30089,Sanders,"{""30089"": 100}",Sanders,30089,False,False,America/Denver,"(47.38237, -114.73627)",77.22100477495209,3804499.0,23_0_yes,46.27368061120017,-114.53002895034211,250.0
59858,46.29584,-113.48371,Philipsburg,MT,Montana,True,,1640.0,0.7,30039,Granite,"{""30039"": 100}",Granite,30039,False,False,America/Denver,"(46.29584, -113.48371)",49.98347384139337,3804499.0,23_0_yes,46.27368061120017,-114.53002895034211,250.0
59859,47.5205,-114.80396,Plains,MT,Montana,True,,3194.0,1.7,30089,Sanders,"{""30089"": 100}",Sanders,30089,False,False,America/Denver,"(47.5205, -114.80396)",87.11222006161329,3804499.0,23_0_yes,46.27368061120017,-114.53002895034211,250.0
59860,47.71314,-114.17832,Polson,MT,Montana,True,,10834.0,16.0,30047,Lake,"{""30047"": 100}",Lake,30047,False,False,America/Denver,"(47.71314, -114.17832)",100.82856265578563,3804499.0,23_0_yes,46.27368061120017,-114.53002895034211,250.0
59863,47.29397,-114.17637,Ravalli,MT,Montana,True,,220.0,11.1,30047,Lake,"{""30047"": 100}",Lake,30047,False,False,America/Denver,"(47.29397, -114.17637)",72.45357888700421,3804499.0,23_0_yes,46.27368061120017,-114.53002895034211,250.0
59864,47.53324,-114.11741,Ronan,MT,Montana,True,,6757.0,14.0,30047,Lake,"{""30047"": 100}",Lake,30047,False,False,America/Denver,"(47.53324, -114.11741)",89.18005999321726,3804499.0,23_0_yes,46.27368061120017,-114.53002895034211,250.0
59865,47.33184,-114.0045,Saint Ignatius,MT,Montana,True,,3958.0,9.4,30047,Lake,"{""30047"": 100}",Lake,30047,False,False,America/Denver,"(47.33184, -114.0045)",77.22069532275455,3804499.0,23_0_yes,46.27368061120017,-114.53002895034211,250.0
59866,47.32207,-115.12329,Saint Regis,MT,Montana,True,,869.0,1.5,30061,Mineral,"{""30061"": 90.51, ""30089"": 9.49}",Mineral|Sanders,30061|30089,False,False,America/Denver,"(47.32207, -115.12329)",77.68146393625112,3804499.0,23_0_yes,46.27368061120017,-114.53002895034211,250.0
59867,47.4028,-115.54993,Saltese,MT,Montana,True,,53.0,0.9,30061,Mineral,"{""30061"": 100}",Mineral,30061,False,False,America/Denver,"(47.4028, -115.54993)",91.70399671289988,3804499.0,23_0_yes,46.27368061120017,-114.53002895034211,250.0
59868,47.21401,-113.53535,Seeley Lake,MT,Montana,True,,1963.0,3.0,30063,Missoula,"{""30063"": 95.82, ""30077"": 4.18}",Missoula|Powell,30063|30077,False,False,America/Denver,"(47.21401, -113.53535)",80.24260827187169,3804499.0,23_0_yes,46.27368061120017,-114.53002895034211,250.0
59870,46.51596,-114.0618,Stevensville,MT,Montana,True,,11305.0,17.1,30081,Ravalli,"{""30081"": 100}",Ravalli,30081,False,False,America/Denver,"(46.51596, -114.0618)",27.893761019811755,3804499.0,23_0_yes,46.27368061120017,-114.53002895034211,250.0
59871,45.89666,-113.81366,Sula,MT,Montana,True,,268.0,0.3,30081,Ravalli,"{""30081"": 100}",Ravalli,30081,False,False,America/Denver,"(45.89666, -113.81366)",43.09425008387574,3804499.0,23_0_yes,46.27368061120017,-114.53002895034211,250.0
59872,47.10282,-114.90339,Superior,MT,Montana,True,,2049.0,1.5,30061,Mineral,"{""30061"": 100}",Mineral,30061,False,False,America/Denver,"(47.10282, -114.90339)",59.958644729920344,3804499.0,23_0_yes,46.27368061120017,-114.53002895034211,250.0
59873,47.6972,-115.27357,Thompson Falls,MT,Montana,True,,3139.0,1.6,30089,Sanders,"{""30089"": 100}",Sanders,30089,False,False,America/Denver,"(47.6972, -115.27357)",104.41181391586332,3804499.0,23_0_yes,46.27368061120017,-114.53002895034211,250.0
59874,47.80675,-115.60749,Trout Creek,MT,Montana,True,,1554.0,1.6,30089,Sanders,"{""30089"": 100}",Sanders,30089,False,False,America/Denver,"(47.80675, -115.60749)",117.44473262579523,3804499.0,23_0_yes,46.27368061120017,-114.53002895034211,250.0
59875,46.40793,-114.26151,Victor,MT,Montana,True,,3895.0,11.7,30081,Ravalli,"{""30081"": 100}",Ravalli,30081,False,False,America/Denver,"(46.40793, -114.26151)",15.814293468351762,3804499.0,23_0_yes,46.27368061120017,-114.53002895034211,250.0
59901,48.22873,-114.40564,Kalispell,MT,Montana,True,,56951.0,46.9,30029,Flathead,"{""30029"": 100}",Flathead,30029,False,False,America/Denver,"(48.22873, -114.40564)",135.20690573862998,3804499.0,23_0_yes,46.27368061120017,-114.53002895034211,250.0
59910,47.82409,-114.23271,Big Arm,MT,Montana,True,,455.0,9.1,30047,Lake,"{""30047"": 100}",Lake,30047,False,False,America/Denver,"(47.82409, -114.23271)",108.03345244449443,3804499.0,23_0_yes,46.27368061120017,-114.53002895034211,250.0
59911,47.86041,-113.88552,Bigfork,MT,Montana,True,,8905.0,7.0,30047,Lake,"{""30047"": 83.62, ""30029"": 16.38}",Lake|Flathead,30047|30029,False,False,America/Denver,"(47.86041, -113.88552)",113.75003319132365,3804499.0,23_0_yes,46.27368061120017,-114.53002895034211,250.0
59912,48.43879,-114.16898,Columbia Falls,MT,Montana,True,,15673.0,32.0,30029,Flathead,"{""30029"": 100}",Flathead,30029,False,False,America/Denver,"(48.43879, -114.16898)",150.54581901179537,3804499.0,23_0_yes,46.27368061120017,-114.53002895034211,250.0
59913,48.41391,-113.95045,Coram,MT,Montana,True,,456.0,3.4,30029,Flathead,"{""30029"": 100}",Flathead,30029,False,False,America/Denver,"(48.41391, -113.95045)",150.3433723310484,3804499.0,23_0_yes,46.27368061120017,-114.53002895034211,250.0
59914,47.86878,-114.29546,Dayton,MT,Montana,True,,326.0,11.2,30047,Lake,"{""30047"": 100}",Lake,30047,False,False,America/Denver,"(47.86878, -114.29546)",110.76213078056713,3804499.0,23_0_yes,46.27368061120017,-114.53002895034211,250.0
59915,47.82025,-114.41124,Elmo,MT,Montana,True,,563.0,3.8,30047,Lake,"{""30047"": 100}",Lake,30047,False,False,America/Denver,"(47.82025, -114.41124)",107.00397678976192,3804499.0,23_0_yes,46.27368061120017,-114.53002895034211,250.0
59916,48.31716,-113.65779,Essex,MT,Montana,True,,178.0,0.6,30029,Flathead,"{""30029"": 100}",Flathead,30029,False,False,America/Denver,"(48.31716, -113.65779)",146.9854283119626,3804499.0,23_0_yes,46.27368061120017,-114.53002895034211,250.0
59917,48.90614,-114.91359,Eureka,MT,Montana,True,,5008.0,7.9,30053,Lincoln,"{""30053"": 100}",Lincoln,30053,False,False,America/Denver,"(48.90614, -114.91359)",182.76099602910887,3804499.0,23_0_yes,46.27368061120017,-114.53002895034211,250.0
59918,48.75766,-114.8077,Fortine,MT,Montana,True,,808.0,3.3,30053,Lincoln,"{""30053"": 100}",Lincoln,30053,False,False,America/Denver,"(48.75766, -114.8077)",172.11471677493552,3804499.0,23_0_yes,46.27368061120017,-114.53002895034211,250.0
59919,48.3776,-114.05645,Hungry Horse,MT,Montana,True,,650.0,110.5,30029,Flathead,"{""30029"": 100}",Flathead,30029,False,False,America/Denver,"(48.3776, -114.05645)",147.04841063346572,3804499.0,23_0_yes,46.27368061120017,-114.53002895034211,250.0
59920,48.06412,-114.53464,Kila,MT,Montana,True,,1630.0,3.4,30029,Flathead,"{""30029"": 100}",Flathead,30029,False,False,America/Denver,"(48.06412, -114.53464)",123.70776839830353,3804499.0,23_0_yes,46.27368061120017,-114.53002895034211,250.0
59922,47.99962,-114.22227,Lakeside,MT,Montana,True,,2128.0,21.5,30029,Flathead,"{""30029"": 93.2, ""30047"": 6.8}",Flathead|Lake,30029|30047,False,False,America/Denver,"(47.99962, -114.22227)",120.12484189362364,3804499.0,23_0_yes,46.27368061120017,-114.53002895034211,250.0
59923,48.26996,-115.31073,Libby,MT,Montana,True,,9154.0,2.5,30053,Lincoln,"{""30053"": 100}",Lincoln,30053,False,False,America/Denver,"(48.26996, -115.31073)",142.70101759299482,3804499.0,23_0_yes,46.27368061120017,-114.53002895034211,250.0
59925,48.04732,-114.83045,Marion,MT,Montana,True,,1526.0,1.6,30029,Flathead,"{""30029"": 100}",Flathead,30029,False,False,America/Denver,"(48.04732, -114.83045)",123.35658263485362,3804499.0,23_0_yes,46.27368061120017,-114.53002895034211,250.0
59926,48.36294,-114.00459,Martin City,MT,Montana,True,,369.0,14.2,30029,Flathead,"{""30029"": 100}",Flathead,30029,False,False,America/Denver,"(48.36294, -114.00459)",146.43607855962307,3804499.0,23_0_yes,46.27368061120017,-114.53002895034211,250.0
59927,48.56021,-114.717,Olney,MT,Montana,True,,270.0,0.5,30029,Flathead,"{""30029"": 100}",Flathead,30029,False,False,America/Denver,"(48.56021, -114.717)",158.2256362718651,3804499.0,23_0_yes,46.27368061120017,-114.53002895034211,250.0
59928,48.79745,-114.29117,Polebridge,MT,Montana,True,,202.0,0.1,30029,Flathead,"{""30029"": 100}",Flathead,30029,False,False,America/Denver,"(48.79745, -114.29117)",174.73120347605564,3804499.0,23_0_yes,46.27368061120017,-114.53002895034211,250.0
59929,47.92365,-114.40272,Proctor,MT,Montana,True,,234.0,2.2,30047,Lake,"{""30047"": 100}",Lake,30047,False,False,America/Denver,"(47.92365, -114.40272)",114.15912588194632,3804499.0,23_0_yes,46.27368061120017,-114.53002895034211,250.0
59930,48.86277,-115.14514,Rexford,MT,Montana,True,,399.0,1.6,30053,Lincoln,"{""30053"": 100}",Lincoln,30053,False,False,America/Denver,"(48.86277, -115.14514)",181.17095847179158,3804499.0,23_0_yes,46.27368061120017,-114.53002895034211,250.0
59931,47.9208,-114.25486,Rollins,MT,Montana,True,,325.0,4.4,30047,Lake,"{""30047"": 100}",Lake,30047,False,False,America/Denver,"(47.9208, -114.25486)",114.53849541769115,3804499.0,23_0_yes,46.27368061120017,-114.53002895034211,250.0
59932,48.0502,-114.24624,Somers,MT,Montana,True,,1355.0,19.2,30029,Flathead,"{""30029"": 100}",Flathead,30029,False,False,America/Denver,"(48.0502, -114.24624)",123.46744206695269,3804499.0,23_0_yes,46.27368061120017,-114.53002895034211,250.0
59933,48.70858,-114.76694,Stryker,MT,Montana,True,,66.0,1.3,30053,Lincoln,"{""30053"": 100}",Lincoln,30053,False,False,America/Denver,"(48.70858, -114.76694)",168.59846987730955,3804499.0,23_0_yes,46.27368061120017,-114.53002895034211,250.0
59934,48.63437,-114.94446,Trego,MT,Montana,True,,794.0,2.5,30053,Lincoln,"{""30053"": 100}",Lincoln,30053,False,False,America/Denver,"(48.63437, -114.94446)",164.2525508493053,3804499.0,23_0_yes,46.27368061120017,-114.53002895034211,250.0
59935,48.64726,-115.83505,Troy,MT,Montana,True,,3616.0,1.3,30053,Lincoln,"{""30053"": 100}",Lincoln,30053,False,False,America/Denver,"(48.64726, -115.83505)",174.95576183532916,3804499.0,23_0_yes,46.27368061120017,-114.53002895034211,250.0
59936,48.17178,-113.46357,West Glacier,MT,Montana,True,,491.0,0.1,30029,Flathead,"{""30029"": 100}",Flathead,30029,False,False,America/Denver,"(48.17178, -113.46357)",140.36591059209854,3804499.0,23_0_yes,46.27368061120017,-114.53002895034211,250.0
59937,48.43893,-114.49769,Whitefish,MT,Montana,True,,13962.0,17.4,30029,Flathead,"{""30029"": 100}",Flathead,30029,False,False,America/Denver,"(48.43893, -114.49769)",149.61213642553352,3804499.0,23_0_yes,46.27368061120017,-114.53002895034211,250.0
82190,44.57439,-110.51807,Yellowstone National Park,WY,Wyoming,True,,1183.0,0.2,56029,Park,"{""56029"": 55.76, ""56039"": 44.24}",Park|Teton,56029|56039,False,False,America/Denver,"(44.57439, -110.51807)",227.19400664810703,3804499.0,23_0_yes,46.27368061120017,-114.53002895034211,250.0
82414,44.45727,-109.59671,Cody,WY,Wyoming,True,,15383.0,2.2,56029,Park,"{""56029"": 100}",Park,56029,False,False,America/Denver,"(44.45727, -109.59671)",270.30511197396464,3804499.0,23_0_yes,46.27368061120017,-114.53002895034211,250.0
82450,44.50398,-109.43379,Wapiti,WY,Wyoming,True,,150.0,1.7,56029,Park,"{""56029"": 100}",Park,56029,False,False,America/Denver,"(44.50398, -109.43379)",275.7942353657778,3804499.0,23_0_yes,46.27368061120017,-114.53002895034211,250.0
82513,43.59737,-109.61913,Dubois,WY,Wyoming,True,,1549.0,0.4,56013,Fremont,"{""56013"": 100}",Fremont,56013,False,False,America/Denver,"(43.59737, -109.61913)",303.034224813531,3804499.0,23_0_yes,46.27368061120017,-114.53002895034211,250.0
82922,43.13507,-110.43426,Bondurant,WY,Wyoming,True,,302.0,0.4,56035,Sublette,"{""56035"": 100}",Sublette,56035,False,False,America/Denver,"(43.13507, -110.43426)",295.69204308706935,3804499.0,23_0_yes,46.27368061120017,-114.53002895034211,250.0
82925,43.23123,-109.89386,Cora,WY,Wyoming,True,,438.0,0.2,56035,Sublette,"{""56035"": 94.89, ""56039"": 5.11}",Sublette|Teton,56035|56039,False,False,America/Denver,"(43.23123, -109.89386)",309.6388181821114,3804499.0,23_0_yes,46.27368061120017,-114.53002895034211,250.0
82941,42.99919,-109.90869,Pinedale,WY,Wyoming,True,,4981.0,2.9,56035,Sublette,"{""56035"": 100}",Sublette,56035,False,False,America/Denver,"(42.99919, -109.90869)",320.5349411389584,3804499.0,23_0_yes,46.27368061120017,-114.53002895034211,250.0
83001,43.4094,-110.60884,Jackson,WY,Wyoming,True,,17867.0,14.3,56039,Teton,"{""56039"": 100}",Teton,56039,False,False,America/Denver,"(43.4094, -110.60884)",275.73901909221655,3804499.0,23_0_yes,46.27368061120017,-114.53002895034211,250.0
83011,43.58837,-110.43192,Kelly,WY,Wyoming,True,,194.0,0.2,56039,Teton,"{""56039"": 100}",Teton,56039,False,False,America/Denver,"(43.58837, -110.43192)",273.07575375763724,3804499.0,23_0_yes,46.27368061120017,-114.53002895034211,250.0
83012,43.7073,-110.75036,Moose,WY,Wyoming,True,,31.0,0.1,56039,Teton,"{""56039"": 100}",Teton,56039,False,False,America/Denver,"(43.7073, -110.75036)",255.97743092646917,3804499.0,23_0_yes,46.27368061120017,-114.53002895034211,250.0
83013,43.95666,-110.45191,Moran,WY,Wyoming,True,,187.0,0.1,56039,Teton,"{""56039"": 100}",Teton,56039,False,False,America/Denver,"(43.95666, -110.45191)",255.21937721165023,3804499.0,23_0_yes,46.27368061120017,-114.53002895034211,250.0
83014,43.458,-110.93746,Wilson,WY,Wyoming,True,,2885.0,5.2,56039,Teton,"{""56039"": 100}",Teton,56039,False,False,America/Denver,"(43.458, -110.93746)",262.2394581631413,3804499.0,23_0_yes,46.27368061120017,-114.53002895034211,250.0
83025,43.59371,-110.82814,Teton Village,WY,Wyoming,True,,946.0,26.3,56039,Teton,"{""56039"": 100}",Teton,56039,False,False,America/Denver,"(43.59371, -110.82814)",258.92898968828143,3804499.0,23_0_yes,46.27368061120017,-114.53002895034211,250.0
83110,42.72421,-110.90108,Afton,WY,Wyoming,True,,5325.0,13.6,56023,Lincoln,"{""56023"": 100}",Lincoln,56023,False,False,America/Denver,"(42.72421, -110.90108)",303.453740458904,3804499.0,23_0_yes,46.27368061120017,-114.53002895034211,250.0
83111,42.819,-111.01143,Auburn,WY,Wyoming,True,,807.0,20.7,56023,Lincoln,"{""56023"": 100}",Lincoln,56023,False,False,America/Denver,"(42.819, -111.01143)",294.8815665949365,3804499.0,23_0_yes,46.27368061120017,-114.53002895034211,250.0
83112,42.88191,-110.8833,Bedford,WY,Wyoming,True,,642.0,4.3,56023,Lincoln,"{""56023"": 100}",Lincoln,56023,False,False,America/Denver,"(42.88191, -110.8833)",295.107224498198,3804499.0,23_0_yes,46.27368061120017,-114.53002895034211,250.0
83115,42.92003,-110.24036,Daniel,WY,Wyoming,True,,917.0,1.0,56035,Sublette,"{""56035"": 100}",Sublette,56035,False,False,America/Denver,"(42.92003, -110.24036)",313.3254298692063,3804499.0,23_0_yes,46.27368061120017,-114.53002895034211,250.0
83118,43.06638,-110.9246,Etna,WY,Wyoming,True,,622.0,2.6,56023,Lincoln,"{""56023"": 100}",Lincoln,56023,False,False,America/Denver,"(43.06638, -110.9246)",283.64825167299074,3804499.0,23_0_yes,46.27368061120017,-114.53002895034211,250.0
83120,43.06595,-111.13529,Freedom,WY,Wyoming,True,,356.0,1.0,16019,Bonneville,"{""16019"": 71.13, ""16029"": 18.82, ""56023"": 10.05}",Bonneville|Caribou|Lincoln,16019|16029|56023,False,False,America/Boise,"(43.06595, -111.13529)",277.33278274087155,3804499.0,23_0_yes,46.27368061120017,-114.53002895034211,250.0
83122,42.82175,-110.95843,Grover,WY,Wyoming,True,,875.0,45.5,56023,Lincoln,"{""56023"": 100}",Lincoln,56023,False,False,America/Denver,"(42.82175, -110.95843)",296.2648663794334,3804499.0,23_0_yes,46.27368061120017,-114.53002895034211,250.0
83127,42.91815,-110.99756,Thayne,WY,Wyoming,True,,4060.0,6.8,56023,Lincoln,"{""56023"": 52.21, ""16029"": 47.79}",Lincoln|Caribou,56023|16029,False,False,America/Denver,"(42.91815, -110.99756)",289.6875688814348,3804499.0,23_0_yes,46.27368061120017,-114.53002895034211,250.0
83128,43.14762,-110.7918,Alpine,WY,Wyoming,True,,1081.0,1.1,56023,Lincoln,"{""56023"": 100}",Lincoln,56023,False,False,America/Denver,"(43.14762, -110.7918)",283.38297441018227,3804499.0,23_0_yes,46.27368061120017,-114.53002895034211,250.0
83201,42.88949,-112.38324,Pocatello,ID,Idaho,True,,36546.0,412.5,16005,Bannock,"{""16005"": 100}",Bannock,16005,False,False,America/Boise,"(42.88949, -112.38324)",256.55863764360424,3804499.0,23_0_yes,46.27368061120017,-114.53002895034211,250.0
83202,42.97057,-112.34734,Pocatello,ID,Idaho,True,,22413.0,51.9,16005,Bannock,"{""16005"": 90.38, ""16011"": 9.62}",Bannock|Bingham,16005|16011,False,False,America/Boise,"(42.97057, -112.34734)",252.1792273693787,3804499.0,23_0_yes,46.27368061120017,-114.53002895034211,250.0
83204,42.79219,-112.51877,Pocatello,ID,Idaho,True,,20699.0,28.5,16077,Power,"{""16077"": 59.24, ""16005"": 40.76}",Power|Bannock,16077|16005,False,False,America/Boise,"(42.79219, -112.51877)",260.12326819452903,3804499.0,23_0_yes,46.27368061120017,-114.53002895034211,250.0
83209,42.85782,-112.42619,Pocatello,ID,Idaho,True,,1237.0,713.0,16005,Bannock,"{""16005"": 100}",Bannock,16005,False,False,America/Boise,"(42.85782, -112.42619)",257.7100307519252,3804499.0,23_0_yes,46.27368061120017,-114.53002895034211,250.0
83210,43.02069,-112.86048,Aberdeen,ID,Idaho,True,,3874.0,5.6,16011,Bingham,"{""16011"": 100}",Bingham,16011,False,False,America/Boise,"(43.02069, -112.86048)",239.25955203740128,3804499.0,23_0_yes,46.27368061120017,-114.53002895034211,250.0
83211,42.66257,-113.06186,American Falls,ID,Idaho,True,,5766.0,3.0,16077,Power,"{""16077"": 65.33, ""16031"": 34.41, ""16011"": 0.26}",Power|Cassia|Bingham,16077|16031|16011,False,False,America/Boise,"(42.66257, -113.06186)",259.78064039871504,3804499.0,23_0_yes,46.27368061120017,-114.53002895034211,250.0
83213,43.55171,-113.35809,Arco,ID,Idaho,True,,1312.0,0.7,16023,Butte,"{""16023"": 100}",Butte,16023,False,False,America/Boise,"(43.55171, -113.35809)",196.61186876438222,3804499.0,23_0_yes,46.27368061120017,-114.53002895034211,250.0
83215,43.44314,-112.81239,Atomic City,ID,Idaho,True,,46.0,223.7,16011,Bingham,"{""16011"": 100}",Bingham,16011,False,False,America/Boise,"(43.44314, -112.81239)",212.88331754463238,3804499.0,23_0_yes,46.27368061120017,-114.53002895034211,250.0
83217,42.77525,-111.93559,Bancroft,ID,Idaho,True,,895.0,1.2,16029,Caribou,"{""16029"": 100}",Caribou,16029,False,False,America/Boise,"(42.77525, -111.93559)",273.3865203723584,3804499.0,23_0_yes,46.27368061120017,-114.53002895034211,250.0
83218,43.31803,-112.16453,Basalt,ID,Idaho,True,,358.0,305.9,16011,Bingham,"{""16011"": 100}",Bingham,16011,False,False,America/Boise,"(43.31803, -112.16453)",234.82542834572973,3804499.0,23_0_yes,46.27368061120017,-114.53002895034211,250.0
83221,43.30874,-112.53217,Blackfoot,ID,Idaho,True,,27651.0,14.7,16011,Bingham,"{""16011"": 100}",Bingham,16011,False,False,America/Boise,"(43.30874, -112.53217)",227.05638302271137,3804499.0,23_0_yes,46.27368061120017,-114.53002895034211,250.0
83226,44.40775,-114.06951,Challis,ID,Idaho,True,,1858.0,0.4,16037,Custer,"{""16037"": 87.32, ""16059"": 12.68}",Custer|Lemhi,16037|16059,False,False,America/Boise,"(44.40775, -114.06951)",130.84835702979433,3804499.0,23_0_yes,46.27368061120017,-114.53002895034211,250.0
83227,44.16563,-114.49424,Clayton,ID,Idaho,True,,17.0,0.0,16037,Custer,"{""16037"": 100}",Custer,16037,False,False,America/Boise,"(44.16563, -114.49424)",145.66283379421392,3804499.0,23_0_yes,46.27368061120017,-114.53002895034211,250.0
83235,44.60163,-114.03404,Ellis,ID,Idaho,True,,333.0,2.3,16037,Custer,"{""16037"": 93.74, ""16059"": 6.26}",Custer|Lemhi,16037|16059,False,False,America/Boise,"(44.60163, -114.03404)",118.00300663240206,3804499.0,23_0_yes,46.27368061120017,-114.53002895034211,250.0
83236,43.22819,-111.94894,Firth,ID,Idaho,True,,2398.0,4.3,16011,Bingham,"{""16011"": 100}",Bingham,16011,False,False,America/Boise,"(43.22819, -111.94894)",245.56443577407475,3804499.0,23_0_yes,46.27368061120017,-114.53002895034211,250.0
83244,43.94076,-113.11287,Howe,ID,Idaho,True,,392.0,0.2,16023,Butte,"{""16023"": 100}",Butte,16023,False,False,America/Boise,"(43.94076, -113.11287)",175.37140750912627,3804499.0,23_0_yes,46.27368061120017,-114.53002895034211,250.0
83245,42.82286,-112.21713,Inkom,ID,Idaho,True,,2369.0,9.3,16005,Bannock,"{""16005"": 100}",Bannock,16005,False,False,America/Boise,"(42.82286, -112.21713)",264.20168222466015,3804499.0,23_0_yes,46.27368061120017,-114.53002895034211,250.0
83250,42.67228,-112.20865,Mccammon,ID,Idaho,True,,2046.0,9.3,16005,Bannock,"{""16005"": 100}",Bannock,16005,False,False,America/Boise,"(42.67228, -112.20865)",273.86063845778017,3804499.0,23_0_yes,46.27368061120017,-114.53002895034211,250.0
83251,43.90738,-113.86425,Mackay,ID,Idaho,True,,1264.0,0.4,16037,Custer,"{""16037"": 100}",Custer,16037,False,False,America/Boise,"(43.90738, -113.86425)",166.688235494485,3804499.0,23_0_yes,46.27368061120017,-114.53002895034211,250.0
83253,44.54647,-113.77167,May,ID,Idaho,True,,59.0,0.1,16059,Lemhi,"{""16059"": 71.95, ""16037"": 28.05}",Lemhi|Custer,16059|16037,False,False,America/Boise,"(44.54647, -113.77167)",124.87772611525133,3804499.0,23_0_yes,46.27368061120017,-114.53002895034211,250.0
83255,43.72829,-113.45702,Moore,ID,Idaho,True,,1248.0,2.3,16023,Butte,"{""16023"": 89.68, ""16037"": 10.32}",Butte|Custer,16023|16037,False,False,America/Boise,"(43.72829, -113.45702)",183.5113986629672,3804499.0,23_0_yes,46.27368061120017,-114.53002895034211,250.0
83262,43.18419,-112.7658,Pingree,ID,Idaho,True,,896.0,1.6,16011,Bingham,"{""16011"": 100}",Bingham,16011,False,False,America/Boise,"(43.18419, -112.7658)",230.34512952005574,3804499.0,23_0_yes,46.27368061120017,-114.53002895034211,250.0
83274,43.35049,-112.09904,Shelley,ID,Idaho,True,,9307.0,36.4,16011,Bingham,"{""16011"": 99.54, ""16019"": 0.46}",Bingham|Bonneville,16011|16019,False,False,America/Boise,"(43.35049, -112.09904)",234.4752301585374,3804499.0,23_0_yes,46.27368061120017,-114.53002895034211,250.0
83276,42.75942,-111.44451,Soda Springs,ID,Idaho,True,,3699.0,2.1,16029,Caribou,"{""16029"": 95.67, ""16007"": 4.33}",Caribou|Bear Lake,16029|16007,False,False,America/Boise,"(42.75942, -111.44451)",286.4176270570125,3804499.0,23_0_yes,46.27368061120017,-114.53002895034211,250.0
83277,43.07429,-112.68127,Springfield,ID,Idaho,True,,152.0,7.0,16011,Bingham,"{""16011"": 100}",Bingham,16011,False,False,America/Boise,"(43.07429, -112.68127)",238.97397165632694,3804499.0,23_0_yes,46.27368061120017,-114.53002895034211,250.0
83278,44.36917,-114.85619,Stanley,ID,Idaho,True,,458.0,0.1,16037,Custer,"{""16037"": 100}",Custer,16037,False,False,America/Boise,"(44.36917, -114.85619)",132.53937971657078,3804499.0,23_0_yes,46.27368061120017,-114.53002895034211,250.0
83285,43.061,-111.37199,Wayan,ID,Idaho,True,,132.0,0.2,16019,Bonneville,"{""16019"": 68.45, ""16029"": 31.55}",Bonneville|Caribou,16019|16029,False,False,America/Boise,"(43.061, -111.37199)",270.78976788452,3804499.0,23_0_yes,46.27368061120017,-114.53002895034211,250.0
83313,43.3586,-114.20511,Bellevue,ID,Idaho,True,,3977.0,6.0,16013,Blaine,"{""16013"": 100}",Blaine,16013,False,False,America/Boise,"(43.3586, -114.20511)",202.0409530743325,3804499.0,23_0_yes,46.27368061120017,-114.53002895034211,250.0
83314,42.97376,-114.95228,Bliss,ID,Idaho,True,,1006.0,3.0,16047,Gooding,"{""16047"": 99.13, ""16083"": 0.87}",Gooding|Twin Falls,16047|16083,False,False,America/Boise,"(42.97376, -114.95228)",228.9453654686448,3804499.0,23_0_yes,46.27368061120017,-114.53002895034211,250.0
83320,43.40515,-113.88309,Carey,ID,Idaho,True,,1449.0,1.3,16013,Blaine,"{""16013"": 100}",Blaine,16013,False,False,America/Boise,"(43.40515, -113.88309)",200.7128786634738,3804499.0,23_0_yes,46.27368061120017,-114.53002895034211,250.0
83322,43.31475,-114.96811,Corral,ID,Idaho,True,,17.0,0.1,16025,Camas,"{""16025"": 100}",Camas,16025,False,False,America/Boise,"(43.31475, -114.96811)",205.56693589030093,3804499.0,23_0_yes,46.27368061120017,-114.53002895034211,250.0
83324,42.87725,-114.2615,Dietrich,ID,Idaho,True,,758.0,3.5,16063,Lincoln,"{""16063"": 100}",Lincoln,16063,False,False,America/Boise,"(42.87725, -114.2615)",235.0424381177444,3804499.0,23_0_yes,46.27368061120017,-114.53002895034211,250.0
83327,43.51145,-114.7961,Fairfield,ID,Idaho,True,,1003.0,0.5,16025,Camas,"{""16025"": 100}",Camas,16025,False,False,America/Boise,"(43.51145, -114.7961)",191.2954615979906,3804499.0,23_0_yes,46.27368061120017,-114.53002895034211,250.0
83330,42.94207,-114.69291,Gooding,ID,Idaho,True,,6421.0,16.7,16047,Gooding,"{""16047"": 99.05, ""16063"": 0.95}",Gooding|Lincoln,16047|16063,False,False,America/Boise,"(42.94207, -114.69291)",230.33160534513476,3804499.0,23_0_yes,46.27368061120017,-114.53002895034211,250.0
83332,42.79758,-114.92962,Hagerman,ID,Idaho,True,,2609.0,11.4,16083,Twin Falls,"{""16083"": 60.16, ""16047"": 39.84}",Twin Falls|Gooding,16083|16047,False,False,America/Boise,"(42.79758, -114.92962)",240.97966686361065,3804499.0,23_0_yes,46.27368061120017,-114.53002895034211,250.0
83333,43.57589,-114.2214,Hailey,ID,Idaho,True,,10561.0,7.8,16013,Blaine,"{""16013"": 100}",Blaine,16013,False,False,America/Boise,"(43.57589, -114.2214)",187.00960545042315,3804499.0,23_0_yes,46.27368061120017,-114.53002895034211,250.0
83337,43.21807,-115.1575,Hill City,ID,Idaho,True,,23.0,0.0,16039,Elmore,"{""16039"": 82.44, ""16025"": 17.56}",Elmore|Camas,16039|16025,False,False,America/Boise,"(43.21807, -115.1575)",213.35411871230667,3804499.0,23_0_yes,46.27368061120017,-114.53002895034211,250.0
83338,42.72501,-114.43273,Jerome,ID,Idaho,True,,21733.0,30.4,16053,Jerome,"{""16053"": 95.36, ""16047"": 3.43, ""16063"": 1.21}",Jerome|Gooding|Lincoln,16053|16047|16063,False,False,America/Boise,"(42.72501, -114.43273)",245.23660934294983,3804499.0,23_0_yes,46.27368061120017,-114.53002895034211,250.0
83340,43.77178,-114.58138,Ketchum,ID,Idaho,True,,4800.0,3.3,16013,Blaine,"{""16013"": 100}",Blaine,16013,False,False,America/Boise,"(43.77178, -114.58138)",172.88304582336804,3804499.0,23_0_yes,46.27368061120017,-114.53002895034211,250.0
83347,42.73812,-113.87705,Paul,ID,Idaho,True,,3287.0,5.6,16067,Minidoka,"{""16067"": 44.96, ""16063"": 37.17, ""16053"": 17.87}",Minidoka|Lincoln|Jerome,16067|16063|16053,False,False,America/Boise,"(42.73812, -113.87705)",246.3913065255047,3804499.0,23_0_yes,46.27368061120017,-114.53002895034211,250.0
83348,43.28489,-114.10592,Picabo,ID,Idaho,True,,357.0,5.1,16013,Blaine,"{""16013"": 100}",Blaine,16013,False,False,America/Boise,"(43.28489, -114.10592)",207.54971796765633,3804499.0,23_0_yes,46.27368061120017,-114.53002895034211,250.0
83349,43.10148,-114.17784,Richfield,ID,Idaho,True,,1203.0,5.4,16063,Lincoln,"{""16063"": 100}",Lincoln,16063,False,False,America/Boise,"(43.10148, -114.17784)",219.85921589496732,3804499.0,23_0_yes,46.27368061120017,-114.53002895034211,250.0
83350,42.70996,-113.59812,Rupert,ID,Idaho,True,,12223.0,17.9,16067,Minidoka,"{""16067"": 81.91, ""16013"": 10.92, ""16031"": 7.17}",Minidoka|Blaine|Cassia,16067|16013|16031,False,False,America/Boise,"(42.70996, -113.59812)",250.47173564631444,3804499.0,23_0_yes,46.27368061120017,-114.53002895034211,250.0
83352,43.05133,-114.40584,Shoshone,ID,Idaho,True,,3366.0,6.0,16063,Lincoln,"{""16063"": 87.04, ""16025"": 10.91, ""16013"": 2.05}",Lincoln|Camas|Blaine,16063|16025|16013,False,False,America/Boise,"(43.05133, -114.40584)",222.72676664389488,3804499.0,23_0_yes,46.27368061120017,-114.53002895034211,250.0
83353,43.68625,-114.33354,Sun Valley,ID,Idaho,True,,1508.0,65.4,16013,Blaine,"{""16013"": 100}",Blaine,16013,False,False,America/Boise,"(43.68625, -114.33354)",179.03198817065817,3804499.0,23_0_yes,46.27368061120017,-114.53002895034211,250.0
83354,43.67012,-114.32235,Sun Valley,ID,Idaho,True,,13.0,254.6,16013,Blaine,"{""16013"": 100}",Blaine,16013,False,False,America/Boise,"(43.67012, -114.32235)",180.17491057462755,3804499.0,23_0_yes,46.27368061120017,-114.53002895034211,250.0
83355,42.75515,-114.72676,Wendell,ID,Idaho,True,,5002.0,16.6,16047,Gooding,"{""16047"": 100}",Gooding,16047,False,False,America/Boise,"(42.75515, -114.72676)",243.3002199561749,3804499.0,23_0_yes,46.27368061120017,-114.53002895034211,250.0
83401,43.53222,-111.86516,Idaho Falls,ID,Idaho,True,,43921.0,85.9,16019,Bonneville,"{""16019"": 99.79, ""16051"": 0.21}",Bonneville|Jefferson,16019|16051,False,False,America/Boise,"(43.53222, -111.86516)",229.94070615046937,3804499.0,23_0_yes,46.27368061120017,-114.53002895034211,250.0
83402,43.53011,-112.16786,Idaho Falls,ID,Idaho,True,,25947.0,58.6,16019,Bonneville,"{""16019"": 97.02, ""16051"": 2.61, ""16011"": 0.37}",Bonneville|Jefferson|Bingham,16019|16051|16011,False,False,America/Boise,"(43.53011, -112.16786)",222.0074690115398,3804499.0,23_0_yes,46.27368061120017,-114.53002895034211,250.0
83404,43.42818,-112.01432,Idaho Falls,ID,Idaho,True,,24452.0,377.9,16019,Bonneville,"{""16019"": 100}",Bonneville,16019,False,False,America/Boise,"(43.42818, -112.01432)",232.00255237514372,3804499.0,23_0_yes,46.27368061120017,-114.53002895034211,250.0
83406,43.43768,-111.93382,Idaho Falls,ID,Idaho,True,,19204.0,231.5,16019,Bonneville,"{""16019"": 100}",Bonneville,16019,False,False,America/Boise,"(43.43768, -111.93382)",233.56226350623774,3804499.0,23_0_yes,46.27368061120017,-114.53002895034211,250.0
83414,43.88847,-110.94924,Alta,WY,Wyoming,True,,367.0,0.4,56039,Teton,"{""56039"": 100}",Teton,56039,False,False,America/Denver,"(43.88847, -110.94924)",240.11686199014525,3804499.0,23_0_yes,46.27368061120017,-114.53002895034211,250.0
83420,44.06001,-111.32243,Ashton,ID,Idaho,True,,2435.0,2.3,16043,Fremont,"{""16043"": 100}",Fremont,16043,False,False,America/Boise,"(44.06001, -111.32243)",218.61799131995136,3804499.0,23_0_yes,46.27368061120017,-114.53002895034211,250.0
83421,44.00349,-111.54057,Chester,ID,Idaho,True,,293.0,9.7,16043,Fremont,"{""16043"": 100}",Fremont,16043,False,False,America/Boise,"(44.00349, -111.54057)",214.05282352228284,3804499.0,23_0_yes,46.27368061120017,-114.53002895034211,250.0
83422,43.70463,-111.23914,Driggs,ID,Idaho,True,,4121.0,12.7,16081,Teton,"{""16081"": 100}",Teton,16081,False,False,America/Boise,"(43.70463, -111.23914)",239.47297509561452,3804499.0,23_0_yes,46.27368061120017,-114.53002895034211,250.0
83423,44.33967,-112.33199,Dubois,ID,Idaho,True,,810.0,0.6,16033,Clark,"{""16033"": 100}",Clark,16033,False,False,America/Boise,"(44.33967, -112.33199)",171.0554731433518,3804499.0,23_0_yes,46.27368061120017,-114.53002895034211,250.0
83424,43.90488,-111.19136,Felt,ID,Idaho,True,,157.0,1.5,16081,Teton,"{""16081"": 100}",Teton,16081,False,False,America/Boise,"(43.90488, -111.19136)",230.85095727434123,3804499.0,23_0_yes,46.27368061120017,-114.53002895034211,250.0
83425,43.93106,-112.21677,Hamer,ID,Idaho,True,,697.0,2.2,16051,Jefferson,"{""16051"": 93.42, ""16043"": 6.58}",Jefferson|Fremont,16051|16043,False,False,America/Boise,"(43.93106, -112.21677)",197.27615185537013,3804499.0,23_0_yes,46.27368061120017,-114.53002895034211,250.0
83428,43.3833,-111.16093,Irwin,ID,Idaho,True,,625.0,1.0,16019,Bonneville,"{""16019"": 100}",Bonneville,16019,False,False,America/Boise,"(43.3833, -111.16093)",259.0595347816087,3804499.0,23_0_yes,46.27368061120017,-114.53002895034211,250.0
83429,44.48674,-111.37366,Island Park,ID,Idaho,True,,721.0,0.6,16043,Fremont,"{""16043"": 100}",Fremont,16043,False,False,America/Boise,"(44.48674, -111.37366)",196.71763955072282,3804499.0,23_0_yes,46.27368061120017,-114.53002895034211,250.0
83431,43.68808,-112.03012,Lewisville,ID,Idaho,True,,859.0,26.5,16051,Jefferson,"{""16051"": 100}",Jefferson,16051,False,False,America/Boise,"(43.68808, -112.03012)",216.40495390958617,3804499.0,23_0_yes,46.27368061120017,-114.53002895034211,250.0
83433,44.49284,-111.31788,Macks Inn,ID,Idaho,True,,4.0,1.0,16043,Fremont,"{""16043"": 100}",Fremont,16043,False,False,America/Boise,"(44.49284, -111.31788)",198.56371234948884,3804499.0,23_0_yes,46.27368061120017,-114.53002895034211,250.0
83434,43.75636,-112.00758,Menan,ID,Idaho,True,,1634.0,14.6,16051,Jefferson,"{""16051"": 72.29, ""16065"": 27.71}",Jefferson|Madison,16051|16065,False,False,America/Boise,"(43.75636, -112.00758)",213.1204921806227,3804499.0,23_0_yes,46.27368061120017,-114.53002895034211,250.0
83435,43.98469,-112.58043,Monteview,ID,Idaho,True,,726.0,1.6,16051,Jefferson,"{""16051"": 81.42, ""16033"": 18.58}",Jefferson|Clark,16051|16033,False,False,America/Boise,"(43.98469, -112.58043)",184.49716622716156,3804499.0,23_0_yes,46.27368061120017,-114.53002895034211,250.0
83436,43.8588,-111.46665,Newdale,ID,Idaho,True,,717.0,2.8,16065,Madison,"{""16065"": 75.96, ""16081"": 17.51, ""16043"": 6.53}",Madison|Teton|Fremont,16065|16081|16043,False,False,America/Boise,"(43.8588, -111.46665)",223.99062985201562,3804499.0,23_0_yes,46.27368061120017,-114.53002895034211,250.0
83440,43.81092,-111.80779,Rexburg,ID,Idaho,True,,37231.0,79.1,16065,Madison,"{""16065"": 96.14, ""16043"": 3.86}",Madison|Fremont,16065|16043,False,False,America/Boise,"(43.81092, -111.80779)",215.8810449700069,3804499.0,23_0_yes,46.27368061120017,-114.53002895034211,250.0
83442,43.62931,-111.82507,Rigby,ID,Idaho,True,,22415.0,66.9,16051,Jefferson,"{""16051"": 71.59, ""16019"": 28.41}",Jefferson|Bonneville,16051|16019,False,False,America/Boise,"(43.62931, -111.82507)",225.52790577364047,3804499.0,23_0_yes,46.27368061120017,-114.53002895034211,250.0
83443,43.50942,-111.56155,Ririe,ID,Idaho,True,,1089.0,2.1,16019,Bonneville,"{""16019"": 95.1, ""16051"": 3.69, ""16065"": 1.21}",Bonneville|Jefferson|Madison,16019|16051|16065,False,False,America/Boise,"(43.50942, -111.56155)",239.94269504891355,3804499.0,23_0_yes,46.27368061120017,-114.53002895034211,250.0
83444,43.69748,-112.24406,Roberts,ID,Idaho,True,,1148.0,2.8,16051,Jefferson,"{""16051"": 99.23, ""16019"": 0.77}",Jefferson|Bonneville,16051|16019,False,False,America/Boise,"(43.69748, -112.24406)",210.12827423774573,3804499.0,23_0_yes,46.27368061120017,-114.53002895034211,250.0
83445,44.07014,-111.73075,Saint Anthony,ID,Idaho,True,,7799.0,10.0,16043,Fremont,"{""16043"": 99.73, ""16065"": 0.27}",Fremont|Madison,16043|16065,False,False,America/Boise,"(44.07014, -111.73075)",204.3546273267656,3804499.0,23_0_yes,46.27368061120017,-114.53002895034211,250.0
83446,44.37841,-112.21887,Spencer,ID,Idaho,True,,17.0,0.2,16033,Clark,"{""16033"": 100}",Clark,16033,False,False,America/Boise,"(44.37841, -112.21887)",172.47387251265434,3804499.0,23_0_yes,46.27368061120017,-114.53002895034211,250.0
83448,43.85082,-111.70529,Sugar City,ID,Idaho,True,,2814.0,37.7,16065,Madison,"{""16065"": 98.04, ""16043"": 1.96}",Madison|Fremont,16065|16043,False,False,America/Boise,"(43.85082, -111.70529)",216.82979670048397,3804499.0,23_0_yes,46.27368061120017,-114.53002895034211,250.0
83449,43.42487,-111.35966,Swan Valley,ID,Idaho,True,,168.0,0.3,16019,Bonneville,"{""16019"": 100}",Bonneville,16019,False,False,America/Boise,"(43.42487, -111.35966)",250.67688808010237,3804499.0,23_0_yes,46.27368061120017,-114.53002895034211,250.0
83450,43.8463,-112.41356,Terreton,ID,Idaho,True,,960.0,2.9,16051,Jefferson,"{""16051"": 100}",Jefferson,16051,False,False,America/Boise,"(43.8463, -112.41356)",196.9554907817779,3804499.0,23_0_yes,46.27368061120017,-114.53002895034211,250.0
83451,43.86595,-111.63489,Teton,ID,Idaho,True,,610.0,14.2,16065,Madison,"{""16065"": 66.47, ""16043"": 33.53}",Madison|Fremont,16065|16043,False,False,America/Boise,"(43.86595, -111.63489)",218.21876465229136,3804499.0,23_0_yes,46.27368061120017,-114.53002895034211,250.0
83452,43.83619,-111.21239,Tetonia,ID,Idaho,True,,2075.0,4.6,16081,Teton,"{""16081"": 100}",Teton,16081,False,False,America/Boise,"(43.83619, -111.21239)",233.59379193635525,3804499.0,23_0_yes,46.27368061120017,-114.53002895034211,250.0
83454,43.5946,-111.95698,Ucon,ID,Idaho,True,,558.0,1330.3,16019,Bonneville,"{""16019"": 100}",Bonneville,16019,False,False,America/Boise,"(43.5946, -111.95698)",223.8102677595354,3804499.0,23_0_yes,46.27368061120017,-114.53002895034211,250.0
83455,43.60638,-111.14077,Victor,ID,Idaho,True,,5423.0,22.6,16081,Teton,"{""16081"": 100}",Teton,16081,False,False,America/Boise,"(43.60638, -111.14077)",247.82366670484222,3804499.0,23_0_yes,46.27368061120017,-114.53002895034211,250.0
83460,43.81639,-111.7826,Rexburg,ID,Idaho,True,,111.0,149.1,16065,Madison,"{""16065"": 100}",Madison,16065,False,False,America/Boise,"(43.81639, -111.7826)",216.33908853340134,3804499.0,23_0_yes,46.27368061120017,-114.53002895034211,250.0
83462,45.30698,-113.81069,Carmen,ID,Idaho,True,,583.0,2.1,16059,Lemhi,"{""16059"": 100}",Lemhi,16059,False,False,America/Boise,"(45.30698, -113.81069)",75.24749279892197,3804499.0,23_0_yes,46.27368061120017,-114.53002895034211,250.0
83463,45.5706,-113.97716,Gibbonsville,ID,Idaho,True,,54.0,0.1,16059,Lemhi,"{""16059"": 100}",Lemhi,16059,False,False,America/Boise,"(45.5706, -113.97716)",55.37083708448763,3804499.0,23_0_yes,46.27368061120017,-114.53002895034211,250.0
83464,44.48105,-113.20271,Leadore,ID,Idaho,True,,291.0,0.1,16059,Lemhi,"{""16059"": 89.5, ""16033"": 10.5}",Lemhi|Clark,16059|16033,False,False,America/Boise,"(44.48105, -113.20271)",139.60461798780966,3804499.0,23_0_yes,46.27368061120017,-114.53002895034211,250.0
83465,44.77581,-113.69949,Lemhi,ID,Idaho,True,,123.0,0.3,16059,Lemhi,"{""16059"": 100}",Lemhi,16059,False,False,America/Boise,"(44.77581, -113.69949)",111.025930336123,3804499.0,23_0_yes,46.27368061120017,-114.53002895034211,250.0
83466,45.44184,-114.05549,North Fork,ID,Idaho,True,,168.0,0.3,16059,Lemhi,"{""16059"": 100}",Lemhi,16059,False,False,America/Boise,"(45.44184, -114.05549)",61.84433572849815,3804499.0,23_0_yes,46.27368061120017,-114.53002895034211,250.0
83467,45.02006,-113.89828,Salmon,ID,Idaho,True,,6377.0,2.9,16059,Lemhi,"{""16059"": 100}",Lemhi,16059,False,False,America/Boise,"(45.02006, -113.89828)",91.83394609456501,3804499.0,23_0_yes,46.27368061120017,-114.53002895034211,250.0
83468,44.92444,-113.61293,Tendoy,ID,Idaho,True,,167.0,0.5,16059,Lemhi,"{""16059"": 100}",Lemhi,16059,False,False,America/Boise,"(44.92444, -113.61293)",103.2272605395892,3804499.0,23_0_yes,46.27368061120017,-114.53002895034211,250.0
83469,45.1127,-114.47772,Shoup,ID,Idaho,True,,27.0,0.0,16059,Lemhi,"{""16059"": 100}",Lemhi,16059,False,False,America/Boise,"(45.1127, -114.47772)",80.25582961515669,3804499.0,23_0_yes,46.27368061120017,-114.53002895034211,250.0
83501,46.2283,-116.90608,Lewiston,ID,Idaho,True,,35183.0,55.6,16069,Nez Perce,"{""16069"": 100}",Nez Perce,16069,False,False,America/Los_Angeles,"(46.2283, -116.90608)",113.56233305041572,3804499.0,23_0_yes,46.27368061120017,-114.53002895034211,250.0
83520,46.53936,-116.32366,Ahsahka,ID,Idaho,True,,272.0,9.5,16035,Clearwater,"{""16035"": 100}",Clearwater,16035,False,False,America/Los_Angeles,"(46.53936, -116.32366)",87.400337552177,3804499.0,23_0_yes,46.27368061120017,-114.53002895034211,250.0
83522,45.91273,-116.50102,Cottonwood,ID,Idaho,True,,2362.0,2.1,16049,Idaho,"{""16049"": 100}",Idaho,16049,False,False,America/Boise,"(45.91273, -116.50102)",97.67527600483439,3804499.0,23_0_yes,46.27368061120017,-114.53002895034211,250.0
83523,46.22939,-116.47224,Craigmont,ID,Idaho,True,,804.0,1.4,16061,Lewis,"{""16061"": 100}",Lewis,16061,False,False,America/Los_Angeles,"(46.22939, -116.47224)",92.84242562517515,3804499.0,23_0_yes,46.27368061120017,-114.53002895034211,250.0
83524,46.3586,-116.65439,Culdesac,ID,Idaho,True,,947.0,3.1,16069,Nez Perce,"{""16069"": 80.23, ""16061"": 19.77}",Nez Perce|Lewis,16069|16061,False,False,America/Los_Angeles,"(46.3586, -116.65439)",101.54396444517658,3804499.0,23_0_yes,46.27368061120017,-114.53002895034211,250.0
83525,45.73798,-115.39367,Elk City,ID,Idaho,True,,276.0,0.2,16049,Idaho,"{""16049"": 100}",Idaho,16049,False,False,America/Los_Angeles,"(45.73798, -115.39367)",55.5679196354768,3804499.0,23_0_yes,46.27368061120017,-114.53002895034211,250.0
83526,46.14759,-116.4169,Ferdinand,ID,Idaho,True,,318.0,3.1,16049,Idaho,"{""16049"": 100}",Idaho,16049,False,False,America/Los_Angeles,"(46.14759, -116.4169)",90.63497441557045,3804499.0,23_0_yes,46.27368061120017,-114.53002895034211,250.0
83530,45.91516,-116.02117,Grangeville,ID,Idaho,True,,5727.0,5.7,16049,Idaho,"{""16049"": 100}",Idaho,16049,False,False,America/Los_Angeles,"(45.91516, -116.02117)",75.61801780671207,3804499.0,23_0_yes,46.27368061120017,-114.53002895034211,250.0
83533,46.11707,-116.24063,Greencreek,ID,Idaho,True,,217.0,2.5,16049,Idaho,"{""16049"": 100}",Idaho,16049,False,False,America/Los_Angeles,"(46.11707, -116.24063)",82.52298627459362,3804499.0,23_0_yes,46.27368061120017,-114.53002895034211,250.0
83535,46.54011,-116.72599,Juliaetta,ID,Idaho,True,,1056.0,7.7,16069,Nez Perce,"{""16069"": 70.27, ""16057"": 29.73}",Nez Perce|Latah,16069|16057,False,False,America/Los_Angeles,"(46.54011, -116.72599)",106.22379262450275,3804499.0,23_0_yes,46.27368061120017,-114.53002895034211,250.0
83536,46.21794,-116.02665,Kamiah,ID,Idaho,True,,4533.0,8.6,16049,Idaho,"{""16049"": 91.41, ""16061"": 8.59}",Idaho|Lewis,16049|16061,False,False,America/Los_Angeles,"(46.21794, -116.02665)",71.61508090963326,3804499.0,23_0_yes,46.27368061120017,-114.53002895034211,250.0
83537,46.62877,-116.52348,Kendrick,ID,Idaho,True,,1033.0,2.3,16057,Latah,"{""16057"": 52.29, ""16069"": 27.98, ""16035"": 19.73}",Latah|Nez Perce|Clearwater,16057|16069|16035,False,False,America/Los_Angeles,"(46.62877, -116.52348)",98.01229154203486,3804499.0,23_0_yes,46.27368061120017,-114.53002895034211,250.0
83539,46.20361,-114.93684,Kooskia,ID,Idaho,True,,2297.0,0.4,16049,Idaho,"{""16049"": 100}",Idaho,16049,False,False,America/Los_Angeles,"(46.20361, -114.93684)",20.034786999222778,3804499.0,23_0_yes,46.27368061120017,-114.53002895034211,250.0
83540,46.34649,-116.78273,Lapwai,ID,Idaho,True,,2452.0,9.0,16069,Nez Perce,"{""16069"": 100}",Nez Perce,16069,False,False,America/Los_Angeles,"(46.34649, -116.78273)",107.62782106792245,3804499.0,23_0_yes,46.27368061120017,-114.53002895034211,250.0
83541,46.49297,-116.50156,Lenore,ID,Idaho,True,,986.0,3.7,16069,Nez Perce,"{""16069"": 74.73, ""16035"": 25.27}",Nez Perce|Clearwater,16069|16035,False,False,America/Los_Angeles,"(46.49297, -116.50156)",95.17958255524934,3804499.0,23_0_yes,46.27368061120017,-114.53002895034211,250.0
83542,45.55291,-116.3115,Lucile,ID,Idaho,True,,123.0,0.6,16049,Idaho,"{""16049"": 100}",Idaho,16049,False,False,America/Boise,"(45.55291, -116.3115)",99.06178819061755,3804499.0,23_0_yes,46.27368061120017,-114.53002895034211,250.0
83543,46.27358,-116.23815,Nezperce,ID,Idaho,True,,821.0,2.4,16061,Lewis,"{""16061"": 100}",Lewis,16061,False,False,America/Los_Angeles,"(46.27358, -116.23815)",81.57557277093515,3804499.0,23_0_yes,46.27368061120017,-114.53002895034211,250.0
83544,46.49365,-116.1525,Orofino,ID,Idaho,True,,6754.0,10.8,16035,Clearwater,"{""16035"": 97.36, ""16061"": 2.64}",Clearwater|Lewis,16035|16061,False,False,America/Los_Angeles,"(46.49365, -116.1525)",78.80877328761404,3804499.0,23_0_yes,46.27368061120017,-114.53002895034211,250.0
83545,46.42664,-116.4213,Peck,ID,Idaho,True,,333.0,3.0,16069,Nez Perce,"{""16069"": 100}",Nez Perce,16069,False,False,America/Los_Angeles,"(46.42664, -116.4213)",90.81269089577485,3804499.0,23_0_yes,46.27368061120017,-114.53002895034211,250.0
83546,46.57326,-115.81115,Pierce,ID,Idaho,True,,384.0,3.6,16035,Clearwater,"{""16035"": 100}",Clearwater,16035,False,False,America/Los_Angeles,"(46.57326, -115.81115)",64.43120813256263,3804499.0,23_0_yes,46.27368061120017,-114.53002895034211,250.0
83547,45.31165,-116.33062,Pollock,ID,Idaho,True,,353.0,4.1,16049,Idaho,"{""16049"": 100}",Idaho,16049,False,False,America/Boise,"(45.31165, -116.33062)",109.2790122681795,3804499.0,23_0_yes,46.27368061120017,-114.53002895034211,250.0
83548,46.34878,-116.50843,Reubens,ID,Idaho,True,,125.0,1.9,16069,Nez Perce,"{""16069"": 85.95, ""16061"": 14.05}",Nez Perce|Lewis,16069|16061,False,False,America/Los_Angeles,"(46.34878, -116.50843)",94.56044014958363,3804499.0,23_0_yes,46.27368061120017,-114.53002895034211,250.0
83549,45.36641,-116.2549,Riggins,ID,Idaho,True,,622.0,0.4,16049,Idaho,"{""16049"": 100}",Idaho,16049,False,False,America/Boise,"(45.36641, -116.2549)",104.05320626191124,3804499.0,23_0_yes,46.27368061120017,-114.53002895034211,250.0
83552,45.9777,-115.93948,Stites,ID,Idaho,True,,837.0,2.8,16049,Idaho,"{""16049"": 100}",Idaho,16049,False,False,America/Los_Angeles,"(45.9777, -115.93948)",70.52359839898807,3804499.0,23_0_yes,46.27368061120017,-114.53002895034211,250.0
83553,46.38365,-115.9038,Weippe,ID,Idaho,True,,781.0,2.8,16035,Clearwater,"{""16035"": 100}",Clearwater,16035,False,False,America/Los_Angeles,"(46.38365, -115.9038)",65.98129185282684,3804499.0,23_0_yes,46.27368061120017,-114.53002895034211,250.0
83554,45.68522,-116.29936,White Bird,ID,Idaho,True,,347.0,0.6,16049,Idaho,"{""16049"": 100}",Idaho,16049,False,False,America/Los_Angeles,"(45.68522, -116.29936)",94.17838778919095,3804499.0,23_0_yes,46.27368061120017,-114.53002895034211,250.0
83555,46.08662,-116.72221,Winchester,ID,Idaho,True,,471.0,1.0,16069,Nez Perce,"{""16069"": 58.63, ""16061"": 41.37}",Nez Perce|Lewis,16069|16061,False,False,America/Los_Angeles,"(46.08662, -116.72221)",105.6634462091284,3804499.0,23_0_yes,46.27368061120017,-114.53002895034211,250.0
83602,44.09676,-116.15049,Banks,ID,Idaho,True,,6.0,0.1,16015,Boise,"{""16015"": 100}",Boise,16015,False,False,America/Boise,"(44.09676, -116.15049)",169.8456786148384,3804499.0,23_0_yes,46.27368061120017,-114.53002895034211,250.0
83605,43.66442,-116.65171,Caldwell,ID,Idaho,True,,46961.0,736.2,16027,Canyon,"{""16027"": 100}",Canyon,16027,False,False,America/Boise,"(43.66442, -116.65171)",207.96721839661578,3804499.0,23_0_yes,46.27368061120017,-114.53002895034211,250.0
83607,43.7116,-116.74362,Caldwell,ID,Idaho,True,,24922.0,41.8,16027,Canyon,"{""16027"": 70.79, ""16075"": 19.63, ""16045"": 9.58}",Canyon|Payette|Gem,16027|16075|16045,False,False,America/Boise,"(43.7116, -116.74362)",207.43098444332574,3804499.0,23_0_yes,46.27368061120017,-114.53002895034211,250.0
83610,44.70231,-116.78239,Cambridge,ID,Idaho,True,,928.0,0.7,16087,Washington,"{""16087"": 87.35, ""16003"": 12.65}",Washington|Adams,16087|16003,False,False,America/Boise,"(44.70231, -116.78239)",153.9056435555157,3804499.0,23_0_yes,46.27368061120017,-114.53002895034211,250.0
83611,45.03935,-115.24709,Cascade,ID,Idaho,True,,2159.0,0.3,16085,Valley,"{""16085"": 60.26, ""16049"": 39.74}",Valley|Idaho,16085|16049,False,False,America/Boise,"(45.03935, -115.24709)",92.0454873899992,3804499.0,23_0_yes,46.27368061120017,-114.53002895034211,250.0
83612,44.8438,-116.53296,Council,ID,Idaho,True,,2020.0,1.6,16003,Adams,"{""16003"": 100}",Adams,16003,False,False,America/Boise,"(44.8438, -116.53296)",138.37297104969622,3804499.0,23_0_yes,46.27368061120017,-114.53002895034211,250.0
83615,44.70288,-116.0484,Donnelly,ID,Idaho,True,,1552.0,8.2,16085,Valley,"{""16085"": 100}",Valley,16085,False,False,America/Boise,"(44.70288, -116.0484)",131.09861418911922,3804499.0,23_0_yes,46.27368061120017,-114.53002895034211,250.0
83616,43.77667,-116.38977,Eagle,ID,Idaho,True,,29630.0,102.7,16001,Ada,"{""16001"": 64.65, ""16045"": 35.35}",Ada|Gem,16001|16045,False,False,America/Boise,"(43.77667, -116.38977)",194.95720810177184,3804499.0,23_0_yes,46.27368061120017,-114.53002895034211,250.0
83617,43.93303,-116.50368,Emmett,ID,Idaho,True,,15586.0,26.9,16045,Gem,"{""16045"": 99.9, ""16075"": 0.1}",Gem|Payette,16045|16075,False,False,America/Boise,"(43.93303, -116.50368)",188.18396546409815,3804499.0,23_0_yes,46.27368061120017,-114.53002895034211,250.0
83619,43.96982,-116.91204,Fruitland,ID,Idaho,True,,7544.0,92.0,16075,Payette,"{""16075"": 100}",Payette,16075,False,False,America/Boise,"(43.96982, -116.91204)",197.0188695408599,3804499.0,23_0_yes,46.27368061120017,-114.53002895034211,250.0
83622,44.1065,-115.88953,Garden Valley,ID,Idaho,True,,2268.0,3.1,16015,Boise,"{""16015"": 100}",Boise,16015,False,False,America/Boise,"(44.1065, -115.88953)",163.71200610236204,3804499.0,23_0_yes,46.27368061120017,-114.53002895034211,250.0
83623,43.04932,-115.39485,Glenns Ferry,ID,Idaho,True,,1493.0,2.3,16039,Elmore,"{""16039"": 100}",Elmore,16039,False,False,America/Boise,"(43.04932, -115.39485)",226.79573037206467,3804499.0,23_0_yes,46.27368061120017,-114.53002895034211,250.0
83624,42.92441,-116.14266,Grand View,ID,Idaho,True,,1528.0,2.2,16073,Owyhee,"{""16073"": 77.31, ""16039"": 22.69}",Owyhee|Elmore,16073|16039,False,False,America/Boise,"(42.92441, -116.14266)",244.61985484280484,3804499.0,23_0_yes,46.27368061120017,-114.53002895034211,250.0
83626,43.66876,-116.82815,Greenleaf,ID,Idaho,True,,1244.0,72.8,16027,Canyon,"{""16027"": 100}",Canyon,16027,False,False,America/Boise,"(43.66876, -116.82815)",212.1398481792438,3804499.0,23_0_yes,46.27368061120017,-114.53002895034211,250.0
83627,42.91336,-115.53238,Hammett,ID,Idaho,True,,466.0,2.1,16073,Owyhee,"{""16073"": 72.37, ""16039"": 27.63}",Owyhee|Elmore,16073|16039,False,False,America/Boise,"(42.91336, -115.53238)",237.350301484151,3804499.0,23_0_yes,46.27368061120017,-114.53002895034211,250.0
83628,43.57934,-116.96975,Homedale,ID,Idaho,True,,4460.0,27.3,16073,Owyhee,"{""16073"": 100}",Owyhee,16073,False,False,America/Boise,"(43.57934, -116.96975)",221.10767653640127,3804499.0,23_0_yes,46.27368061120017,-114.53002895034211,250.0
83629,43.91115,-116.16947,Horseshoe Bend,ID,Idaho,True,,2125.0,4.2,16015,Boise,"{""16015"": 95.34, ""16045"": 4.66}",Boise|Gem,16015|16045,False,False,America/Boise,"(43.91115, -116.16947)",181.76022073440654,3804499.0,23_0_yes,46.27368061120017,-114.53002895034211,250.0
83631,43.88543,-115.77369,Idaho City,ID,Idaho,True,,979.0,2.2,16015,Boise,"{""16015"": 100}",Boise,16015,False,False,America/Boise,"(43.88543, -115.77369)",175.80814774776024,3804499.0,23_0_yes,46.27368061120017,-114.53002895034211,250.0
83632,44.53228,-116.40994,Indian Valley,ID,Idaho,True,,409.0,1.2,16003,Adams,"{""16003"": 96.19, ""16087"": 3.81}",Adams|Washington,16003|16087,False,False,America/Boise,"(44.53228, -116.40994)",150.96597765736286,3804499.0,23_0_yes,46.27368061120017,-114.53002895034211,250.0
83633,43.0297,-115.21253,King Hill,ID,Idaho,True,,720.0,1.9,16039,Elmore,"{""16039"": 100}",Elmore,16039,False,False,America/Boise,"(43.0297, -115.21253)",226.6316479312113,3804499.0,23_0_yes,46.27368061120017,-114.53002895034211,250.0
83634,43.44824,-116.33287,Kuna,ID,Idaho,True,,28443.0,70.3,16001,Ada,"{""16001"": 95.17, ""16027"": 4.83}",Ada|Canyon,16001|16027,False,False,America/Boise,"(43.44824, -116.33287)",214.24239893798944,3804499.0,23_0_yes,46.27368061120017,-114.53002895034211,250.0
83636,43.90832,-116.66097,Letha,ID,Idaho,True,,458.0,71.0,16045,Gem,"{""16045"": 100}",Gem,16045,False,False,America/Boise,"(43.90832, -116.66097)",193.6681347629249,3804499.0,23_0_yes,46.27368061120017,-114.53002895034211,250.0
83637,44.13249,-115.29625,Lowman,ID,Idaho,True,,280.0,0.2,16015,Boise,"{""16015"": 100}",Boise,16015,False,False,America/Boise,"(44.13249, -115.29625)",152.5701644234937,3804499.0,23_0_yes,46.27368061120017,-114.53002895034211,250.0
83638,45.1504,-115.82001,Mccall,ID,Idaho,True,,7259.0,4.2,16085,Valley,"{""16085"": 52.73, ""16049"": 46.69, ""16003"": 0.58}",Valley|Idaho|Adams,16085|16049|16003,False,False,America/Boise,"(45.1504, -115.82001)",99.47968681986598,3804499.0,23_0_yes,46.27368061120017,-114.53002895034211,250.0
83639,43.36878,-116.92472,Marsing,ID,Idaho,True,,3519.0,5.5,16073,Owyhee,"{""16073"": 100}",Owyhee,16073,False,False,America/Boise,"(43.36878, -116.92472)",232.47604195956018,3804499.0,23_0_yes,46.27368061120017,-114.53002895034211,250.0
83641,43.35079,-116.6357,Melba,ID,Idaho,True,,3720.0,6.3,16073,Owyhee,"{""16073"": 61.01, ""16027"": 24.76, ""16001"": 14.23}",Owyhee|Canyon|Ada,16073|16027|16001,False,False,America/Boise,"(43.35079, -116.6357)",226.7770113483069,3804499.0,23_0_yes,46.27368061120017,-114.53002895034211,250.0
83642,43.57334,-116.40116,Meridian,ID,Idaho,True,,47808.0,445.1,16001,Ada,"{""16001"": 100}",Ada,16001,False,False,America/Boise,"(43.57334, -116.40116)",207.80592953405167,3804499.0,23_0_yes,46.27368061120017,-114.53002895034211,250.0
83643,44.62983,-116.45439,Mesa,ID,Idaho,True,,106.0,11.7,16003,Adams,"{""16003"": 100}",Adams,16003,False,False,America/Boise,"(44.62983, -116.45439)",146.96012087941736,3804499.0,23_0_yes,46.27368061120017,-114.53002895034211,250.0
83644,43.74823,-116.58455,Middleton,ID,Idaho,True,,14237.0,119.9,16027,Canyon,"{""16027"": 100}",Canyon,16027,False,False,America/Boise,"(43.74823, -116.58455)",201.27592223112836,3804499.0,23_0_yes,46.27368061120017,-114.53002895034211,250.0
83645,44.36016,-116.56454,Midvale,ID,Idaho,True,,787.0,0.7,16087,Washington,"{""16087"": 100}",Washington,16087,False,False,America/Boise,"(44.36016, -116.56454)",165.0653397962604,3804499.0,23_0_yes,46.27368061120017,-114.53002895034211,250.0
83646,43.65,-116.43247,Meridian,ID,Idaho,True,,68189.0,965.2,16001,Ada,"{""16001"": 100}",Ada,16001,False,False,America/Boise,"(43.65, -116.43247)",203.7307546311045,3804499.0,23_0_yes,46.27368061120017,-114.53002895034211,250.0
