zip,lat,lng,city,state_id,state_name,zcta,parent_zcta,population,density,county_fips,county_name,county_weights,county_names_all,county_fips_all,imprecise,military,timezone,Coord,distance_miles,market_total_population,market_id,market_center_lat,market_center_lng,radius_miles
79839,31.36476,-105.68693,Fort Hancock,TX,Texas,True,,2182.0,2.6,48229,Hudspeth,"{""48229"": 100}",Hudspeth,48229,False,False,America/Denver,"(31.36476, -105.68693)",16.490063066973082,91677.0,302_0_no,31.288364236101348,-105.42223647973228,40.0
79847,31.78975,-104.99032,Salt Flat,TX,Texas,True,,90.0,0.0,48109,Culberson,"{""48109"": 54.4, ""48229"": 45.6}",Culberson|Hudspeth,48109|48229,False,False,America/Denver,"(31.78975, -104.99032)",42.97669676444813,91677.0,302_0_no,31.288364236101348,-105.42223647973228,40.0
79851,31.2687,-105.26255,Sierra Blanca,TX,Texas,True,,1689.0,1.5,48229,Hudspeth,"{""48229"": 100}",Hudspeth,48229,False,False,America/Denver,"(31.2687, -105.26255)",9.527012937436693,91677.0,302_0_no,31.288364236101348,-105.42223647973228,40.0
79853,31.43559,-106.06493,Tornillo,TX,Texas,True,,2282.0,25.3,48141,El Paso,"{""48141"": 100}",El Paso,48141,False,False,America/Denver,"(31.43559, -106.06493)",39.25872630905399,91677.0,302_0_no,31.288364236101348,-105.42223647973228,40.0
79855,30.92331,-104.85583,Van Horn,TX,Texas,True,,2108.0,1.8,48109,Culberson,"{""48109"": 72.37, ""48229"": 27.63}",Culberson|Hudspeth,48109|48229,False,False,America/Chicago,"(30.92331, -104.85583)",41.939982769331074,91677.0,302_0_no,31.288364236101348,-105.42223647973228,40.0
79938,31.85764,-106.03895,El Paso,TX,Texas,True,,83326.0,82.4,48141,El Paso,"{""48141"": 54.48, ""48229"": 45.52}",El Paso|Hudspeth,48141|48229,False,False,America/Denver,"(31.85764, -106.03895)",53.52574958110466,91677.0,302_0_no,31.288364236101348,-105.42223647973228,40.0
