zip,lat,lng,city,state_id,state_name,zcta,parent_zcta,population,density,county_fips,county_name,county_weights,county_names_all,county_fips_all,imprecise,military,timezone,Coord,distance_miles,market_total_population,market_id,market_center_lat,market_center_lng,radius_miles
28733,35.43536,-83.78403,Fontana Dam,NC,North Carolina,True,,34.0,1.1,37075,Graham,"{""37075"": 100}",Graham,37075,False,False,America/New_York,"(35.43536, -83.78403)",43.706495165561755,1133420.0,457_0_no,35.79397737352192,-84.42502476137932,40.0
28771,35.34245,-83.8567,Robbinsville,NC,North Carolina,True,,8113.0,12.1,37075,Graham,"{""37075"": 98.91, ""37173"": 1.09}",Graham|Swain,37075|37173,False,False,America/New_York,"(35.34245, -83.8567)",44.648703819037216,1133420.0,457_0_no,35.79397737352192,-84.42502476137932,40.0
37303,35.4403,-84.64051,Athens,TN,Tennessee,True,,25062.0,65.0,47107,McMinn,"{""47107"": 100}",McMinn,47107,False,False,America/New_York,"(35.4403, -84.64051)",27.26987298373317,1133420.0,457_0_no,35.79397737352192,-84.42502476137932,40.0
37308,35.3476,-84.99728,Birchwood,TN,Tennessee,True,,2644.0,27.6,47065,Hamilton,"{""47065"": 56.76, ""47121"": 43.24}",Hamilton|Meigs,47065|47121,False,False,America/New_York,"(35.3476, -84.99728)",44.5592332716119,1133420.0,457_0_no,35.79397737352192,-84.42502476137932,40.0
37309,35.30595,-84.74453,Calhoun,TN,Tennessee,True,,2280.0,22.3,47107,McMinn,"{""47107"": 88.75, ""47139"": 11.25}",McMinn|Polk,47107|47139,False,False,America/New_York,"(35.30595, -84.74453)",38.20465052672641,1133420.0,457_0_no,35.79397737352192,-84.42502476137932,40.0
37310,35.26237,-84.77767,Charleston,TN,Tennessee,True,,3786.0,34.2,47011,Bradley,"{""47011"": 89.42, ""47139"": 10.58}",Bradley|Polk,47011|47139,False,False,America/New_York,"(35.26237, -84.77767)",41.74122848052696,1133420.0,457_0_no,35.79397737352192,-84.42502476137932,40.0
37312,35.2286,-84.87344,Cleveland,TN,Tennessee,True,,35877.0,215.0,47011,Bradley,"{""47011"": 100}",Bradley,47011,False,False,America/New_York,"(35.2286, -84.87344)",46.497420936824945,1133420.0,457_0_no,35.79397737352192,-84.42502476137932,40.0
37321,35.50239,-85.00801,Dayton,TN,Tennessee,True,,20191.0,68.4,47143,Rhea,"{""47143"": 95.36, ""47007"": 4.64}",Rhea|Bledsoe,47143|47007,False,False,America/New_York,"(35.50239, -85.00801)",38.435512124988364,1133420.0,457_0_no,35.79397737352192,-84.42502476137932,40.0
37322,35.49562,-84.81512,Decatur,TN,Tennessee,True,,8270.0,23.7,47121,Meigs,"{""47121"": 92.03, ""47107"": 7.97}",Meigs|McMinn,47121|47107,False,False,America/New_York,"(35.49562, -84.81512)",30.078355907042454,1133420.0,457_0_no,35.79397737352192,-84.42502476137932,40.0
37325,35.24726,-84.61108,Delano,TN,Tennessee,True,,1646.0,29.4,47139,Polk,"{""47139"": 87.92, ""47107"": 12.08}",Polk|McMinn,47139|47107,False,False,America/New_York,"(35.24726, -84.61108)",39.196798231034265,1133420.0,457_0_no,35.79397737352192,-84.42502476137932,40.0
37329,35.39201,-84.46017,Englewood,TN,Tennessee,True,,5877.0,38.3,47107,McMinn,"{""47107"": 84.47, ""47123"": 15.53}",McMinn|Monroe,47107|47123,False,False,America/New_York,"(35.39201, -84.46017)",27.84340714860637,1133420.0,457_0_no,35.79397737352192,-84.42502476137932,40.0
37331,35.31662,-84.5336,Etowah,TN,Tennessee,True,,6849.0,67.2,47107,McMinn,"{""47107"": 100}",McMinn,47107,False,False,America/New_York,"(35.31662, -84.5336)",33.54216652208438,1133420.0,457_0_no,35.79397737352192,-84.42502476137932,40.0
37332,35.59418,-84.96277,Evensville,TN,Tennessee,True,,2497.0,14.1,47143,Rhea,"{""47143"": 94.18, ""47007"": 5.82}",Rhea|Bledsoe,47143|47007,False,False,America/New_York,"(35.59418, -84.96277)",33.18268813230312,1133420.0,457_0_no,35.79397737352192,-84.42502476137932,40.0
37336,35.30117,-84.93413,Georgetown,TN,Tennessee,True,,4726.0,41.7,47121,Meigs,"{""47121"": 35.91, ""47065"": 33.35, ""47011"": 30.74}",Meigs|Hamilton|Bradley,47121|47065|47011,False,False,America/New_York,"(35.30117, -84.93413)",44.48018813068128,1133420.0,457_0_no,35.79397737352192,-84.42502476137932,40.0
37337,35.78594,-84.86651,Grandview,TN,Tennessee,True,,1330.0,8.5,47143,Rhea,"{""47143"": 50.23, ""47035"": 43.86, ""47007"": 5.91}",Rhea|Cumberland|Bledsoe,47143|47035|47007,False,False,America/Chicago,"(35.78594, -84.86651)",24.749804053568184,1133420.0,457_0_no,35.79397737352192,-84.42502476137932,40.0
37341,35.21386,-85.0834,Harrison,TN,Tennessee,True,,12010.0,137.4,47065,Hamilton,"{""47065"": 100}",Hamilton,47065,False,False,America/New_York,"(35.21386, -85.0834)",54.570238603587846,1133420.0,457_0_no,35.79397737352192,-84.42502476137932,40.0
37354,35.50195,-84.34387,Madisonville,TN,Tennessee,True,,17029.0,55.9,47123,Monroe,"{""47123"": 97.02, ""47107"": 2.98}",Monroe|McMinn,47123|47107,False,False,America/New_York,"(35.50195, -84.34387)",20.68526180233437,1133420.0,457_0_no,35.79397737352192,-84.42502476137932,40.0
37370,35.35903,-84.70064,Riceville,TN,Tennessee,True,,4965.0,31.0,47107,McMinn,"{""47107"": 100}",McMinn,47107,False,False,America/New_York,"(35.35903, -84.70064)",33.808518783682594,1133420.0,457_0_no,35.79397737352192,-84.42502476137932,40.0
37373,35.39476,-85.10373,Sale Creek,TN,Tennessee,True,,3107.0,29.6,47065,Hamilton,"{""47065"": 99.61, ""47143"": 0.39}",Hamilton|Rhea,47065|47143,False,False,America/New_York,"(35.39476, -85.10373)",47.06260081724885,1133420.0,457_0_no,35.79397737352192,-84.42502476137932,40.0
37381,35.68533,-84.8775,Spring City,TN,Tennessee,True,,9574.0,27.1,47143,Rhea,"{""47143"": 81.59, ""47007"": 18.41}",Rhea|Bledsoe,47143|47007,False,False,America/New_York,"(35.68533, -84.8775)",26.46263411037184,1133420.0,457_0_no,35.79397737352192,-84.42502476137932,40.0
37385,35.33494,-84.22933,Tellico Plains,TN,Tennessee,True,,9292.0,13.4,47123,Monroe,"{""47123"": 100}",Monroe,47123,False,False,America/New_York,"(35.33494, -84.22933)",33.569482294823686,1133420.0,457_0_no,35.79397737352192,-84.42502476137932,40.0
37701,35.79393,-83.98461,Alcoa,TN,Tennessee,True,,7509.0,269.9,47009,Blount,"{""47009"": 100}",Blount,47009,False,False,America/New_York,"(35.79393, -83.98461)",24.682336388892143,1133420.0,457_0_no,35.79397737352192,-84.42502476137932,40.0
37705,36.22862,-84.00947,Andersonville,TN,Tennessee,True,,4388.0,38.0,47001,Anderson,"{""47001"": 67.49, ""47173"": 32.51}",Anderson|Union,47001|47173,False,False,America/New_York,"(36.22862, -84.00947)",37.96396043532781,1133420.0,457_0_no,35.79397737352192,-84.42502476137932,40.0
37710,36.15802,-84.3177,Briceville,TN,Tennessee,True,,1161.0,5.6,47001,Anderson,"{""47001"": 100}",Anderson,47001,False,False,America/New_York,"(36.15802, -84.3177)",25.858906024122128,1133420.0,457_0_no,35.79397737352192,-84.42502476137932,40.0
37714,36.26656,-84.25277,Caryville,TN,Tennessee,True,,4485.0,26.9,47013,Campbell,"{""47013"": 100}",Campbell,47013,False,False,America/New_York,"(36.26656, -84.25277)",34.0413620230513,1133420.0,457_0_no,35.79397737352192,-84.42502476137932,40.0
37716,36.09919,-84.16822,Clinton,TN,Tennessee,True,,27768.0,128.5,47001,Anderson,"{""47001"": 100}",Anderson,47001,False,False,America/New_York,"(36.09919, -84.16822)",25.51567580234281,1133420.0,457_0_no,35.79397737352192,-84.42502476137932,40.0
37719,36.02196,-84.42815,Coalfield,TN,Tennessee,True,,330.0,194.9,47129,Morgan,"{""47129"": 100}",Morgan,47129,False,False,America/New_York,"(36.02196, -84.42815)",15.753070053172435,1133420.0,457_0_no,35.79397737352192,-84.42502476137932,40.0
37721,36.13155,-83.80829,Corryton,TN,Tennessee,True,,14024.0,109.9,47093,Knox,"{""47093"": 90.09, ""47173"": 9.91}",Knox|Union,47093|47173,False,False,America/New_York,"(36.13155, -83.80829)",41.63631826784894,1133420.0,457_0_no,35.79397737352192,-84.42502476137932,40.0
37723,35.96044,-84.82171,Crab Orchard,TN,Tennessee,True,,1038.0,7.1,47035,Cumberland,"{""47035"": 100}",Cumberland,47035,False,False,America/Chicago,"(35.96044, -84.82171)",25.009804485131493,1133420.0,457_0_no,35.79397737352192,-84.42502476137932,40.0
37726,36.20464,-84.8386,Deer Lodge,TN,Tennessee,True,,1792.0,7.6,47129,Morgan,"{""47129"": 87.58, ""47049"": 12.42}",Morgan|Fentress,47129|47049,False,False,America/New_York,"(36.20464, -84.8386)",36.59958776955584,1133420.0,457_0_no,35.79397737352192,-84.42502476137932,40.0
37733,36.35676,-84.69497,Rugby,TN,Tennessee,True,,37.0,17.6,47129,Morgan,"{""47129"": 99.47, ""47151"": 0.53}",Morgan|Scott,47129|47151,False,False,America/New_York,"(36.35676, -84.69497)",41.70441083132793,1133420.0,457_0_no,35.79397737352192,-84.42502476137932,40.0
37737,35.75778,-84.11913,Friendsville,TN,Tennessee,True,,6058.0,87.7,47009,Blount,"{""47009"": 93.62, ""47105"": 6.38}",Blount|Loudon,47009|47105,False,False,America/New_York,"(35.75778, -84.11913)",17.328715539306902,1133420.0,457_0_no,35.79397737352192,-84.42502476137932,40.0
37742,35.67548,-84.18049,Greenback,TN,Tennessee,True,,6362.0,49.7,47105,Loudon,"{""47105"": 69.37, ""47009"": 30.63}",Loudon|Blount,47105|47009,False,False,America/New_York,"(35.67548, -84.18049)",15.972731110470153,1133420.0,457_0_no,35.79397737352192,-84.42502476137932,40.0
37748,35.94797,-84.51413,Harriman,TN,Tennessee,True,,16745.0,60.7,47145,Roane,"{""47145"": 71.47, ""47129"": 28.53}",Roane|Morgan,47145|47129,False,False,America/New_York,"(35.94797, -84.51413)",11.751436322544127,1133420.0,457_0_no,35.79397737352192,-84.42502476137932,40.0
37754,36.13059,-84.03305,Heiskell,TN,Tennessee,True,,3951.0,39.9,47001,Anderson,"{""47001"": 68.37, ""47093"": 27.18, ""47173"": 4.45}",Anderson|Knox|Union,47001|47093|47173,False,False,America/New_York,"(36.13059, -84.03305)",31.960078714893818,1133420.0,457_0_no,35.79397737352192,-84.42502476137932,40.0
37756,36.30165,-84.40704,Huntsville,TN,Tennessee,True,,2973.0,9.7,47151,Scott,"{""47151"": 87.44, ""47013"": 12.56}",Scott|Campbell,47151|47013,False,False,America/New_York,"(36.30165, -84.40704)",35.09122296003056,1133420.0,457_0_no,35.79397737352192,-84.42502476137932,40.0
37757,36.30182,-84.14371,Jacksboro,TN,Tennessee,True,,10096.0,137.8,47013,Campbell,"{""47013"": 100}",Campbell,47013,False,False,America/New_York,"(36.30182, -84.14371)",38.447043574687996,1133420.0,457_0_no,35.79397737352192,-84.42502476137932,40.0
37763,35.82344,-84.49356,Kingston,TN,Tennessee,True,,15959.0,71.7,47145,Roane,"{""47145"": 100}",Roane,47145,False,False,America/New_York,"(35.82344, -84.49356)",4.346422159981157,1133420.0,457_0_no,35.79397737352192,-84.42502476137932,40.0
37769,36.21799,-84.15532,Rocky Top,TN,Tennessee,True,,5839.0,75.1,47001,Anderson,"{""47001"": 81.23, ""47013"": 18.77}",Anderson|Campbell,47001|47013,False,False,America/New_York,"(36.21799, -84.15532)",32.94736687370798,1133420.0,457_0_no,35.79397737352192,-84.42502476137932,40.0
37770,36.15239,-84.6418,Lancing,TN,Tennessee,True,,2835.0,8.0,47129,Morgan,"{""47129"": 100}",Morgan,47129,False,False,America/New_York,"(36.15239, -84.6418)",27.571355658700313,1133420.0,457_0_no,35.79397737352192,-84.42502476137932,40.0
37771,35.8382,-84.31748,Lenoir City,TN,Tennessee,True,,17730.0,136.5,47105,Loudon,"{""47105"": 74.89, ""47145"": 25.11}",Loudon|Roane,47105|47145,False,False,America/New_York,"(35.8382, -84.31748)",6.755935153074614,1133420.0,457_0_no,35.79397737352192,-84.42502476137932,40.0
37772,35.78775,-84.21876,Lenoir City,TN,Tennessee,True,,13106.0,130.9,47105,Loudon,"{""47105"": 99.88, ""47093"": 0.12}",Loudon|Knox,47105|47093,False,False,America/New_York,"(35.78775, -84.21876)",11.568238072543652,1133420.0,457_0_no,35.79397737352192,-84.42502476137932,40.0
37774,35.7317,-84.35526,Loudon,TN,Tennessee,True,,18340.0,80.3,47105,Loudon,"{""47105"": 86.78, ""47145"": 12.08, ""47123"": 1.14}",Loudon|Roane|Monroe,47105|47145|47123,False,False,America/New_York,"(35.7317, -84.35526)",5.815013617754092,1133420.0,457_0_no,35.79397737352192,-84.42502476137932,40.0
37777,35.82742,-84.05186,Louisville,TN,Tennessee,True,,12763.0,149.9,47009,Blount,"{""47009"": 100}",Blount,47009,False,False,America/New_York,"(35.82742, -84.05186)",21.03630326179857,1133420.0,457_0_no,35.79397737352192,-84.42502476137932,40.0
37779,36.21093,-83.75793,Luttrell,TN,Tennessee,True,,3598.0,40.2,47173,Union,"{""47173"": 95.74, ""47093"": 4.05, ""47057"": 0.21}",Union|Knox|Grainger,47173|47093|47057,False,False,America/New_York,"(36.21093, -83.75793)",47.12015578906209,1133420.0,457_0_no,35.79397737352192,-84.42502476137932,40.0
37801,35.67134,-84.08453,Maryville,TN,Tennessee,True,,27102.0,150.8,47009,Blount,"{""47009"": 87.63, ""47123"": 12.37}",Blount|Monroe,47009|47123,False,False,America/New_York,"(35.67134, -84.08453)",20.892622129587377,1133420.0,457_0_no,35.79397737352192,-84.42502476137932,40.0
37803,35.67115,-83.97761,Maryville,TN,Tennessee,True,,32016.0,140.9,47009,Blount,"{""47009"": 100}",Blount,47009,False,False,America/New_York,"(35.67115, -83.97761)",26.490183786742552,1133420.0,457_0_no,35.79397737352192,-84.42502476137932,40.0
37804,35.79228,-83.89311,Maryville,TN,Tennessee,True,,27040.0,299.5,47009,Blount,"{""47009"": 100}",Blount,47009,False,False,America/New_York,"(35.79228, -83.89311)",29.810835019758056,1133420.0,457_0_no,35.79397737352192,-84.42502476137932,40.0
37806,36.08645,-83.72368,Mascot,TN,Tennessee,True,,2925.0,62.1,47093,Knox,"{""47093"": 88.47, ""47057"": 11.53}",Knox|Grainger,47093|47057,False,False,America/New_York,"(36.08645, -83.72368)",44.13158411319375,1133420.0,457_0_no,35.79397737352192,-84.42502476137932,40.0
37807,36.25955,-83.82702,Maynardville,TN,Tennessee,True,,11397.0,55.0,47173,Union,"{""47173"": 99.37, ""47093"": 0.63}",Union|Knox,47173|47093,False,False,America/New_York,"(36.25955, -83.82702)",46.382916890355176,1133420.0,457_0_no,35.79397737352192,-84.42502476137932,40.0
37826,35.55825,-84.58984,Niota,TN,Tennessee,True,,4930.0,35.4,47107,McMinn,"{""47107"": 98.73, ""47121"": 1.27}",McMinn|Meigs,47107|47121,False,False,America/New_York,"(35.55825, -84.58984)",18.73084287461244,1133420.0,457_0_no,35.79397737352192,-84.42502476137932,40.0
37828,36.19788,-84.06889,Norris,TN,Tennessee,True,,1457.0,175.5,47001,Anderson,"{""47001"": 100}",Anderson,47001,False,False,America/New_York,"(36.19788, -84.06889)",34.28019158550798,1133420.0,457_0_no,35.79397737352192,-84.42502476137932,40.0
37829,36.00094,-84.61331,Oakdale,TN,Tennessee,True,,1731.0,15.1,47129,Morgan,"{""47129"": 100}",Morgan,47129,False,False,America/New_York,"(36.00094, -84.61331)",17.763454447675823,1133420.0,457_0_no,35.79397737352192,-84.42502476137932,40.0
37830,35.96431,-84.29221,Oak Ridge,TN,Tennessee,True,,29569.0,134.6,47001,Anderson,"{""47001"": 52.24, ""47145"": 47.23, ""47093"": 0.53}",Anderson|Roane|Knox,47001|47145|47093,False,False,America/New_York,"(35.96431, -84.29221)",13.920895025542638,1133420.0,457_0_no,35.79397737352192,-84.42502476137932,40.0
37840,36.05849,-84.37047,Oliver Springs,TN,Tennessee,True,,10092.0,48.3,47129,Morgan,"{""47129"": 44.27, ""47001"": 36.8, ""47145"": 18.92}",Morgan|Anderson|Roane,47129|47001|47145,False,False,America/New_York,"(36.05849, -84.37047)",18.52921720052178,1133420.0,457_0_no,35.79397737352192,-84.42502476137932,40.0
37845,36.10369,-84.45022,Petros,TN,Tennessee,True,,479.0,46.3,47129,Morgan,"{""47129"": 100}",Morgan,47129,False,False,America/New_York,"(36.10369, -84.45022)",21.445458583808474,1133420.0,457_0_no,35.79397737352192,-84.42502476137932,40.0
37846,35.68008,-84.48505,Philadelphia,TN,Tennessee,True,,4002.0,21.3,47105,Loudon,"{""47105"": 42.7, ""47145"": 38.7, ""47123"": 14.53, ""47107"": 3.94, ""47121"": 0.13}",Loudon|Roane|Monroe|McMinn|Meigs,47105|47145|47123|47107|47121,False,False,America/New_York,"(35.68008, -84.48505)",8.55936868887932,1133420.0,457_0_no,35.79397737352192,-84.42502476137932,40.0
37849,36.0578,-84.04476,Powell,TN,Tennessee,True,,28109.0,273.1,47093,Knox,"{""47093"": 70.8, ""47001"": 29.2}",Knox|Anderson,47093|47001,False,False,America/New_York,"(36.0578, -84.04476)",28.016713431620577,1133420.0,457_0_no,35.79397737352192,-84.42502476137932,40.0
37852,36.32365,-84.57454,Robbins,TN,Tennessee,True,,2941.0,10.8,47151,Scott,"{""47151"": 90.73, ""47129"": 9.27}",Scott|Morgan,47151|47129,False,False,America/New_York,"(36.32365, -84.57454)",37.537660232155446,1133420.0,457_0_no,35.79397737352192,-84.42502476137932,40.0
37853,35.83723,-83.90854,Rockford,TN,Tennessee,True,,3474.0,80.1,47009,Blount,"{""47009"": 91.21, ""47093"": 8.79}",Blount|Knox,47009|47093,False,False,America/New_York,"(35.83723, -83.90854)",29.091561831346326,1133420.0,457_0_no,35.79397737352192,-84.42502476137932,40.0
37854,35.88004,-84.71454,Rockwood,TN,Tennessee,True,,12690.0,35.9,47145,Roane,"{""47145"": 47.68, ""47035"": 39.66, ""47129"": 12.66}",Roane|Cumberland|Morgan,47145|47035|47129,False,False,America/Chicago,"(35.88004, -84.71454)",17.272465724554767,1133420.0,457_0_no,35.79397737352192,-84.42502476137932,40.0
37865,35.84609,-83.73974,Seymour,TN,Tennessee,True,,24638.0,129.7,47155,Sevier,"{""47155"": 69.3, ""47009"": 30.7}",Sevier|Blount,47155|47009,False,False,America/New_York,"(35.84609, -83.73974)",38.56149333815687,1133420.0,457_0_no,35.79397737352192,-84.42502476137932,40.0
37866,36.35017,-83.8517,Sharps Chapel,TN,Tennessee,True,,1508.0,10.5,47173,Union,"{""47173"": 100}",Union,47173,False,False,America/New_York,"(36.35017, -83.8517)",50.01951359959508,1133420.0,457_0_no,35.79397737352192,-84.42502476137932,40.0
37872,36.26869,-84.68119,Sunbright,TN,Tennessee,True,,1710.0,7.2,47129,Morgan,"{""47129"": 86.35, ""47151"": 13.65}",Morgan|Scott,47129|47151,False,False,America/New_York,"(36.26869, -84.68119)",35.7865587738245,1133420.0,457_0_no,35.79397737352192,-84.42502476137932,40.0
37874,35.59749,-84.45823,Sweetwater,TN,Tennessee,True,,15765.0,59.2,47123,Monroe,"{""47123"": 70.29, ""47107"": 20.58, ""47105"": 8.72, ""47145"": 0.41}",Monroe|McMinn|Loudon|Roane,47123|47107|47105|47145,False,False,America/New_York,"(35.59749, -84.45823)",13.703247152432937,1133420.0,457_0_no,35.79397737352192,-84.42502476137932,40.0
37878,35.59406,-83.98358,Tallassee,TN,Tennessee,True,,350.0,5.2,47009,Blount,"{""47009"": 100}",Blount,47009,False,False,America/New_York,"(35.59406, -83.98358)",28.362051618874304,1133420.0,457_0_no,35.79397737352192,-84.42502476137932,40.0
37880,35.7012,-84.66453,Ten Mile,TN,Tennessee,True,,3772.0,19.8,47121,Meigs,"{""47121"": 56.61, ""47145"": 42.93, ""47107"": 0.46}",Meigs|Roane|McMinn,47121|47145|47107,False,False,America/New_York,"(35.7012, -84.66453)",14.881895727013983,1133420.0,457_0_no,35.79397737352192,-84.42502476137932,40.0
37882,35.60335,-83.82118,Townsend,TN,Tennessee,True,,3036.0,6.4,47009,Blount,"{""47009"": 100}",Blount,47009,False,False,America/New_York,"(35.60335, -83.82118)",36.3519780343331,1133420.0,457_0_no,35.79397737352192,-84.42502476137932,40.0
37885,35.50392,-84.12539,Vonore,TN,Tennessee,True,,5854.0,15.6,47123,Monroe,"{""47123"": 97.86, ""47105"": 2.14}",Monroe|Loudon,47123|47105,False,False,America/New_York,"(35.50392, -84.12539)",26.166020172894637,1133420.0,457_0_no,35.79397737352192,-84.42502476137932,40.0
37886,35.74142,-83.80747,Walland,TN,Tennessee,True,,4594.0,41.9,47009,Blount,"{""47009"": 100}",Blount,47009,False,False,America/New_York,"(35.74142, -83.80747)",34.811186371844144,1133420.0,457_0_no,35.79397737352192,-84.42502476137932,40.0
37887,36.0772,-84.61573,Wartburg,TN,Tennessee,True,,7651.0,36.3,47129,Morgan,"{""47129"": 100}",Morgan,47129,False,False,America/New_York,"(36.0772, -84.61573)",22.28809312346291,1133420.0,457_0_no,35.79397737352192,-84.42502476137932,40.0
37902,35.96203,-83.92039,Knoxville,TN,Tennessee,True,,2463.0,2151.4,47093,Knox,"{""47093"": 100}",Knox,47093,False,False,America/New_York,"(35.96203, -83.92039)",30.544528049253486,1133420.0,457_0_no,35.79397737352192,-84.42502476137932,40.0
37909,35.94716,-84.02275,Knoxville,TN,Tennessee,True,,16321.0,926.6,47093,Knox,"{""47093"": 100}",Knox,47093,False,False,America/New_York,"(35.94716, -84.02275)",24.885896326115375,1133420.0,457_0_no,35.79397737352192,-84.42502476137932,40.0
37912,36.00849,-83.98465,Knoxville,TN,Tennessee,True,,22154.0,810.1,47093,Knox,"{""47093"": 100}",Knox,47093,False,False,America/New_York,"(36.00849, -83.98465)",28.75993228447915,1133420.0,457_0_no,35.79397737352192,-84.42502476137932,40.0
37914,35.97988,-83.79937,Knoxville,TN,Tennessee,True,,19912.0,193.6,47093,Knox,"{""47093"": 100}",Knox,47093,False,False,America/New_York,"(35.97988, -83.79937)",37.303785518101954,1133420.0,457_0_no,35.79397737352192,-84.42502476137932,40.0
37915,35.97057,-83.90002,Knoxville,TN,Tennessee,True,,5055.0,1035.7,47093,Knox,"{""47093"": 100}",Knox,47093,False,False,America/New_York,"(35.97057, -83.90002)",31.822345853022686,1133420.0,457_0_no,35.79397737352192,-84.42502476137932,40.0
37916,35.95309,-83.9335,Knoxville,TN,Tennessee,True,,13711.0,3757.0,47093,Knox,"{""47093"": 100}",Knox,47093,False,False,America/New_York,"(35.95309, -83.9335)",29.633752047843092,1133420.0,457_0_no,35.79397737352192,-84.42502476137932,40.0
37917,36.00156,-83.91265,Knoxville,TN,Tennessee,True,,25048.0,1017.8,47093,Knox,"{""47093"": 100}",Knox,47093,False,False,America/New_York,"(36.00156, -83.91265)",32.0642333753829,1133420.0,457_0_no,35.79397737352192,-84.42502476137932,40.0
37918,36.0599,-83.91082,Knoxville,TN,Tennessee,True,,45107.0,504.0,47093,Knox,"{""47093"": 100}",Knox,47093,False,False,America/New_York,"(36.0599, -83.91082)",34.135959524406196,1133420.0,457_0_no,35.79397737352192,-84.42502476137932,40.0
37919,35.91429,-84.00106,Knoxville,TN,Tennessee,True,,29637.0,598.9,47093,Knox,"{""47093"": 100}",Knox,47093,False,False,America/New_York,"(35.91429, -84.00106)",25.155607429912216,1133420.0,457_0_no,35.79397737352192,-84.42502476137932,40.0
37920,35.91084,-83.85909,Knoxville,TN,Tennessee,True,,40678.0,217.2,47093,Knox,"{""47093"": 99.33, ""47009"": 0.67}",Knox|Blount,47093|47009,False,False,America/New_York,"(35.91084, -83.85909)",32.70589975700439,1133420.0,457_0_no,35.79397737352192,-84.42502476137932,40.0
37921,35.97877,-84.00028,Knoxville,TN,Tennessee,True,,27522.0,668.3,47093,Knox,"{""47093"": 100}",Knox,47093,False,False,America/New_York,"(35.97877, -84.00028)",26.987729636294137,1133420.0,457_0_no,35.79397737352192,-84.42502476137932,40.0
37922,35.86124,-84.10127,Knoxville,TN,Tennessee,True,,37709.0,525.1,47093,Knox,"{""47093"": 99.35, ""47105"": 0.65}",Knox|Loudon,47093|47105,False,False,America/New_York,"(35.86124, -84.10127)",18.72259972573013,1133420.0,457_0_no,35.79397737352192,-84.42502476137932,40.0
37923,35.92697,-84.08076,Knoxville,TN,Tennessee,True,,31548.0,1098.6,47093,Knox,"{""47093"": 100}",Knox,47093,False,False,America/New_York,"(35.92697, -84.08076)",21.355603944722244,1133420.0,457_0_no,35.79397737352192,-84.42502476137932,40.0
37924,36.03554,-83.80211,Knoxville,TN,Tennessee,True,,12312.0,170.6,47093,Knox,"{""47093"": 100}",Knox,47093,False,False,America/New_York,"(36.03554, -83.80211)",38.64686189694208,1133420.0,457_0_no,35.79397737352192,-84.42502476137932,40.0
37931,35.97611,-84.12496,Knoxville,TN,Tennessee,True,,28440.0,387.1,47093,Knox,"{""47093"": 91.49, ""47001"": 8.51}",Knox|Anderson,47093|47001,False,False,America/New_York,"(35.97611, -84.12496)",20.98837172952915,1133420.0,457_0_no,35.79397737352192,-84.42502476137932,40.0
37932,35.92273,-84.19562,Knoxville,TN,Tennessee,True,,19206.0,255.8,47093,Knox,"{""47093"": 100}",Knox,47093,False,False,America/New_York,"(35.92273, -84.19562)",15.625708771873189,1133420.0,457_0_no,35.79397737352192,-84.42502476137932,40.0
37934,35.87338,-84.17882,Farragut,TN,Tennessee,True,,27152.0,601.6,47093,Knox,"{""47093"": 100}",Knox,47093,False,False,America/New_York,"(35.87338, -84.17882)",14.842406816884091,1133420.0,457_0_no,35.79397737352192,-84.42502476137932,40.0
37938,36.12499,-83.93815,Knoxville,TN,Tennessee,True,,17230.0,205.6,47093,Knox,"{""47093"": 99.02, ""47173"": 0.6, ""47001"": 0.38}",Knox|Union|Anderson,47093|47173|47001,False,False,America/New_York,"(36.12499, -83.93815)",35.559732443226586,1133420.0,457_0_no,35.79397737352192,-84.42502476137932,40.0
38553,36.20322,-85.00442,Clarkrange,TN,Tennessee,True,,2827.0,22.7,47049,Fentress,"{""47049"": 100}",Fentress,47049,False,False,America/Chicago,"(36.20322, -85.00442)",42.99376626556901,1133420.0,457_0_no,35.79397737352192,-84.42502476137932,40.0
38555,35.88956,-84.97537,Crossville,TN,Tennessee,True,,20371.0,85.2,47035,Cumberland,"{""47035"": 100}",Cumberland,47035,False,False,America/Chicago,"(35.88956, -84.97537)",31.524143701685283,1133420.0,457_0_no,35.79397737352192,-84.42502476137932,40.0
38558,36.00532,-84.87374,Crossville,TN,Tennessee,True,,9572.0,183.3,47035,Cumberland,"{""47035"": 100}",Cumberland,47035,False,False,America/Chicago,"(36.00532, -84.87374)",29.050684236270534,1133420.0,457_0_no,35.79397737352192,-84.42502476137932,40.0
38565,36.26296,-85.00992,Grimsley,TN,Tennessee,True,,1023.0,38.2,47049,Fentress,"{""47049"": 100}",Fentress,47049,False,False,America/Chicago,"(36.26296, -85.00992)",46.02306706374959,1133420.0,457_0_no,35.79397737352192,-84.42502476137932,40.0
38571,36.0513,-85.01374,Crossville,TN,Tennessee,True,,14180.0,24.1,47035,Cumberland,"{""47035"": 100}",Cumberland,47035,False,False,America/Chicago,"(36.0513, -85.01374)",37.43188930956196,1133420.0,457_0_no,35.79397737352192,-84.42502476137932,40.0
38572,35.84764,-85.12778,Crossville,TN,Tennessee,True,,11123.0,27.1,47035,Cumberland,"{""47035"": 91.41, ""47007"": 8.59}",Cumberland|Bledsoe,47035|47007,False,False,America/Chicago,"(35.84764, -85.12778)",39.54561496511394,1133420.0,457_0_no,35.79397737352192,-84.42502476137932,40.0
38589,36.28551,-85.07624,Wilder,TN,Tennessee,True,,241.0,3.1,47049,Fentress,"{""47049"": 90.75, ""47133"": 9.25}",Fentress|Overton,47049|47133,False,False,America/Chicago,"(36.28551, -85.07624)",49.770472653283555,1133420.0,457_0_no,35.79397737352192,-84.42502476137932,40.0
