zip,lat,lng,city,state_id,state_name,zcta,parent_zcta,population,density,county_fips,county_name,county_weights,county_names_all,county_fips_all,imprecise,military,timezone,Coord,distance_miles,market_total_population,market_id,market_center_lat,market_center_lng,radius_miles
81128,37.06529,-106.65223,Chromo,CO,Colorado,True,,91.0,0.2,8007,Archuleta,"{""08007"": 100}",Archuleta,08007,False,False,America/Denver,"(37.06529, -106.65223)",43.53056436340203,60625.0,473_0_yes,36.49993978282459,-106.30506310411452,40.0
81138,37.02302,-105.62737,Jaroso,CO,Colorado,True,,38.0,0.7,8023,Costilla,"{""08023"": 100}",Costilla,08023,False,False,America/Denver,"(37.02302, -105.62737)",52.08981750625552,60625.0,473_0_yes,36.49993978282459,-106.30506310411452,40.0
87012,36.13341,-106.67312,Coyote,NM,New Mexico,True,,371.0,1.9,35039,Rio Arriba,"{""35039"": 100}",Rio Arriba,35039,False,False,America/Denver,"(36.13341, -106.67312)",32.576167092168745,60625.0,473_0_yes,36.49993978282459,-106.30506310411452,40.0
87017,36.30624,-106.73759,Gallina,NM,New Mexico,True,,500.0,0.9,35039,Rio Arriba,"{""35039"": 100}",Rio Arriba,35039,False,False,America/Denver,"(36.30624, -106.73759)",27.525701122400744,60625.0,473_0_yes,36.49993978282459,-106.30506310411452,40.0
87027,36.12734,-106.94737,La Jara,NM,New Mexico,True,,289.0,3.2,35043,Sandoval,"{""35043"": 100}",Sandoval,35043,False,False,America/Denver,"(36.12734, -106.94737)",44.06288070147029,60625.0,473_0_yes,36.49993978282459,-106.30506310411452,40.0
87046,36.27773,-106.91643,Regina,NM,New Mexico,True,,256.0,1.1,35039,Rio Arriba,"{""35039"": 78.49, ""35043"": 21.51}",Rio Arriba|Sandoval,35039|35043,False,False,America/Denver,"(36.27773, -106.91643)",37.310012338383025,60625.0,473_0_yes,36.49993978282459,-106.30506310411452,40.0
87064,36.1849,-106.53923,Youngsville,NM,New Mexico,True,,106.0,0.6,35039,Rio Arriba,"{""35039"": 100}",Rio Arriba,35039,False,False,America/Denver,"(36.1849, -106.53923)",25.37026731061543,60625.0,473_0_yes,36.49993978282459,-106.30506310411452,40.0
87510,36.35906,-106.48312,Abiquiu,NM,New Mexico,True,,843.0,1.0,35039,Rio Arriba,"{""35039"": 100}",Rio Arriba,35039,False,False,America/Denver,"(36.35906, -106.48312)",13.882657063223586,60625.0,473_0_yes,36.49993978282459,-106.30506310411452,40.0
87511,36.08905,-105.96448,Alcalde,NM,New Mexico,True,,1837.0,13.8,35039,Rio Arriba,"{""35039"": 100}",Rio Arriba,35039,False,False,America/Denver,"(36.08905, -105.96448)",34.14238877848192,60625.0,473_0_yes,36.49993978282459,-106.30506310411452,40.0
87513,36.58367,-105.70121,Arroyo Hondo,NM,New Mexico,True,,1004.0,9.9,35055,Taos,"{""35055"": 100}",Taos,35055,False,False,America/Denver,"(36.58367, -105.70121)",34.01612016228627,60625.0,473_0_yes,36.49993978282459,-106.30506310411452,40.0
87514,36.52957,-105.60055,Arroyo Seco,NM,New Mexico,True,,1282.0,57.9,35055,Taos,"{""35055"": 100}",Taos,35055,False,False,America/Denver,"(36.52957, -105.60055)",39.17550020692722,60625.0,473_0_yes,36.49993978282459,-106.30506310411452,40.0
87515,36.56257,-106.3696,Canjilon,NM,New Mexico,True,,254.0,0.5,35039,Rio Arriba,"{""35039"": 100}",Rio Arriba,35039,False,False,America/Denver,"(36.56257, -106.3696)",5.618166565075498,60625.0,473_0_yes,36.49993978282459,-106.30506310411452,40.0
87516,36.18116,-106.46149,Canones,NM,New Mexico,True,,94.0,0.9,35039,Rio Arriba,"{""35039"": 100}",Rio Arriba,35039,False,False,America/Denver,"(36.18116, -106.46149)",23.683755390903297,60625.0,473_0_yes,36.49993978282459,-106.30506310411452,40.0
87517,36.39035,-105.79269,Carson,NM,New Mexico,True,,253.0,1.2,35055,Taos,"{""35055"": 100}",Taos,35055,False,False,America/Denver,"(36.39035, -105.79269)",29.46738247744057,60625.0,473_0_yes,36.49993978282459,-106.30506310411452,40.0
87519,36.76472,-105.63502,Cerro,NM,New Mexico,True,,519.0,7.0,35055,Taos,"{""35055"": 100}",Taos,35055,False,False,America/Denver,"(36.76472, -105.63502)",41.41133984635084,60625.0,473_0_yes,36.49993978282459,-106.30506310411452,40.0
87520,36.88419,-106.63552,Chama,NM,New Mexico,True,,1201.0,1.8,35039,Rio Arriba,"{""35039"": 100}",Rio Arriba,35039,False,False,America/Denver,"(36.88419, -106.63552)",32.249805172679004,60625.0,473_0_yes,36.49993978282459,-106.30506310411452,40.0
87521,36.08506,-105.70477,Chamisal,NM,New Mexico,True,,769.0,2.9,35039,Rio Arriba,"{""35039"": 66.49, ""35055"": 33.51}",Rio Arriba|Taos,35039|35055,False,False,America/Denver,"(36.08506, -105.70477)",44.03710496662116,60625.0,473_0_yes,36.49993978282459,-106.30506310411452,40.0
87522,35.96889,-105.84639,Chimayo,NM,New Mexico,True,,2907.0,10.5,35049,Santa Fe,"{""35049"": 78.94, ""35039"": 21.06}",Santa Fe|Rio Arriba,35049|35039,False,False,America/Denver,"(35.96889, -105.84639)",44.71831203731244,60625.0,473_0_yes,36.49993978282459,-106.30506310411452,40.0
87523,36.01115,-105.86273,Cordova,NM,New Mexico,True,,553.0,102.0,35039,Rio Arriba,"{""35039"": 100}",Rio Arriba,35039,False,False,America/Denver,"(36.01115, -105.86273)",41.80821466577467,60625.0,473_0_yes,36.49993978282459,-106.30506310411452,40.0
87527,36.16875,-105.86352,Dixon,NM,New Mexico,True,,444.0,4.3,35039,Rio Arriba,"{""35039"": 100}",Rio Arriba,35039,False,False,America/Denver,"(36.16875, -105.86352)",33.58001930449672,60625.0,473_0_yes,36.49993978282459,-106.30506310411452,40.0
87528,36.79432,-106.87989,Dulce,NM,New Mexico,True,,3291.0,2.9,35039,Rio Arriba,"{""35039"": 100}",Rio Arriba,35039,False,False,America/Denver,"(36.79432, -106.87989)",37.80378423705922,60625.0,473_0_yes,36.49993978282459,-106.30506310411452,40.0
87529,36.45001,-105.66147,El Prado,NM,New Mexico,True,,5203.0,30.9,35055,Taos,"{""35055"": 100}",Taos,35055,False,False,America/Denver,"(36.45001, -105.66147)",35.92345655201791,60625.0,473_0_yes,36.49993978282459,-106.30506310411452,40.0
87530,36.34088,-106.20198,El Rito,NM,New Mexico,True,,682.0,1.6,35039,Rio Arriba,"{""35039"": 100}",Rio Arriba,35039,False,False,America/Denver,"(36.34088, -106.20198)",12.39462847128772,60625.0,473_0_yes,36.49993978282459,-106.30506310411452,40.0
87531,36.25326,-105.84584,Embudo,NM,New Mexico,True,,396.0,4.6,35055,Taos,"{""35055"": 58.77, ""35039"": 41.23}",Taos|Rio Arriba,35055|35039,False,False,America/Denver,"(36.25326, -105.84584)",30.71011051939727,60625.0,473_0_yes,36.49993978282459,-106.30506310411452,40.0
87532,35.97965,-106.1048,Espanola,NM,New Mexico,True,,19073.0,67.3,35039,Rio Arriba,"{""35039"": 75.13, ""35049"": 24.87}",Rio Arriba|Santa Fe,35039|35049,False,False,America/Denver,"(35.97965, -106.1048)",37.6410393569518,60625.0,473_0_yes,36.49993978282459,-106.30506310411452,40.0
87537,36.1043,-106.2454,Hernandez,NM,New Mexico,True,,2850.0,7.8,35039,Rio Arriba,"{""35039"": 100}",Rio Arriba,35039,False,False,America/Denver,"(36.1043, -106.2454)",27.537240567958488,60625.0,473_0_yes,36.49993978282459,-106.30506310411452,40.0
87539,36.41192,-106.02393,La Madera,NM,New Mexico,True,,21.0,0.1,35039,Rio Arriba,"{""35039"": 100}",Rio Arriba,35039,False,False,America/Denver,"(36.41192, -106.02393)",16.76528304920408,60625.0,473_0_yes,36.49993978282459,-106.30506310411452,40.0
87543,36.10399,-105.65781,Llano,NM,New Mexico,True,,44.0,0.9,35055,Taos,"{""35055"": 100}",Taos,35055,False,False,America/Denver,"(36.10399, -105.65781)",45.2478301771854,60625.0,473_0_yes,36.49993978282459,-106.30506310411452,40.0
87548,36.1756,-106.18491,Medanales,NM,New Mexico,True,,1036.0,85.6,35039,Rio Arriba,"{""35039"": 100}",Rio Arriba,35039,False,False,America/Denver,"(36.1756, -106.18491)",23.386271959136575,60625.0,473_0_yes,36.49993978282459,-106.30506310411452,40.0
87549,36.23237,-106.0568,Ojo Caliente,NM,New Mexico,True,,950.0,2.9,35039,Rio Arriba,"{""35039"": 85.0, ""35055"": 15.0}",Rio Arriba|Taos,35039|35055,False,False,America/Denver,"(36.23237, -106.0568)",23.077445309093903,60625.0,473_0_yes,36.49993978282459,-106.30506310411452,40.0
87551,36.6925,-106.66872,Los Ojos,NM,New Mexico,True,,183.0,2.4,35039,Rio Arriba,"{""35039"": 100}",Rio Arriba,35039,False,False,America/Denver,"(36.6925, -106.66872)",24.165154601628544,60625.0,473_0_yes,36.49993978282459,-106.30506310411452,40.0
87553,36.20389,-105.72094,Penasco,NM,New Mexico,True,,1512.0,48.9,35055,Taos,"{""35055"": 100}",Taos,35055,False,False,America/Denver,"(36.20389, -105.72094)",38.40529242013389,60625.0,473_0_yes,36.49993978282459,-106.30506310411452,40.0
87557,36.28603,-105.6331,Ranchos De Taos,NM,New Mexico,True,,5104.0,14.2,35055,Taos,"{""35055"": 100}",Taos,35055,False,False,America/Denver,"(36.28603, -105.6331)",40.18936287344088,60625.0,473_0_yes,36.49993978282459,-106.30506310411452,40.0
87564,36.61566,-105.61797,San Cristobal,NM,New Mexico,True,,156.0,1.6,35055,Taos,"{""35055"": 100}",Taos,35055,False,False,America/Denver,"(36.61566, -105.61797)",38.96258566895488,60625.0,473_0_yes,36.49993978282459,-106.30506310411452,40.0
87566,36.07242,-106.07185,Ohkay Owingeh,NM,New Mexico,True,,2932.0,51.7,35039,Rio Arriba,"{""35039"": 100}",Rio Arriba,35039,False,False,America/Denver,"(36.07242, -106.07185)",32.268296993870734,60625.0,473_0_yes,36.49993978282459,-106.30506310411452,40.0
87567,35.99401,-106.01872,Santa Cruz,NM,New Mexico,True,,886.0,120.9,35049,Santa Fe,"{""35049"": 100}",Santa Fe,35049,False,False,America/Denver,"(35.99401, -106.01872)",38.425639367599295,60625.0,473_0_yes,36.49993978282459,-106.30506310411452,40.0
87575,36.64203,-106.59341,Tierra Amarilla,NM,New Mexico,True,,1012.0,1.9,35039,Rio Arriba,"{""35039"": 100}",Rio Arriba,35039,False,False,America/Denver,"(36.64203, -106.59341)",18.772238772169697,60625.0,473_0_yes,36.49993978282459,-106.30506310411452,40.0
87577,36.63237,-105.97755,Tres Piedras,NM,New Mexico,True,,351.0,0.4,35039,Rio Arriba,"{""35039"": 51.28, ""35055"": 48.72}",Rio Arriba|Taos,35039|35055,False,False,America/Denver,"(36.63237, -105.97755)",20.348234941447945,60625.0,473_0_yes,36.49993978282459,-106.30506310411452,40.0
87578,36.04392,-105.78539,Truchas,NM,New Mexico,True,,269.0,1.6,35039,Rio Arriba,"{""35039"": 100}",Rio Arriba,35039,False,False,America/Denver,"(36.04392, -105.78539)",42.78701651754358,60625.0,473_0_yes,36.49993978282459,-106.30506310411452,40.0
87581,36.51531,-106.16017,Vallecitos,NM,New Mexico,True,,25.0,0.1,35039,Rio Arriba,"{""35039"": 100}",Rio Arriba,35039,False,False,America/Denver,"(36.51531, -106.16017)",8.11652194384174,60625.0,473_0_yes,36.49993978282459,-106.30506310411452,40.0
87582,36.15323,-106.00246,Velarde,NM,New Mexico,True,,1038.0,17.5,35039,Rio Arriba,"{""35039"": 100}",Rio Arriba,35039,False,False,America/Denver,"(36.15323, -106.00246)",29.28471391814051,60625.0,473_0_yes,36.49993978282459,-106.30506310411452,40.0
