zip,lat,lng,city,state_id,state_name,zcta,parent_zcta,population,density,county_fips,county_name,county_weights,county_names_all,county_fips_all,imprecise,military,timezone,Coord,distance_miles,market_total_population,market_id,market_center_lat,market_center_lng,radius_miles
86033,36.67692,-110.25536,Kayenta,AZ,Arizona,True,,8080.0,2.6,4017,Navajo,"{""04017"": 95.09, ""04001"": 4.91}",Navajo|Apache,04017|04001,False,False,America/Denver,"(36.67692, -110.25536)",22.604248515728166,34795.0,476_0_yes,36.525917644034,-110.61687102323614,40.0
86039,35.98813,-110.56688,Kykotsmovi Village,AZ,Arizona,True,,1296.0,2.0,4017,Navajo,"{""04017"": 100}",Navajo,04017,False,False,America/Phoenix,"(35.98813, -110.56688)",37.26182687652824,34795.0,476_0_yes,36.525917644034,-110.61687102323614,40.0
86044,36.75137,-110.82626,Tonalea,AZ,Arizona,True,,3301.0,1.1,4005,Coconino,"{""04005"": 55.31, ""49037"": 31.59, ""04017"": 13.1}",Coconino|San Juan|Navajo,04005|49037|04017,False,False,America/Denver,"(36.75137, -110.82626)",19.427213238168036,34795.0,476_0_yes,36.525917644034,-110.61687102323614,40.0
86045,36.14775,-111.13344,Tuba City,AZ,Arizona,True,,12149.0,6.5,4005,Coconino,"{""04005"": 100}",Coconino,04005,False,False,America/Denver,"(36.14775, -111.13344)",38.85024573311273,34795.0,476_0_yes,36.525917644034,-110.61687102323614,40.0
86053,36.75699,-111.05597,Kaibeto,AZ,Arizona,True,,2865.0,1.8,4005,Coconino,"{""04005"": 100}",Coconino,04005,False,False,America/Denver,"(36.75699, -111.05597)",29.111867524245007,34795.0,476_0_yes,36.525917644034,-110.61687102323614,40.0
86054,36.67546,-110.61259,Shonto,AZ,Arizona,True,,1422.0,1.3,4017,Navajo,"{""04017"": 94.09, ""04005"": 5.91}",Navajo|Coconino,04017|04005,False,False,America/Denver,"(36.67546, -110.61259)",10.335121041056238,34795.0,476_0_yes,36.525917644034,-110.61687102323614,40.0
86510,36.23061,-110.27182,Pinon,AZ,Arizona,True,,4126.0,2.3,4017,Navajo,"{""04017"": 100}",Navajo,04017,False,False,America/Denver,"(36.23061, -110.27182)",28.01334297883169,34795.0,476_0_yes,36.525917644034,-110.61687102323614,40.0
86520,36.05891,-109.95208,Blue Gap,AZ,Arizona,True,,1556.0,2.1,4001,Apache,"{""04001"": 78.06, ""04017"": 21.94}",Apache|Navajo,04001|04017,False,False,America/Denver,"(36.05891, -109.95208)",49.10983809339814,34795.0,476_0_yes,36.525917644034,-110.61687102323614,40.0
