zip,lat,lng,city,state_id,state_name,zcta,parent_zcta,population,density,county_fips,county_name,county_weights,county_names_all,county_fips_all,imprecise,military,timezone,Coord,distance_miles,market_total_population,market_id,market_center_lat,market_center_lng,radius_miles
84737,37.08321,-113.26032,Hurricane,UT,Utah,True,,19316.0,29.8,49053,Washington,"{""49053"": 100}",Washington,49053,False,False,America/Denver,"(37.08321, -113.26032)",39.451209182346126,98947.0,478_0_yes,36.54324982579724,-113.49221080754344,40.0
84784,37.01858,-112.96941,Hildale,UT,Utah,True,,2921.0,266.5,49053,Washington,"{""49053"": 100}",Washington,49053,False,False,America/Denver,"(37.01858, -112.96941)",43.76773324888225,98947.0,478_0_yes,36.54324982579724,-113.49221080754344,40.0
84790,37.04615,-113.55738,Saint George,UT,Utah,True,,47849.0,382.2,49053,Washington,"{""49053"": 100}",Washington,49053,False,False,America/Denver,"(37.04615, -113.55738)",34.93367516616909,98947.0,478_0_yes,36.54324982579724,-113.49221080754344,40.0
86021,36.92707,-113.10205,Colorado City,AZ,Arizona,True,,5959.0,13.3,4015,Mohave,"{""04015"": 100}",Mohave,04015,False,False,America/Phoenix,"(36.92707, -113.10205)",34.20539654688122,98947.0,478_0_yes,36.54324982579724,-113.49221080754344,40.0
86432,36.79085,-113.73783,Littlefield,AZ,Arizona,True,,3815.0,1.4,4015,Mohave,"{""04015"": 100}",Mohave,04015,False,False,America/Phoenix,"(36.79085, -113.73783)",21.86246329233671,98947.0,478_0_yes,36.54324982579724,-113.49221080754344,40.0
89027,36.81374,-114.08857,Mesquite,NV,Nevada,True,,19087.0,589.9,32003,Clark,"{""32003"": 100}",Clark,32003,False,False,America/Los_Angeles,"(36.81374, -114.08857)",37.96460712061236,98947.0,478_0_yes,36.54324982579724,-113.49221080754344,40.0
