zip,lat,lng,city,state_id,state_name,zcta,parent_zcta,population,density,county_fips,county_name,county_weights,county_names_all,county_fips_all,imprecise,military,timezone,Coord,distance_miles,market_total_population,market_id,market_center_lat,market_center_lng,radius_miles
62233,37.93719,-89.78842,Chester,IL,Illinois,True,,9482.0,53.6,17157,Randolph,"{""17157"": 100}",Randolph,17157,False,False,America/Chicago,"(37.93719, -89.78842)",28.32751815356924,339227.0,503_0_yes,37.55613778836721,-89.97975692342122,40.0
62238,38.04499,-89.5319,Cutler,IL,Illinois,True,,661.0,5.1,17145,Perry,"{""17145"": 100}",Perry,17145,False,False,America/Chicago,"(38.04499, -89.5319)",41.69721739917467,339227.0,503_0_yes,37.55613778836721,-89.97975692342122,40.0
62241,38.01474,-89.88845,Ellis Grove,IL,Illinois,True,,855.0,8.6,17157,Randolph,"{""17157"": 100}",Randolph,17157,False,False,America/Chicago,"(38.01474, -89.88845)",32.07625029340553,339227.0,503_0_yes,37.55613778836721,-89.97975692342122,40.0
62242,38.09257,-89.94339,Evansville,IL,Illinois,True,,1292.0,10.0,17157,Randolph,"{""17157"": 100}",Randolph,17157,False,False,America/Chicago,"(38.09257, -89.94339)",37.11703905438763,339227.0,503_0_yes,37.55613778836721,-89.97975692342122,40.0
62261,38.01218,-89.99774,Modoc,IL,Illinois,True,,47.0,0.7,17157,Randolph,"{""17157"": 100}",Randolph,17157,False,False,America/Chicago,"(38.01218, -89.99774)",31.524813390626647,339227.0,503_0_yes,37.55613778836721,-89.97975692342122,40.0
62272,38.00241,-89.61562,Percy,IL,Illinois,True,,1947.0,23.4,17157,Randolph,"{""17157"": 81.89, ""17145"": 16.97, ""17077"": 1.14}",Randolph|Perry|Jackson,17157|17145|17077,False,False,America/Chicago,"(38.00241, -89.61562)",36.69046072285303,339227.0,503_0_yes,37.55613778836721,-89.97975692342122,40.0
62274,38.09312,-89.40064,Pinckneyville,IL,Illinois,True,,8237.0,22.3,17145,Perry,"{""17145"": 99.08, ""17077"": 0.92}",Perry|Jackson,17145|17077,False,False,America/Chicago,"(38.09312, -89.40064)",48.73882496110651,339227.0,503_0_yes,37.55613778836721,-89.97975692342122,40.0
62277,38.09844,-90.11081,Prairie Du Rocher,IL,Illinois,True,,1081.0,6.4,17157,Randolph,"{""17157"": 62.0, ""17133"": 38.0}",Randolph|Monroe,17157|17133,False,False,America/Chicago,"(38.09844, -90.11081)",38.14598828262299,339227.0,503_0_yes,37.55613778836721,-89.97975692342122,40.0
62280,37.83179,-89.65952,Rockwood,IL,Illinois,True,,572.0,4.2,17077,Jackson,"{""17077"": 55.28, ""17157"": 44.72}",Jackson|Randolph,17077|17157,False,False,America/Chicago,"(37.83179, -89.65952)",25.870397528620156,339227.0,503_0_yes,37.55613778836721,-89.97975692342122,40.0
62286,38.11756,-89.7154,Sparta,IL,Illinois,True,,6066.0,23.4,17157,Randolph,"{""17157"": 100}",Randolph,17157,False,False,America/Chicago,"(38.11756, -89.7154)",41.3858873181639,339227.0,503_0_yes,37.55613778836721,-89.97975692342122,40.0
62288,37.99267,-89.69106,Steeleville,IL,Illinois,True,,2774.0,29.1,17157,Randolph,"{""17157"": 100}",Randolph,17157,False,False,America/Chicago,"(37.99267, -89.69106)",34.033841896111646,339227.0,503_0_yes,37.55613778836721,-89.97975692342122,40.0
62297,38.04938,-89.81239,Walsh,IL,Illinois,True,,402.0,6.9,17157,Randolph,"{""17157"": 100}",Randolph,17157,False,False,America/Chicago,"(38.04938, -89.81239)",35.283352552461835,339227.0,503_0_yes,37.55613778836721,-89.97975692342122,40.0
62903,37.67162,-89.27568,Carbondale,IL,Illinois,True,,3167.0,60.4,17077,Jackson,"{""17077"": 100}",Jackson,17077,False,False,America/Chicago,"(37.67162, -89.27568)",39.35267704377836,339227.0,503_0_yes,37.55613778836721,-89.97975692342122,40.0
62905,37.57381,-89.35867,Alto Pass,IL,Illinois,True,,583.0,6.8,17181,Union,"{""17181"": 81.39, ""17077"": 18.61}",Union|Jackson,17181|17077,False,False,America/Chicago,"(37.57381, -89.35867)",34.03738653261319,339227.0,503_0_yes,37.55613778836721,-89.97975692342122,40.0
62907,37.86503,-89.50009,Ava,IL,Illinois,True,,1870.0,7.7,17077,Jackson,"{""17077"": 99.06, ""17157"": 0.94}",Jackson|Randolph,17077|17157,False,False,America/Chicago,"(37.86503, -89.50009)",33.80711134428188,339227.0,503_0_yes,37.55613778836721,-89.97975692342122,40.0
62916,37.93722,-89.56947,Campbell Hill,IL,Illinois,True,,744.0,6.2,17077,Jackson,"{""17077"": 47.42, ""17145"": 30.36, ""17157"": 22.23}",Jackson|Perry|Randolph,17077|17145|17157,False,False,America/Chicago,"(37.93722, -89.56947)",34.57940478374372,339227.0,503_0_yes,37.55613778836721,-89.97975692342122,40.0
62940,37.7292,-89.46279,Gorham,IL,Illinois,True,,714.0,9.8,17077,Jackson,"{""17077"": 100}",Jackson,17077,False,False,America/Chicago,"(37.7292, -89.46279)",30.70728264884953,339227.0,503_0_yes,37.55613778836721,-89.97975692342122,40.0
62942,37.6348,-89.47681,Grand Tower,IL,Illinois,True,,636.0,9.9,17077,Jackson,"{""17077"": 100}",Jackson,17077,False,False,America/Chicago,"(37.6348, -89.47681)",28.065254984714155,339227.0,503_0_yes,37.55613778836721,-89.97975692342122,40.0
62950,37.75184,-89.55573,Jacob,IL,Illinois,True,,131.0,1.6,17077,Jackson,"{""17077"": 100}",Jackson,17077,False,False,America/Chicago,"(37.75184, -89.55573)",26.84871556657571,339227.0,503_0_yes,37.55613778836721,-89.97975692342122,40.0
62952,37.42065,-89.33187,Jonesboro,IL,Illinois,True,,3006.0,12.4,17181,Union,"{""17181"": 97.6, ""17003"": 2.4}",Union|Alexander,17181|17003,False,False,America/Chicago,"(37.42065, -89.33187)",36.73256144171758,339227.0,503_0_yes,37.55613778836721,-89.97975692342122,40.0
62957,37.31355,-89.42669,McClure,IL,Illinois,True,,710.0,5.9,17003,Alexander,"{""17003"": 77.18, ""17181"": 22.82}",Alexander|Union,17003|17181,False,False,America/Chicago,"(37.31355, -89.42669)",34.6645935242135,339227.0,503_0_yes,37.55613778836721,-89.97975692342122,40.0
62961,37.34063,-89.25378,Millcreek,IL,Illinois,True,,28.0,31.5,17181,Union,"{""17181"": 99.86, ""17003"": 0.14}",Union|Alexander,17181|17003,False,False,America/Chicago,"(37.34063, -89.25378)",42.51491361618699,339227.0,503_0_yes,37.55613778836721,-89.97975692342122,40.0
62966,37.7693,-89.35198,Murphysboro,IL,Illinois,True,,14881.0,51.8,17077,Jackson,"{""17077"": 100}",Jackson,17077,False,False,America/Chicago,"(37.7693, -89.35198)",37.362052211869205,339227.0,503_0_yes,37.55613778836721,-89.97975692342122,40.0
62969,37.15181,-89.34674,Olive Branch,IL,Illinois,True,,404.0,10.9,17003,Alexander,"{""17003"": 100}",Alexander,17003,False,False,America/Chicago,"(37.15181, -89.34674)",44.599995747659314,339227.0,503_0_yes,37.55613778836721,-89.97975692342122,40.0
62975,37.64307,-89.37274,Pomona,IL,Illinois,True,,131.0,1.9,17077,Jackson,"{""17077"": 100}",Jackson,17077,False,False,America/Chicago,"(37.64307, -89.37274)",33.76792023815533,339227.0,503_0_yes,37.55613778836721,-89.97975692342122,40.0
62988,37.23184,-89.29629,Tamms,IL,Illinois,True,,1472.0,8.1,17003,Alexander,"{""17003"": 100}",Alexander,17003,False,False,America/Chicago,"(37.23184, -89.29629)",43.699292664898856,339227.0,503_0_yes,37.55613778836721,-89.97975692342122,40.0
62990,37.22924,-89.40493,Thebes,IL,Illinois,True,,1231.0,10.8,17003,Alexander,"{""17003"": 100}",Alexander,17003,False,False,America/Chicago,"(37.22924, -89.40493)",38.805087426149605,339227.0,503_0_yes,37.55613778836721,-89.97975692342122,40.0
62994,37.90593,-89.34664,Vergennes,IL,Illinois,True,,744.0,7.7,17077,Jackson,"{""17077"": 100}",Jackson,17077,False,False,America/Chicago,"(37.90593, -89.34664)",42.20240599397709,339227.0,503_0_yes,37.55613778836721,-89.97975692342122,40.0
62997,37.98357,-89.59013,Willisville,IL,Illinois,True,,588.0,481.6,17145,Perry,"{""17145"": 100}",Perry,17145,False,False,America/Chicago,"(37.98357, -89.59013)",36.400859707565935,339227.0,503_0_yes,37.55613778836721,-89.97975692342122,40.0
62998,37.51649,-89.44698,Wolf Lake,IL,Illinois,True,,232.0,1.9,17181,Union,"{""17181"": 100}",Union,17181,False,False,America/Chicago,"(37.51649, -89.44698)",29.31844120833864,339227.0,503_0_yes,37.55613778836721,-89.97975692342122,40.0
63020,38.10706,-90.5718,De Soto,MO,Missouri,True,,21160.0,54.6,29099,Jefferson,"{""29099"": 93.57, ""29221"": 6.43}",Jefferson|Washington,29099|29221,False,False,America/Chicago,"(38.10706, -90.5718)",49.92757701724143,339227.0,503_0_yes,37.55613778836721,-89.97975692342122,40.0
63036,37.9817,-90.372,French Village,MO,Missouri,True,,1226.0,19.3,29187,St. Francois,"{""29187"": 75.19, ""29186"": 24.81}",St. Francois|Ste. Genevieve,29187|29186,False,False,America/Chicago,"(37.9817, -90.372)",36.380228007045716,339227.0,503_0_yes,37.55613778836721,-89.97975692342122,40.0
63087,38.00888,-90.45835,Valles Mines,MO,Missouri,True,,1005.0,23.8,29187,St. Francois,"{""29187"": 91.17, ""29099"": 8.83}",St. Francois|Jefferson,29187|29099,False,False,America/Chicago,"(38.00888, -90.45835)",40.762064974649334,339227.0,503_0_yes,37.55613778836721,-89.97975692342122,40.0
63601,37.8212,-90.5439,Park Hills,MO,Missouri,True,,16051.0,103.8,29187,St. Francois,"{""29187"": 100}",St. Francois,29187,False,False,America/Chicago,"(37.8212, -90.5439)",35.872559433471785,339227.0,503_0_yes,37.55613778836721,-89.97975692342122,40.0
63620,37.40101,-90.6521,Annapolis,MO,Missouri,True,,1319.0,2.7,29093,Iron,"{""29093"": 68.37, ""29123"": 20.91, ""29179"": 10.72}",Iron|Madison|Reynolds,29093|29123|29179,False,False,America/Chicago,"(37.40101, -90.6521)",38.39181099511036,339227.0,503_0_yes,37.55613778836721,-89.97975692342122,40.0
63621,37.48225,-90.57916,Arcadia,MO,Missouri,True,,1445.0,7.3,29093,Iron,"{""29093"": 68.87, ""29123"": 31.13}",Iron|Madison,29093|29123,False,False,America/Chicago,"(37.48225, -90.57916)",33.24241477054825,339227.0,503_0_yes,37.55613778836721,-89.97975692342122,40.0
63624,37.7531,-90.63923,Bismarck,MO,Missouri,True,,3801.0,24.1,29187,St. Francois,"{""29187"": 54.83, ""29221"": 28.95, ""29093"": 16.22}",St. Francois|Washington|Iron,29187|29221|29093,False,False,America/Chicago,"(37.7531, -90.63923)",38.55579717084315,339227.0,503_0_yes,37.55613778836721,-89.97975692342122,40.0
63627,38.03625,-90.25317,Bloomsdale,MO,Missouri,True,,3504.0,18.5,29186,Ste. Genevieve,"{""29186"": 94.4, ""29099"": 5.6}",Ste. Genevieve|Jefferson,29186|29099,False,False,America/Chicago,"(38.03625, -90.25317)",36.376518543650235,339227.0,503_0_yes,37.55613778836721,-89.97975692342122,40.0
63628,37.9392,-90.52466,Bonne Terre,MO,Missouri,True,,15011.0,48.2,29187,St. Francois,"{""29187"": 84.03, ""29186"": 7.71, ""29221"": 6.3, ""29099"": 1.96}",St. Francois|Ste. Genevieve|Washington|Jefferson,29187|29186|29221|29099,False,False,America/Chicago,"(37.9392, -90.52466)",39.8338338304089,339227.0,503_0_yes,37.55613778836721,-89.97975692342122,40.0
63636,37.29542,-90.57549,Des Arc,MO,Missouri,True,,594.0,5.2,29093,Iron,"{""29093"": 45.93, ""29223"": 30.55, ""29123"": 23.52}",Iron|Wayne|Madison,29093|29223|29123,False,False,America/Chicago,"(37.29542, -90.57549)",37.32272677056247,339227.0,503_0_yes,37.55613778836721,-89.97975692342122,40.0
63637,37.70511,-90.51875,Doe Run,MO,Missouri,True,,1177.0,22.9,29187,St. Francois,"{""29187"": 100}",St. Francois,29187,False,False,America/Chicago,"(37.70511, -90.51875)",31.23785080507606,339227.0,503_0_yes,37.55613778836721,-89.97975692342122,40.0
63640,37.75446,-90.36525,Farmington,MO,Missouri,True,,28762.0,53.1,29187,St. Francois,"{""29187"": 66.07, ""29186"": 33.93}",St. Francois|Ste. Genevieve,29187|29186,False,False,America/Chicago,"(37.75446, -90.36525)",25.148040778577162,339227.0,503_0_yes,37.55613778836721,-89.97975692342122,40.0
63645,37.54204,-90.32428,Fredericktown,MO,Missouri,True,,11424.0,12.3,29123,Madison,"{""29123"": 87.48, ""29187"": 8.26, ""29186"": 4.26}",Madison|St. Francois|Ste. Genevieve,29123|29187|29186,False,False,America/Chicago,"(37.54204, -90.32428)",18.89788987904096,339227.0,503_0_yes,37.55613778836721,-89.97975692342122,40.0
63648,37.8187,-90.69878,Irondale,MO,Missouri,True,,1411.0,17.4,29221,Washington,"{""29221"": 92.61, ""29187"": 7.39}",Washington|St. Francois,29221|29187,False,False,America/Chicago,"(37.8187, -90.69878)",43.298033934685165,339227.0,503_0_yes,37.55613778836721,-89.97975692342122,40.0
63650,37.6103,-90.62994,Ironton,MO,Missouri,True,,4065.0,14.0,29093,Iron,"{""29093"": 75.28, ""29187"": 21.62, ""29123"": 3.1}",Iron|St. Francois|Madison,29093|29187|29123,False,False,America/Chicago,"(37.6103, -90.62994)",35.796423696368684,339227.0,503_0_yes,37.55613778836721,-89.97975692342122,40.0
63653,37.86139,-90.58789,Leadwood,MO,Missouri,True,,1472.0,522.2,29187,St. Francois,"{""29187"": 100}",St. Francois,29187,False,False,America/Chicago,"(37.86139, -90.58789)",39.36782870592762,339227.0,503_0_yes,37.55613778836721,-89.97975692342122,40.0
63655,37.39312,-90.20552,Marquand,MO,Missouri,True,,1435.0,3.6,29123,Madison,"{""29123"": 65.74, ""29017"": 22.25, ""29223"": 12.01}",Madison|Bollinger|Wayne,29123|29017|29223,False,False,America/Chicago,"(37.39312, -90.20552)",16.73671311417897,339227.0,503_0_yes,37.55613778836721,-89.97975692342122,40.0
63660,37.91241,-90.70241,Mineral Point,MO,Missouri,True,,3912.0,43.0,29221,Washington,"{""29221"": 100}",Washington,29221,False,False,America/Chicago,"(37.91241, -90.70241)",46.53201847865095,339227.0,503_0_yes,37.55613778836721,-89.97975692342122,40.0
63662,37.53782,-90.05321,Patton,MO,Missouri,True,,1751.0,11.3,29017,Bollinger,"{""29017"": 100}",Bollinger,29017,False,False,America/Chicago,"(37.53782, -90.05321)",4.2181826809040786,339227.0,503_0_yes,37.55613778836721,-89.97975692342122,40.0
63663,37.62446,-90.64638,Pilot Knob,MO,Missouri,True,,789.0,388.2,29093,Iron,"{""29093"": 100}",Iron,29093,False,False,America/Chicago,"(37.62446, -90.64638)",36.800978102520176,339227.0,503_0_yes,37.55613778836721,-89.97975692342122,40.0
63670,37.89667,-90.16245,Sainte Genevieve,MO,Missouri,True,,11540.0,17.7,29186,Ste. Genevieve,"{""29186"": 100}",Ste. Genevieve,29186,False,False,America/Chicago,"(37.89667, -90.16245)",25.55916132991322,339227.0,503_0_yes,37.55613778836721,-89.97975692342122,40.0
63673,37.83641,-89.98861,Saint Mary,MO,Missouri,True,,1688.0,5.7,29186,Ste. Genevieve,"{""29186"": 48.82, ""29157"": 29.54, ""17157"": 21.64}",Ste. Genevieve|Perry|Randolph,29186|29157|17157,False,False,America/Chicago,"(37.83641, -89.98861)",19.371013001958136,339227.0,503_0_yes,37.55613778836721,-89.97975692342122,40.0
63675,37.30112,-90.697,Vulcan,MO,Missouri,True,,87.0,2.2,29093,Iron,"{""29093"": 100}",Iron,29093,False,False,America/Chicago,"(37.30112, -90.697)",43.11793325099646,339227.0,503_0_yes,37.55613778836721,-89.97975692342122,40.0
63701,37.33522,-89.58043,Cape Girardeau,MO,Missouri,True,,38310.0,111.5,29031,Cape Girardeau,"{""29031"": 100}",Cape Girardeau,29031,False,False,America/Chicago,"(37.33522, -89.58043)",26.698779406791907,339227.0,503_0_yes,37.55613778836721,-89.97975692342122,40.0
63703,37.27373,-89.53981,Cape Girardeau,MO,Missouri,True,,8476.0,253.3,29031,Cape Girardeau,"{""29031"": 100}",Cape Girardeau,29031,False,False,America/Chicago,"(37.27373, -89.53981)",31.04248259177099,339227.0,503_0_yes,37.55613778836721,-89.97975692342122,40.0
63730,37.09496,-89.91841,Advance,MO,Missouri,True,,3543.0,12.1,29207,Stoddard,"{""29207"": 54.56, ""29017"": 33.9, ""29031"": 11.54}",Stoddard|Bollinger|Cape Girardeau,29207|29017|29031,False,False,America/Chicago,"(37.09496, -89.91841)",32.04212236664145,339227.0,503_0_yes,37.55613778836721,-89.97975692342122,40.0
63732,37.59428,-89.59123,Altenburg,MO,Missouri,True,,1048.0,12.0,29157,Perry,"{""29157"": 62.29, ""29031"": 37.71}",Perry|Cape Girardeau,29157|29031,False,False,America/Chicago,"(37.59428, -89.59123)",21.438406793870357,339227.0,503_0_yes,37.55613778836721,-89.97975692342122,40.0
63735,36.98015,-89.78139,Bell City,MO,Missouri,True,,748.0,5.1,29207,Stoddard,"{""29207"": 89.44, ""29201"": 10.56}",Stoddard|Scott,29207|29201,False,False,America/Chicago,"(36.98015, -89.78139)",41.26455995203961,339227.0,503_0_yes,37.55613778836721,-89.97975692342122,40.0
63736,37.08033,-89.52072,Benton,MO,Missouri,True,,3793.0,24.1,29201,Scott,"{""29201"": 100}",Scott,29201,False,False,America/Chicago,"(37.08033, -89.52072)",41.436573739133436,339227.0,503_0_yes,37.55613778836721,-89.97975692342122,40.0
63739,37.35686,-89.80216,Burfordville,MO,Missouri,True,,555.0,14.7,29031,Cape Girardeau,"{""29031"": 100}",Cape Girardeau,29031,False,False,America/Chicago,"(37.35686, -89.80216)",16.8659708031722,339227.0,503_0_yes,37.55613778836721,-89.97975692342122,40.0
63740,37.17564,-89.68557,Chaffee,MO,Missouri,True,,5561.0,24.4,29201,Scott,"{""29201"": 50.36, ""29031"": 49.64}",Scott|Cape Girardeau,29201|29031,False,False,America/Chicago,"(37.17564, -89.68557)",30.856718915184665,339227.0,503_0_yes,37.55613778836721,-89.97975692342122,40.0
63742,37.1583,-89.44672,Commerce,MO,Missouri,True,,79.0,88.2,29201,Scott,"{""29201"": 100}",Scott,29201,False,False,America/Chicago,"(37.1583, -89.44672)",40.15683154266452,339227.0,503_0_yes,37.55613778836721,-89.97975692342122,40.0
63743,37.51886,-89.83261,Daisy,MO,Missouri,True,,59.0,5.7,29031,Cape Girardeau,"{""29031"": 100}",Cape Girardeau,29031,False,False,America/Chicago,"(37.51886, -89.83261)",8.463323526695264,339227.0,503_0_yes,37.55613778836721,-89.97975692342122,40.0
63745,37.25596,-89.65946,Dutchtown,MO,Missouri,True,,8.0,9.5,29031,Cape Girardeau,"{""29031"": 100}",Cape Girardeau,29031,False,False,America/Chicago,"(37.25596, -89.65946)",27.188049800581382,339227.0,503_0_yes,37.55613778836721,-89.97975692342122,40.0
63746,37.70783,-89.69484,Farrar,MO,Missouri,True,,38.0,11.6,29157,Perry,"{""29157"": 100}",Perry,29157,False,False,America/Chicago,"(37.70783, -89.69484)",18.78574423990412,339227.0,503_0_yes,37.55613778836721,-89.97975692342122,40.0
63747,37.55993,-89.81121,Friedheim,MO,Missouri,True,,537.0,10.6,29031,Cape Girardeau,"{""29031"": 100}",Cape Girardeau,29031,False,False,America/Chicago,"(37.55993, -89.81121)",9.235513899197178,339227.0,503_0_yes,37.55613778836721,-89.97975692342122,40.0
63748,37.66912,-89.61282,Frohna,MO,Missouri,True,,1180.0,6.1,29157,Perry,"{""29157"": 100}",Perry,29157,False,False,America/Chicago,"(37.66912, -89.61282)",21.54722431823217,339227.0,503_0_yes,37.55613778836721,-89.97975692342122,40.0
63750,37.1508,-90.16917,Gipsy,MO,Missouri,True,,20.0,0.9,29017,Bollinger,"{""29017"": 100}",Bollinger,29017,False,False,America/Chicago,"(37.1508, -90.16917)",29.87589729289946,339227.0,503_0_yes,37.55613778836721,-89.97975692342122,40.0
63751,37.2742,-90.12404,Glenallen,MO,Missouri,True,,1416.0,5.0,29017,Bollinger,"{""29017"": 100}",Bollinger,29017,False,False,America/Chicago,"(37.2742, -90.12404)",21.02772823908408,339227.0,503_0_yes,37.55613778836721,-89.97975692342122,40.0
63755,37.44351,-89.64193,Jackson,MO,Missouri,True,,25051.0,54.6,29031,Cape Girardeau,"{""29031"": 100}",Cape Girardeau,29031,False,False,America/Chicago,"(37.44351, -89.64193)",20.086807587822896,339227.0,503_0_yes,37.55613778836721,-89.97975692342122,40.0
63758,37.19212,-89.55064,Kelso,MO,Missouri,True,,268.0,562.1,29201,Scott,"{""29201"": 100}",Scott,29201,False,False,America/Chicago,"(37.19212, -89.55064)",34.46359386691134,339227.0,503_0_yes,37.55613778836721,-89.97975692342122,40.0
63760,37.25084,-89.90374,Leopold,MO,Missouri,True,,668.0,7.2,29017,Bollinger,"{""29017"": 100}",Bollinger,29017,False,False,America/Chicago,"(37.25084, -89.90374)",21.50273363895646,339227.0,503_0_yes,37.55613778836721,-89.97975692342122,40.0
63763,37.05885,-90.18058,McGee,MO,Missouri,True,,207.0,4.0,29223,Wayne,"{""29223"": 100}",Wayne,29223,False,False,America/Chicago,"(37.05885, -90.18058)",36.08829974083813,339227.0,503_0_yes,37.55613778836721,-89.97975692342122,40.0
63764,37.32944,-89.9837,Marble Hill,MO,Missouri,True,,5297.0,11.9,29017,Bollinger,"{""29017"": 97.66, ""29031"": 2.34}",Bollinger|Cape Girardeau,29017|29031,False,False,America/Chicago,"(37.32944, -89.9837)",15.66481877633631,339227.0,503_0_yes,37.55613778836721,-89.97975692342122,40.0
63766,37.43558,-89.84424,Millersville,MO,Missouri,True,,1388.0,11.1,29031,Cape Girardeau,"{""29031"": 67.41, ""29017"": 32.59}",Cape Girardeau|Bollinger,29031|29017,False,False,America/Chicago,"(37.43558, -89.84424)",11.161196927929383,339227.0,503_0_yes,37.55613778836721,-89.97975692342122,40.0
63767,37.04356,-89.61038,Morley,MO,Missouri,True,,689.0,295.4,29201,Scott,"{""29201"": 100}",Scott,29201,False,False,America/Chicago,"(37.04356, -89.61038)",40.82190117065062,339227.0,503_0_yes,37.55613778836721,-89.97975692342122,40.0
63769,37.52312,-89.74203,Oak Ridge,MO,Missouri,True,,1403.0,10.5,29031,Cape Girardeau,"{""29031"": 100}",Cape Girardeau,29031,False,False,America/Chicago,"(37.52312, -89.74203)",13.222483222438408,339227.0,503_0_yes,37.55613778836721,-89.97975692342122,40.0
63770,37.59456,-89.70049,Old Appleton,MO,Missouri,True,,152.0,21.7,29157,Perry,"{""29157"": 53.57, ""29031"": 46.43}",Perry|Cape Girardeau,29157|29031,False,False,America/Chicago,"(37.59456, -89.70049)",15.521399350757495,339227.0,503_0_yes,37.55613778836721,-89.97975692342122,40.0
63771,37.07431,-89.71299,Oran,MO,Missouri,True,,2655.0,9.7,29201,Scott,"{""29201"": 73.28, ""29207"": 24.99, ""29031"": 1.73}",Scott|Stoddard|Cape Girardeau,29201|29207|29031,False,False,America/Chicago,"(37.07431, -89.71299)",36.37559653775525,339227.0,503_0_yes,37.55613778836721,-89.97975692342122,40.0
63774,37.09424,-89.77469,Perkins,MO,Missouri,True,,181.0,423.4,29201,Scott,"{""29201"": 100}",Scott,29201,False,False,America/Chicago,"(37.09424, -89.77469)",33.844577405253254,339227.0,503_0_yes,37.55613778836721,-89.97975692342122,40.0
63775,37.71051,-89.87919,Perryville,MO,Missouri,True,,16806.0,18.9,29157,Perry,"{""29157"": 97.6, ""29017"": 1.25, ""29031"": 1.15}",Perry|Bollinger|Cape Girardeau,29157|29017|29031,False,False,America/Chicago,"(37.71051, -89.87919)",12.001923684917635,339227.0,503_0_yes,37.55613778836721,-89.97975692342122,40.0
63780,37.17797,-89.50138,Scott City,MO,Missouri,True,,6324.0,39.0,29201,Scott,"{""29201"": 96.94, ""29031"": 3.06}",Scott|Cape Girardeau,29201|29031,False,False,America/Chicago,"(37.17797, -89.50138)",37.05099428219599,339227.0,503_0_yes,37.55613778836721,-89.97975692342122,40.0
63781,37.5329,-89.93078,Sedgewickville,MO,Missouri,True,,1141.0,7.2,29017,Bollinger,"{""29017"": 99.01, ""29157"": 0.99}",Bollinger|Perry,29017|29157,False,False,America/Chicago,"(37.5329, -89.93078)",3.126798392144607,339227.0,503_0_yes,37.55613778836721,-89.97975692342122,40.0
63782,37.11369,-90.02788,Sturdivant,MO,Missouri,True,,241.0,6.0,29017,Bollinger,"{""29017"": 100}",Bollinger,29017,False,False,America/Chicago,"(37.11369, -90.02788)",30.684329916467675,339227.0,503_0_yes,37.55613778836721,-89.97975692342122,40.0
63783,37.60958,-89.6823,Uniontown,MO,Missouri,True,,70.0,4.7,29157,Perry,"{""29157"": 100}",Perry,29157,False,False,America/Chicago,"(37.60958, -89.6823)",16.700454390086215,339227.0,503_0_yes,37.55613778836721,-89.97975692342122,40.0
63784,36.99497,-89.69601,Vanduser,MO,Missouri,True,,229.0,53.7,29201,Scott,"{""29201"": 100}",Scott,29201,False,False,America/Chicago,"(36.99497, -89.69601)",41.793676194757225,339227.0,503_0_yes,37.55613778836721,-89.97975692342122,40.0
63785,37.26336,-89.81554,Whitewater,MO,Missouri,True,,1015.0,7.9,29031,Cape Girardeau,"{""29031"": 97.42, ""29017"": 2.58}",Cape Girardeau|Bollinger,29031|29017,False,False,America/Chicago,"(37.26336, -89.81554)",22.145831407045144,339227.0,503_0_yes,37.55613778836721,-89.97975692342122,40.0
63787,37.12284,-90.12263,Zalma,MO,Missouri,True,,614.0,3.9,29017,Bollinger,"{""29017"": 95.29, ""29223"": 4.71}",Bollinger|Wayne,29017|29223,False,False,America/Chicago,"(37.12284, -90.12263)",30.949683825252304,339227.0,503_0_yes,37.55613778836721,-89.97975692342122,40.0
63824,37.00513,-89.52638,Blodgett,MO,Missouri,True,,105.0,340.9,29201,Scott,"{""29201"": 100}",Scott,29201,False,False,America/Chicago,"(37.00513, -89.52638)",45.50427186141094,339227.0,503_0_yes,37.55613778836721,-89.97975692342122,40.0
63934,37.20014,-90.37254,Clubb,MO,Missouri,True,,128.0,10.6,29223,Wayne,"{""29223"": 100}",Wayne,29223,False,False,America/Chicago,"(37.20014, -90.37254)",32.71225548366871,339227.0,503_0_yes,37.55613778836721,-89.97975692342122,40.0
63944,37.10876,-90.36286,Greenville,MO,Missouri,True,,1679.0,3.9,29223,Wayne,"{""29223"": 100}",Wayne,29223,False,False,America/Chicago,"(37.10876, -90.36286)",37.395874907036884,339227.0,503_0_yes,37.55613778836721,-89.97975692342122,40.0
63951,37.10875,-90.26055,Lowndes,MO,Missouri,True,,144.0,1.5,29223,Wayne,"{""29223"": 100}",Wayne,29223,False,False,America/Chicago,"(37.10875, -90.26055)",34.546936151577135,339227.0,503_0_yes,37.55613778836721,-89.97975692342122,40.0
63952,37.00828,-90.64916,Mill Spring,MO,Missouri,True,,404.0,3.0,29223,Wayne,"{""29223"": 100}",Wayne,29223,False,False,America/Chicago,"(37.00828, -90.64916)",52.793129771795286,339227.0,503_0_yes,37.55613778836721,-89.97975692342122,40.0
63956,37.21741,-90.51665,Patterson,MO,Missouri,True,,1102.0,6.1,29223,Wayne,"{""29223"": 100}",Wayne,29223,False,False,America/Chicago,"(37.21741, -90.51665)",37.63622127458478,339227.0,503_0_yes,37.55613778836721,-89.97975692342122,40.0
63957,37.14218,-90.68903,Piedmont,MO,Missouri,True,,6222.0,11.8,29223,Wayne,"{""29223"": 75.72, ""29179"": 24.28}",Wayne|Reynolds,29223|29179,False,False,America/Chicago,"(37.14218, -90.68903)",48.3293581092972,339227.0,503_0_yes,37.55613778836721,-89.97975692342122,40.0
63964,37.23954,-90.39662,Silva,MO,Missouri,True,,356.0,2.0,29223,Wayne,"{""29223"": 95.32, ""29123"": 4.68}",Wayne|Madison,29223|29123,False,False,America/Chicago,"(37.23954, -90.39662)",31.655637547740724,339227.0,503_0_yes,37.55613778836721,-89.97975692342122,40.0
