zip,lat,lng,city,state_id,state_name,zcta,parent_zcta,population,density,county_fips,county_name,county_weights,county_names_all,county_fips_all,imprecise,military,timezone,Coord,distance_miles,market_total_population,market_id,market_center_lat,market_center_lng,radius_miles
84714,37.84815,-113.75547,Beryl,UT,Utah,True,,631.0,0.6,49021,Iron,"{""49021"": 100}",Iron,49021,False,False,America/Denver,"(37.84815, -113.75547)",26.119405378665263,157073.0,519_0_yes,37.70037281886744,-113.31526668534232,40.0
84719,37.65532,-112.76974,Brian Head,UT,Utah,True,,43.0,0.2,49021,Iron,"{""49021"": 100}",Iron,49021,False,False,America/Denver,"(37.65532, -112.76974)",29.993871546079117,157073.0,519_0_yes,37.70037281886744,-113.31526668534232,40.0
84720,37.55477,-113.25665,Cedar City,UT,Utah,True,,22132.0,25.0,49021,Iron,"{""49021"": 69.02, ""49053"": 30.98}",Iron|Washington,49021|49053,False,False,America/Denver,"(37.55477, -113.25665)",10.559179409998679,157073.0,519_0_yes,37.70037281886744,-113.31526668534232,40.0
84721,37.77021,-113.13308,Cedar City,UT,Utah,True,,25286.0,52.2,49021,Iron,"{""49021"": 100}",Iron,49021,False,False,America/Denver,"(37.77021, -113.13308)",11.062882643541114,157073.0,519_0_yes,37.70037281886744,-113.31526668534232,40.0
84722,37.48553,-113.57582,Central,UT,Utah,True,,940.0,3.6,49053,Washington,"{""49053"": 100}",Washington,49053,False,False,America/Denver,"(37.48553, -113.57582)",20.58708126033122,157073.0,519_0_yes,37.70037281886744,-113.31526668534232,40.0
84725,37.53928,-113.78042,Enterprise,UT,Utah,True,,1602.0,4.1,49053,Washington,"{""49053"": 100}",Washington,49053,False,False,America/Denver,"(37.53928, -113.78042)",27.78353449612176,157073.0,519_0_yes,37.70037281886744,-113.31526668534232,40.0
84729,37.35858,-112.61527,Glendale,UT,Utah,True,,427.0,2.1,49025,Kane,"{""49025"": 100}",Kane,49025,False,False,America/Denver,"(37.35858, -112.61527)",45.0424759915882,157073.0,519_0_yes,37.70037281886744,-113.31526668534232,40.0
84731,38.19714,-112.76195,Greenville,UT,Utah,True,,78.0,0.3,49001,Beaver,"{""49001"": 100}",Beaver,49001,False,False,America/Denver,"(38.19714, -112.76195)",45.68283883864993,157073.0,519_0_yes,37.70037281886744,-113.31526668534232,40.0
84733,37.29597,-113.79775,Gunlock,UT,Utah,True,,160.0,1.0,49053,Washington,"{""49053"": 100}",Washington,49053,False,False,America/Denver,"(37.29597, -113.79775)",38.47375381897256,157073.0,519_0_yes,37.70037281886744,-113.31526668534232,40.0
84738,37.20987,-113.70888,Ivins,UT,Utah,True,,9493.0,77.2,49053,Washington,"{""49053"": 100}",Washington,49053,False,False,America/Denver,"(37.20987, -113.70888)",40.18266453546926,157073.0,519_0_yes,37.70037281886744,-113.31526668534232,40.0
84742,37.52102,-113.14592,Kanarraville,UT,Utah,True,,308.0,2.1,49021,Iron,"{""49021"": 100}",Iron,49021,False,False,America/Denver,"(37.52102, -113.14592)",15.475111476277629,157073.0,519_0_yes,37.70037281886744,-113.31526668534232,40.0
84745,37.20838,-113.26266,La Verkin,UT,Utah,True,,4413.0,340.7,49053,Washington,"{""49053"": 100}",Washington,49053,False,False,America/Denver,"(37.20838, -113.26266)",34.115703868018734,157073.0,519_0_yes,37.70037281886744,-113.31526668534232,40.0
84746,37.23867,-113.35055,Leeds,UT,Utah,True,,961.0,19.3,49053,Washington,"{""49053"": 100}",Washington,49053,False,False,America/Denver,"(37.23867, -113.35055)",31.959248929594196,157073.0,519_0_yes,37.70037281886744,-113.31526668534232,40.0
84752,38.24975,-112.88434,Minersville,UT,Utah,True,,826.0,6.4,49001,Beaver,"{""49001"": 100}",Beaver,49001,False,False,America/Denver,"(38.24975, -112.88434)",44.628256346991286,157073.0,519_0_yes,37.70037281886744,-113.31526668534232,40.0
84753,37.95019,-113.87967,Modena,UT,Utah,True,,5.0,0.0,49021,Iron,"{""49021"": 100}",Iron,49021,False,False,America/Denver,"(37.95019, -113.87967)",35.30915371098495,157073.0,519_0_yes,37.70037281886744,-113.31526668534232,40.0
84755,37.22652,-112.78532,Mount Carmel,UT,Utah,True,,47.0,0.3,49025,Kane,"{""49025"": 100}",Kane,49025,False,False,America/Denver,"(37.22652, -112.78532)",43.778838120657426,157073.0,519_0_yes,37.70037281886744,-113.31526668534232,40.0
84756,37.74249,-113.54772,Newcastle,UT,Utah,True,,326.0,1.8,49021,Iron,"{""49021"": 100}",Iron,49021,False,False,America/Denver,"(37.74249, -113.54772)",13.033182413053863,157073.0,519_0_yes,37.70037281886744,-113.31526668534232,40.0
84757,37.45227,-113.25166,New Harmony,UT,Utah,True,,1373.0,9.9,49053,Washington,"{""49053"": 96.69, ""49021"": 3.31}",Washington|Iron,49053|49021,False,False,America/Denver,"(37.45227, -113.25166)",17.492546383106653,157073.0,519_0_yes,37.70037281886744,-113.31526668534232,40.0
84758,37.27041,-112.68529,Orderville,UT,Utah,True,,461.0,1.3,49025,Kane,"{""49025"": 100}",Kane,49025,False,False,America/Denver,"(37.27041, -112.68529)",45.55744336468931,157073.0,519_0_yes,37.70037281886744,-113.31526668534232,40.0
84760,37.96299,-112.68551,Paragonah,UT,Utah,True,,525.0,0.6,49021,Iron,"{""49021"": 100}",Iron,49021,False,False,America/Denver,"(37.96299, -112.68551)",38.86247356889691,157073.0,519_0_yes,37.70037281886744,-113.31526668534232,40.0
84761,37.84603,-112.87124,Parowan,UT,Utah,True,,3556.0,10.8,49021,Iron,"{""49021"": 100}",Iron,49021,False,False,America/Denver,"(37.84603, -112.87124)",26.255550642172434,157073.0,519_0_yes,37.70037281886744,-113.31526668534232,40.0
84762,37.46882,-112.72644,Duck Creek Village,UT,Utah,True,,75.0,0.2,49025,Kane,"{""49025"": 90.73, ""49017"": 9.27}",Kane|Garfield,49025|49017,False,False,America/Denver,"(37.46882, -112.72644)",35.991463924099044,157073.0,519_0_yes,37.70037281886744,-113.31526668534232,40.0
84763,37.14667,-113.06947,Rockville,UT,Utah,True,,221.0,5.9,49053,Washington,"{""49053"": 100}",Washington,49053,False,False,America/Denver,"(37.14667, -113.06947)",40.564972393584966,157073.0,519_0_yes,37.70037281886744,-113.31526668534232,40.0
84765,37.31012,-113.92535,Santa Clara,UT,Utah,True,,7234.0,58.1,49053,Washington,"{""49053"": 100}",Washington,49053,False,False,America/Denver,"(37.31012, -113.92535)",42.95634484375558,157073.0,519_0_yes,37.70037281886744,-113.31526668534232,40.0
84767,37.20152,-112.9858,Springdale,UT,Utah,True,,647.0,1.1,49053,Washington,"{""49053"": 100}",Washington,49053,False,False,America/Denver,"(37.20152, -112.9858)",38.917689351995854,157073.0,519_0_yes,37.70037281886744,-113.31526668534232,40.0
84770,37.13818,-113.6294,Saint George,UT,Utah,True,,43594.0,233.6,49053,Washington,"{""49053"": 100}",Washington,49053,False,False,America/Denver,"(37.13818, -113.6294)",42.49686432821913,157073.0,519_0_yes,37.70037281886744,-113.31526668534232,40.0
84772,37.79706,-112.94168,Summit,UT,Utah,True,,252.0,66.5,49021,Iron,"{""49021"": 100}",Iron,49021,False,False,America/Denver,"(37.79706, -112.94168)",21.475404425927604,157073.0,519_0_yes,37.70037281886744,-113.31526668534232,40.0
84774,37.24324,-113.28089,Toquerville,UT,Utah,True,,1681.0,25.6,49053,Washington,"{""49053"": 100}",Washington,49053,False,False,America/Denver,"(37.24324, -113.28089)",31.641072553348184,157073.0,519_0_yes,37.70037281886744,-113.31526668534232,40.0
84779,37.33381,-113.11869,Virgin,UT,Utah,True,,760.0,1.3,49053,Washington,"{""49053"": 100}",Washington,49053,False,False,America/Denver,"(37.33381, -113.11869)",27.523024733651816,157073.0,519_0_yes,37.70037281886744,-113.31526668534232,40.0
84780,37.12798,-113.48108,Washington,UT,Utah,True,,27518.0,172.0,49053,Washington,"{""49053"": 100}",Washington,49053,False,False,America/Denver,"(37.12798, -113.48108)",40.58189606494398,157073.0,519_0_yes,37.70037281886744,-113.31526668534232,40.0
84781,37.41197,-113.47217,Pine Valley,UT,Utah,True,,122.0,0.6,49053,Washington,"{""49053"": 100}",Washington,49053,False,False,America/Denver,"(37.41197, -113.47217)",21.701052304261022,157073.0,519_0_yes,37.70037281886744,-113.31526668534232,40.0
84782,37.35939,-113.67522,Veyo,UT,Utah,True,,638.0,11.8,49053,Washington,"{""49053"": 100}",Washington,49053,False,False,America/Denver,"(37.35939, -113.67522)",30.72549124870186,157073.0,519_0_yes,37.70037281886744,-113.31526668534232,40.0
84783,37.28556,-113.65639,Dammeron Valley,UT,Utah,True,,738.0,8.3,49053,Washington,"{""49053"": 100}",Washington,49053,False,False,America/Denver,"(37.28556, -113.65639)",34.22209104221719,157073.0,519_0_yes,37.70037281886744,-113.31526668534232,40.0
