zip,lat,lng,city,state_id,state_name,zcta,parent_zcta,population,density,county_fips,county_name,county_weights,county_names_all,county_fips_all,imprecise,military,timezone,Coord,distance_miles,market_total_population,market_id,market_center_lat,market_center_lng,radius_miles
19930,38.56311,-75.07085,Bethany Beach,DE,Delaware,True,,3077.0,202.8,10005,Sussex,"{""10005"": 100}",Sussex,10005,False,False,America/New_York,"(38.56311, -75.07085)",51.63224513431298,24123.0,532_0_no,38.038587467919584,-74.39259597943762,40.0
19944,38.47542,-75.05559,Fenwick Island,DE,Delaware,True,,746.0,231.8,10005,Sussex,"{""10005"": 100}",Sussex,10005,False,False,America/New_York,"(38.47542, -75.05559)",46.95571543554642,24123.0,532_0_no,38.038587467919584,-74.39259597943762,40.0
19967,38.53978,-75.1209,Millville,DE,Delaware,True,,1005.0,238.4,10005,Sussex,"{""10005"": 100}",Sussex,10005,False,False,America/New_York,"(38.53978, -75.1209)",52.527346706399264,24123.0,532_0_no,38.038587467919584,-74.39259597943762,40.0
19970,38.55504,-75.09901,Ocean View,DE,Delaware,True,,8770.0,363.1,10005,Sussex,"{""10005"": 100}",Sussex,10005,False,False,America/New_York,"(38.55504, -75.09901)",52.350594719281936,24123.0,532_0_no,38.038587467919584,-74.39259597943762,40.0
21842,38.3778,-75.09084,Ocean City,MD,Maryland,True,,10525.0,443.6,24047,Worcester,"{""24047"": 100}",Worcester,24047,False,False,America/New_York,"(38.3778, -75.09084)",44.56857246312321,24123.0,532_0_no,38.038587467919584,-74.39259597943762,40.0
