zip,lat,lng,city,state_id,state_name,zcta,parent_zcta,population,density,county_fips,county_name,county_weights,county_names_all,county_fips_all,imprecise,military,timezone,Coord,distance_miles,market_total_population,market_id,market_center_lat,market_center_lng,radius_miles
20001,38.91002,-77.018,Washington,DC,District of Columbia,True,,47697.0,8995.4,11001,District of Columbia,"{""11001"": 100}",District of Columbia,11001,False,False,America/New_York,"(38.91002, -77.018)",36.144075887892434,5808011.0,535_0_yes,38.63202792675797,-77.58638344618704,40.0
20002,38.90511,-76.98431,Washington,DC,District of Columbia,True,,69141.0,5197.0,11001,District of Columbia,"{""11001"": 100}",District of Columbia,11001,False,False,America/New_York,"(38.90511, -76.98431)",37.52301785400885,5808011.0,535_0_yes,38.63202792675797,-77.58638344618704,40.0
20003,38.88193,-76.99033,Washington,DC,District of Columbia,True,,33584.0,5705.7,11001,District of Columbia,"{""11001"": 100}",District of Columbia,11001,False,False,America/New_York,"(38.88193, -76.99033)",36.462423309273525,5808011.0,535_0_yes,38.63202792675797,-77.58638344618704,40.0
20004,38.89504,-77.02661,Washington,DC,District of Columbia,True,,1885.0,3751.9,11001,District of Columbia,"{""11001"": 100}",District of Columbia,11001,False,False,America/New_York,"(38.89504, -77.02661)",35.20951700975289,5808011.0,535_0_yes,38.63202792675797,-77.58638344618704,40.0
20005,38.90443,-77.0316,Washington,DC,District of Columbia,True,,13058.0,11630.4,11001,District of Columbia,"{""11001"": 100}",District of Columbia,11001,False,False,America/New_York,"(38.90443, -77.0316)",35.319269512269734,5808011.0,535_0_yes,38.63202792675797,-77.58638344618704,40.0
20006,38.89847,-77.04119,Washington,DC,District of Columbia,True,,2830.0,3097.7,11001,District of Columbia,"{""11001"": 100}",District of Columbia,11001,False,False,America/New_York,"(38.89847, -77.04119)",34.66379088654183,5808011.0,535_0_yes,38.63202792675797,-77.58638344618704,40.0
20007,38.91259,-77.07756,Washington,DC,District of Columbia,True,,26412.0,3300.4,11001,District of Columbia,"{""11001"": 100}",District of Columbia,11001,False,False,America/New_York,"(38.91259, -77.07756)",33.57145498455229,5808011.0,535_0_yes,38.63202792675797,-77.58638344618704,40.0
20008,38.93539,-77.05935,Washington,DC,District of Columbia,True,,30255.0,3781.4,11001,District of Columbia,"{""11001"": 100}",District of Columbia,11001,False,False,America/New_York,"(38.93539, -77.05935)",35.28564298957566,5808011.0,535_0_yes,38.63202792675797,-77.58638344618704,40.0
20009,38.91986,-77.03749,Washington,DC,District of Columbia,True,,53715.0,15734.8,11001,District of Columbia,"{""11001"": 100}",District of Columbia,11001,False,False,America/New_York,"(38.91986, -77.03749)",35.632335962195974,5808011.0,535_0_yes,38.63202792675797,-77.58638344618704,40.0
20010,38.93255,-77.03128,Washington,DC,District of Columbia,True,,35297.0,13697.1,11001,District of Columbia,"{""11001"": 100}",District of Columbia,11001,False,False,America/New_York,"(38.93255, -77.03128)",36.40107786559661,5808011.0,535_0_yes,38.63202792675797,-77.58638344618704,40.0
20011,38.95295,-77.02323,Washington,DC,District of Columbia,True,,69686.0,5016.9,11001,District of Columbia,"{""11001"": 100}",District of Columbia,11001,False,False,America/New_York,"(38.95295, -77.02323)",37.56872736168515,5808011.0,535_0_yes,38.63202792675797,-77.58638344618704,40.0
20012,38.97863,-77.03076,Washington,DC,District of Columbia,True,,18375.0,3439.4,11001,District of Columbia,"{""11001"": 100}",District of Columbia,11001,False,False,America/New_York,"(38.97863, -77.03076)",38.320861458688675,5808011.0,535_0_yes,38.63202792675797,-77.58638344618704,40.0
20015,38.96661,-77.05837,Washington,DC,District of Columbia,True,,16113.0,1789.9,11001,District of Columbia,"{""11001"": 100}",District of Columbia,11001,False,False,America/New_York,"(38.96661, -77.05837)",36.64424217699379,5808011.0,535_0_yes,38.63202792675797,-77.58638344618704,40.0
20016,38.93822,-77.09139,Washington,DC,District of Columbia,True,,34686.0,3022.2,11001,District of Columbia,"{""11001"": 100}",District of Columbia,11001,False,False,America/New_York,"(38.93822, -77.09139)",34.03372592917946,5808011.0,535_0_yes,38.63202792675797,-77.58638344618704,40.0
20017,38.93813,-76.99294,Washington,DC,District of Columbia,True,,21372.0,3714.2,11001,District of Columbia,"{""11001"": 100}",District of Columbia,11001,False,False,America/New_York,"(38.93813, -76.99294)",38.32571437696646,5808011.0,535_0_yes,38.63202792675797,-77.58638344618704,40.0
20018,38.92596,-76.97281,Washington,DC,District of Columbia,True,,20864.0,2669.1,11001,District of Columbia,"{""11001"": 100}",District of Columbia,11001,False,False,America/New_York,"(38.92596, -76.97281)",38.79001227077064,5808011.0,535_0_yes,38.63202792675797,-77.58638344618704,40.0
20019,38.89214,-76.94195,Washington,DC,District of Columbia,True,,65769.0,4138.4,11001,District of Columbia,"{""11001"": 100}",District of Columbia,11001,False,False,America/New_York,"(38.89214, -76.94195)",39.094957740190715,5808011.0,535_0_yes,38.63202792675797,-77.58638344618704,40.0
20020,38.86234,-76.97446,Washington,DC,District of Columbia,True,,57031.0,4788.2,11001,District of Columbia,"{""11001"": 100}",District of Columbia,11001,False,False,America/New_York,"(38.86234, -76.97446)",36.61351236071939,5808011.0,535_0_yes,38.63202792675797,-77.58638344618704,40.0
20024,38.87517,-77.0295,Washington,DC,District of Columbia,True,,14603.0,2570.2,11001,District of Columbia,"{""11001"": 100}",District of Columbia,11001,False,False,America/New_York,"(38.87517, -77.0295)",34.388694964794986,5808011.0,535_0_yes,38.63202792675797,-77.58638344618704,40.0
20032,38.83142,-77.01514,Washington,DC,District of Columbia,True,,42009.0,3091.0,11001,District of Columbia,"{""11001"": 100}",District of Columbia,11001,False,False,America/New_York,"(38.83142, -77.01514)",33.73084572380783,5808011.0,535_0_yes,38.63202792675797,-77.58638344618704,40.0
20036,38.90705,-77.04155,Washington,DC,District of Columbia,True,,5426.0,6453.2,11001,District of Columbia,"{""11001"": 100}",District of Columbia,11001,False,False,America/New_York,"(38.90705, -77.04155)",34.96446782109226,5808011.0,535_0_yes,38.63202792675797,-77.58638344618704,40.0
20037,38.89213,-77.0535,Washington,DC,District of Columbia,True,,14879.0,7846.8,11001,District of Columbia,"{""11001"": 100}",District of Columbia,11001,False,False,America/New_York,"(38.89213, -77.0535)",33.8703155047456,5808011.0,535_0_yes,38.63202792675797,-77.58638344618704,40.0
20057,38.90892,-77.07511,Washington,DC,District of Columbia,True,,3948.0,9746.6,11001,District of Columbia,"{""11001"": 100}",District of Columbia,11001,False,False,America/New_York,"(38.90892, -77.07511)",33.53456629185218,5808011.0,535_0_yes,38.63202792675797,-77.58638344618704,40.0
20064,38.93637,-76.99924,Washington,DC,District of Columbia,True,,2084.0,4160.6,11001,District of Columbia,"{""11001"": 100}",District of Columbia,11001,False,False,America/New_York,"(38.93637, -76.99924)",37.97606781340727,5808011.0,535_0_yes,38.63202792675797,-77.58638344618704,40.0
20105,38.95949,-77.60829,Aldie,VA,Virginia,True,,27526.0,298.0,51107,Loudoun,"{""51107"": 100}",Loudoun,51107,False,False,America/New_York,"(38.95949, -77.60829)",22.65620679492726,5808011.0,535_0_yes,38.63202792675797,-77.58638344618704,40.0
20106,38.6871,-78.0133,Amissville,VA,Virginia,True,,5073.0,36.7,51157,Rappahannock,"{""51157"": 71.66, ""51047"": 21.06, ""51061"": 7.28}",Rappahannock|Culpeper|Fauquier,51157|51047|51061,False,False,America/New_York,"(38.6871, -78.0133)",23.345626112364403,5808011.0,535_0_yes,38.63202792675797,-77.58638344618704,40.0
20109,38.79472,-77.53105,Manassas,VA,Virginia,True,,42128.0,682.7,51153,Prince William,"{""51153"": 100}",Prince William,51153,False,False,America/New_York,"(38.79472, -77.53105)",11.630058091223633,5808011.0,535_0_yes,38.63202792675797,-77.58638344618704,40.0
20110,38.7464,-77.48699,Manassas,VA,Virginia,True,,48035.0,1444.8,51683,Manassas,"{""51683"": 76.78, ""51153"": 23.22}",Manassas|Prince William,51683|51153,False,False,America/New_York,"(38.7464, -77.48699)",9.548858722449802,5808011.0,535_0_yes,38.63202792675797,-77.58638344618704,40.0
20111,38.74907,-77.43039,Manassas,VA,Virginia,True,,36264.0,853.5,51153,Prince William,"{""51153"": 81.96, ""51685"": 18.04}",Prince William|Manassas Park,51153|51685,False,False,America/New_York,"(38.74907, -77.43039)",11.669194657761821,5808011.0,535_0_yes,38.63202792675797,-77.58638344618704,40.0
20112,38.67274,-77.42901,Manassas,VA,Virginia,True,,25990.0,296.1,51153,Prince William,"{""51153"": 100}",Prince William,51153,False,False,America/New_York,"(38.67274, -77.42901)",8.945413323941105,5808011.0,535_0_yes,38.63202792675797,-77.58638344618704,40.0
20115,38.82138,-77.89764,Marshall,VA,Virginia,True,,7838.0,30.7,51061,Fauquier,"{""51061"": 100}",Fauquier,51061,False,False,America/New_York,"(38.82138, -77.89764)",21.275520065182832,5808011.0,535_0_yes,38.63202792675797,-77.58638344618704,40.0
20117,38.99473,-77.73851,Middleburg,VA,Virginia,True,,2591.0,20.6,51107,Loudoun,"{""51107"": 89.41, ""51061"": 10.59}",Loudoun|Fauquier,51107|51061,False,False,America/New_York,"(38.99473, -77.73851)",26.36467380927086,5808011.0,535_0_yes,38.63202792675797,-77.58638344618704,40.0
20119,38.62159,-77.62819,Catlett,VA,Virginia,True,,4288.0,25.5,51061,Fauquier,"{""51061"": 99.02, ""51153"": 0.98}",Fauquier|Prince William,51061|51153,False,False,America/New_York,"(38.62159, -77.62819)",2.3690647232051156,5808011.0,535_0_yes,38.63202792675797,-77.58638344618704,40.0
20120,38.85576,-77.47987,Centreville,VA,Virginia,True,,43258.0,928.9,51059,Fairfax,"{""51059"": 89.89, ""51107"": 10.11}",Fairfax|Loudoun,51059|51107,False,False,America/New_York,"(38.85576, -77.47987)",16.489679339032243,5808011.0,535_0_yes,38.63202792675797,-77.58638344618704,40.0
20121,38.8175,-77.46015,Centreville,VA,Virginia,True,,28120.0,1253.7,51059,Fairfax,"{""51059"": 100}",Fairfax,51059,False,False,America/New_York,"(38.8175, -77.46015)",14.509392041027523,5808011.0,535_0_yes,38.63202792675797,-77.58638344618704,40.0
20124,38.78059,-77.39085,Clifton,VA,Virginia,True,,15305.0,272.4,51059,Fairfax,"{""51059"": 100}",Fairfax,51059,False,False,America/New_York,"(38.78059, -77.39085)",14.714362869784962,5808011.0,535_0_yes,38.63202792675797,-77.58638344618704,40.0
20129,39.16673,-77.59404,Paeonian Springs,VA,Virginia,True,,507.0,45.7,51107,Loudoun,"{""51107"": 100}",Loudoun,51107,False,False,America/New_York,"(39.16673, -77.59404)",36.94668829180121,5808011.0,535_0_yes,38.63202792675797,-77.58638344618704,40.0
20130,39.02756,-77.94243,Paris,VA,Virginia,True,,220.0,7.7,51043,Clarke,"{""51043"": 53.94, ""51061"": 23.48, ""51107"": 22.58}",Clarke|Fauquier|Loudoun,51043|51061|51107,False,False,America/New_York,"(39.02756, -77.94243)",33.378323178664196,5808011.0,535_0_yes,38.63202792675797,-77.58638344618704,40.0
20132,39.16648,-77.72748,Purcellville,VA,Virginia,True,,18810.0,85.9,51107,Loudoun,"{""51107"": 100}",Loudoun,51107,False,False,America/New_York,"(39.16648, -77.72748)",37.69846620424549,5808011.0,535_0_yes,38.63202792675797,-77.58638344618704,40.0
20135,39.08602,-77.87659,Bluemont,VA,Virginia,True,,3652.0,36.5,51043,Clarke,"{""51043"": 61.09, ""51107"": 38.18, ""54037"": 0.73}",Clarke|Loudoun|Jefferson,51043|51107|54037,False,False,America/New_York,"(39.08602, -77.87659)",35.03899062554715,5808011.0,535_0_yes,38.63202792675797,-77.58638344618704,40.0
20136,38.7374,-77.55473,Bristow,VA,Virginia,True,,32135.0,896.8,51153,Prince William,"{""51153"": 100}",Prince William,51153,False,False,America/New_York,"(38.7374, -77.55473)",7.477998256008775,5808011.0,535_0_yes,38.63202792675797,-77.58638344618704,40.0
20137,38.80682,-77.72992,Broad Run,VA,Virginia,True,,1736.0,36.3,51061,Fauquier,"{""51061"": 81.67, ""51153"": 18.33}",Fauquier|Prince William,51061|51153,False,False,America/New_York,"(38.80682, -77.72992)",14.343162502462977,5808011.0,535_0_yes,38.63202792675797,-77.58638344618704,40.0
20141,39.11675,-77.79159,Round Hill,VA,Virginia,True,,7407.0,109.9,51107,Loudoun,"{""51107"": 100}",Loudoun,51107,False,False,America/New_York,"(39.11675, -77.79159)",35.26321958971209,5808011.0,535_0_yes,38.63202792675797,-77.58638344618704,40.0
20143,38.86421,-77.56792,Catharpin,VA,Virginia,True,,630.0,38.1,51153,Prince William,"{""51153"": 100}",Prince William,51153,False,False,America/New_York,"(38.86421, -77.56792)",16.07307579301877,5808011.0,535_0_yes,38.63202792675797,-77.58638344618704,40.0
20144,38.92117,-77.93759,Delaplane,VA,Virginia,True,,1089.0,9.4,51061,Fauquier,"{""51061"": 100}",Fauquier,51061,False,False,America/New_York,"(38.92117, -77.93759)",27.513427631278017,5808011.0,535_0_yes,38.63202792675797,-77.58638344618704,40.0
20147,39.04151,-77.47958,Ashburn,VA,Virginia,True,,63903.0,1243.3,51107,Loudoun,"{""51107"": 100}",Loudoun,51107,False,False,America/New_York,"(39.04151, -77.47958)",28.870514490150985,5808011.0,535_0_yes,38.63202792675797,-77.58638344618704,40.0
20148,38.99062,-77.53284,Ashburn,VA,Virginia,True,,54125.0,1077.7,51107,Loudoun,"{""51107"": 100}",Loudoun,51107,False,False,America/New_York,"(38.99062, -77.53284)",24.943486714542264,5808011.0,535_0_yes,38.63202792675797,-77.58638344618704,40.0
20151,38.89583,-77.44453,Chantilly,VA,Virginia,True,,22209.0,540.7,51059,Fairfax,"{""51059"": 100}",Fairfax,51059,False,False,America/New_York,"(38.89583, -77.44453)",19.76428501847674,5808011.0,535_0_yes,38.63202792675797,-77.58638344618704,40.0
20152,38.8998,-77.51917,Chantilly,VA,Virginia,True,,36465.0,1056.7,51107,Loudoun,"{""51107"": 100}",Loudoun,51107,False,False,America/New_York,"(38.8998, -77.51917)",18.852296801680996,5808011.0,535_0_yes,38.63202792675797,-77.58638344618704,40.0
20155,38.80646,-77.62145,Gainesville,VA,Virginia,True,,37151.0,563.1,51153,Prince William,"{""51153"": 100}",Prince William,51153,False,False,America/New_York,"(38.80646, -77.62145)",12.199459392296676,5808011.0,535_0_yes,38.63202792675797,-77.58638344618704,40.0
20158,39.14126,-77.65514,Hamilton,VA,Virginia,True,,5482.0,159.7,51107,Loudoun,"{""51107"": 100}",Loudoun,51107,False,False,America/New_York,"(39.14126, -77.65514)",35.37836561124541,5808011.0,535_0_yes,38.63202792675797,-77.58638344618704,40.0
20164,39.01244,-77.39586,Sterling,VA,Virginia,True,,42011.0,2132.5,51107,Loudoun,"{""51107"": 100}",Loudoun,51107,False,False,America/New_York,"(39.01244, -77.39586)",28.214007329129874,5808011.0,535_0_yes,38.63202792675797,-77.58638344618704,40.0
20165,39.05058,-77.38854,Sterling,VA,Virginia,True,,33290.0,1305.2,51107,Loudoun,"{""51107"": 100}",Loudoun,51107,False,False,America/New_York,"(39.05058, -77.38854)",30.81686989941381,5808011.0,535_0_yes,38.63202792675797,-77.58638344618704,40.0
20166,38.97146,-77.4637,Sterling,VA,Virginia,True,,12572.0,178.5,51107,Loudoun,"{""51107"": 100}",Loudoun,51107,False,False,America/New_York,"(38.97146, -77.4637)",24.365129183533778,5808011.0,535_0_yes,38.63202792675797,-77.58638344618704,40.0
20169,38.87172,-77.64627,Haymarket,VA,Virginia,True,,25914.0,267.3,51153,Prince William,"{""51153"": 96.96, ""51061"": 3.04}",Prince William|Fauquier,51153|51061,False,False,America/New_York,"(38.87172, -77.64627)",16.872591010457317,5808011.0,535_0_yes,38.63202792675797,-77.58638344618704,40.0
20170,38.98075,-77.38042,Herndon,VA,Virginia,True,,43610.0,1923.2,51059,Fairfax,"{""51059"": 100}",Fairfax,51059,False,False,America/New_York,"(38.98075, -77.38042)",26.523894236702606,5808011.0,535_0_yes,38.63202792675797,-77.58638344618704,40.0
20171,38.9246,-77.39824,Herndon,VA,Virginia,True,,50511.0,1678.7,51059,Fairfax,"{""51059"": 100}",Fairfax,51059,False,False,America/New_York,"(38.9246, -77.39824)",22.612760432518304,5808011.0,535_0_yes,38.63202792675797,-77.58638344618704,40.0
20175,39.0641,-77.59939,Leesburg,VA,Virginia,True,,35429.0,231.8,51107,Loudoun,"{""51107"": 100}",Loudoun,51107,False,False,America/New_York,"(39.0641, -77.59939)",29.861539823595397,5808011.0,535_0_yes,38.63202792675797,-77.58638344618704,40.0
20176,39.18147,-77.5345,Leesburg,VA,Virginia,True,,51823.0,364.5,51107,Loudoun,"{""51107"": 100}",Loudoun,51107,False,False,America/New_York,"(39.18147, -77.5345)",38.06518319022172,5808011.0,535_0_yes,38.63202792675797,-77.58638344618704,40.0
20181,38.66687,-77.55374,Nokesville,VA,Virginia,True,,8526.0,42.3,51153,Prince William,"{""51153"": 93.57, ""51061"": 6.43}",Prince William|Fauquier,51153|51061,False,False,America/New_York,"(38.66687, -77.55374)",2.9829724362113597,5808011.0,535_0_yes,38.63202792675797,-77.58638344618704,40.0
20184,39.00143,-77.87874,Upperville,VA,Virginia,True,,436.0,4.7,51107,Loudoun,"{""51107"": 56.25, ""51061"": 43.75}",Loudoun|Fauquier,51107|51061,False,False,America/New_York,"(39.00143, -77.87874)",29.985754810923797,5808011.0,535_0_yes,38.63202792675797,-77.58638344618704,40.0
20186,38.69045,-77.843,Warrenton,VA,Virginia,True,,15143.0,99.6,51061,Fauquier,"{""51061"": 98.32, ""51047"": 1.68}",Fauquier|Culpeper,51061|51047,False,False,America/New_York,"(38.69045, -77.843)",14.4213691041111,5808011.0,535_0_yes,38.63202792675797,-77.58638344618704,40.0
20187,38.71846,-77.74275,Warrenton,VA,Virginia,True,,18684.0,141.3,51061,Fauquier,"{""51061"": 100}",Fauquier,51061,False,False,America/New_York,"(38.71846, -77.74275)",10.334700099360427,5808011.0,535_0_yes,38.63202792675797,-77.58638344618704,40.0
20190,38.95968,-77.33806,Reston,VA,Virginia,True,,20609.0,1823.7,51059,Fairfax,"{""51059"": 100}",Fairfax,51059,False,False,America/New_York,"(38.95968, -77.33806)",26.29301559279763,5808011.0,535_0_yes,38.63202792675797,-77.58638344618704,40.0
20191,38.93438,-77.35184,Reston,VA,Virginia,True,,30224.0,1504.5,51059,Fairfax,"{""51059"": 100}",Fairfax,51059,False,False,America/New_York,"(38.93438, -77.35184)",24.412960254367828,5808011.0,535_0_yes,38.63202792675797,-77.58638344618704,40.0
20194,38.97998,-77.34354,Reston,VA,Virginia,True,,12067.0,1494.5,51059,Fairfax,"{""51059"": 100}",Fairfax,51059,False,False,America/New_York,"(38.97998, -77.34354)",27.36679656658086,5808011.0,535_0_yes,38.63202792675797,-77.58638344618704,40.0
20197,39.19379,-77.62252,Waterford,VA,Virginia,True,,2931.0,77.1,51107,Loudoun,"{""51107"": 100}",Loudoun,51107,False,False,America/New_York,"(39.19379, -77.62252)",38.86265134274222,5808011.0,535_0_yes,38.63202792675797,-77.58638344618704,40.0
20198,38.87523,-77.76128,The Plains,VA,Virginia,True,,1854.0,10.3,51061,Fauquier,"{""51061"": 100}",Fauquier,51061,False,False,America/New_York,"(38.87523, -77.76128)",19.265790959396067,5808011.0,535_0_yes,38.63202792675797,-77.58638344618704,40.0
20317,38.93645,-77.0128,Washington,DC,District of Columbia,True,,419.0,461.6,11001,District of Columbia,"{""11001"": 100}",District of Columbia,11001,False,False,America/New_York,"(38.93645, -77.0128)",37.37320931977647,5808011.0,535_0_yes,38.63202792675797,-77.58638344618704,40.0
20319,38.86706,-77.01695,Washington,DC,District of Columbia,True,,48.0,134.9,11001,District of Columbia,"{""11001"": 100}",District of Columbia,11001,False,False,America/New_York,"(38.86706, -77.01695)",34.716203194631206,5808011.0,535_0_yes,38.63202792675797,-77.58638344618704,40.0
20373,38.85779,-77.01051,Naval Anacost Annex,DC,District of Columbia,True,,187.0,143.1,11001,District of Columbia,"{""11001"": 100}",District of Columbia,11001,False,False,America/New_York,"(38.85779, -77.01051)",34.73275547288733,5808011.0,535_0_yes,38.63202792675797,-77.58638344618704,40.0
20390,38.87902,-76.99375,Washington,DC,District of Columbia,True,,434.0,39689.1,11001,District of Columbia,"{""11001"": 100}",District of Columbia,11001,False,False,America/New_York,"(38.87902, -76.99375)",36.20560188173948,5808011.0,535_0_yes,38.63202792675797,-77.58638344618704,40.0
20601,38.61863,-76.85715,Waldorf,MD,Maryland,True,,26236.0,211.8,24017,Charles,"{""24017"": 83.95, ""24033"": 16.05}",Charles|Prince George's,24017|24033,False,False,America/New_York,"(38.61863, -76.85715)",39.37396993937997,5808011.0,535_0_yes,38.63202792675797,-77.58638344618704,40.0
20602,38.58335,-76.89466,Waldorf,MD,Maryland,True,,26835.0,715.7,24017,Charles,"{""24017"": 100}",Charles,24017,False,False,America/New_York,"(38.58335, -76.89466)",37.498670890394365,5808011.0,535_0_yes,38.63202792675797,-77.58638344618704,40.0
20603,38.62972,-76.97473,Waldorf,MD,Maryland,True,,32726.0,780.1,24017,Charles,"{""24017"": 100}",Charles,24017,False,False,America/New_York,"(38.62972, -76.97473)",33.01412661796259,5808011.0,535_0_yes,38.63202792675797,-77.58638344618704,40.0
20607,38.67161,-77.02478,Accokeek,MD,Maryland,True,,10755.0,211.5,24033,Prince George's,"{""24033"": 96.39, ""24017"": 3.61}",Prince George's|Charles,24033|24017,False,False,America/New_York,"(38.67161, -77.02478)",30.426621988917,5808011.0,535_0_yes,38.63202792675797,-77.58638344618704,40.0
20611,38.46251,-76.98538,Bel Alton,MD,Maryland,True,,1354.0,62.9,24017,Charles,"{""24017"": 100}",Charles,24017,False,False,America/New_York,"(38.46251, -76.98538)",34.524175695173774,5808011.0,535_0_yes,38.63202792675797,-77.58638344618704,40.0
20616,38.65443,-77.08848,Bryans Road,MD,Maryland,True,,6728.0,268.1,24017,Charles,"{""24017"": 100}",Charles,24017,False,False,America/New_York,"(38.65443, -77.08848)",26.914061892740236,5808011.0,535_0_yes,38.63202792675797,-77.58638344618704,40.0
20617,38.54351,-76.854,Bryantown,MD,Maryland,True,,715.0,46.0,24017,Charles,"{""24017"": 100}",Charles,24017,False,False,America/New_York,"(38.54351, -76.854)",40.02385666602536,5808011.0,535_0_yes,38.63202792675797,-77.58638344618704,40.0
20625,38.26212,-76.84877,Cobb Island,MD,Maryland,True,,929.0,732.9,24017,Charles,"{""24017"": 100}",Charles,24017,False,False,America/New_York,"(38.26212, -76.84877)",47.395672983465985,5808011.0,535_0_yes,38.63202792675797,-77.58638344618704,40.0
20632,38.42591,-76.95682,Faulkner,MD,Maryland,True,,314.0,18.5,24017,Charles,"{""24017"": 100}",Charles,24017,False,False,America/New_York,"(38.42591, -76.95682)",36.8885336334943,5808011.0,535_0_yes,38.63202792675797,-77.58638344618704,40.0
20640,38.55408,-77.1657,Indian Head,MD,Maryland,True,,11113.0,102.8,24017,Charles,"{""24017"": 100}",Charles,24017,False,False,America/New_York,"(38.55408, -77.1657)",23.347858148101512,5808011.0,535_0_yes,38.63202792675797,-77.58638344618704,40.0
20645,38.29838,-76.91413,Issue,MD,Maryland,True,,653.0,183.1,24017,Charles,"{""24017"": 100}",Charles,24017,False,False,America/New_York,"(38.29838, -76.91413)",43.0589857081807,5808011.0,535_0_yes,38.63202792675797,-77.58638344618704,40.0
20646,38.52114,-76.99989,La Plata,MD,Maryland,True,,22583.0,109.3,24017,Charles,"{""24017"": 100}",Charles,24017,False,False,America/New_York,"(38.52114, -76.99989)",32.59299264729276,5808011.0,535_0_yes,38.63202792675797,-77.58638344618704,40.0
20658,38.56973,-77.15958,Marbury,MD,Maryland,True,,858.0,75.9,24017,Charles,"{""24017"": 100}",Charles,24017,False,False,America/New_York,"(38.56973, -77.15958)",23.444714885263277,5808011.0,535_0_yes,38.63202792675797,-77.58638344618704,40.0
20662,38.43359,-77.19972,Nanjemoy,MD,Maryland,True,,2333.0,16.0,24017,Charles,"{""24017"": 100}",Charles,24017,False,False,America/New_York,"(38.43359, -77.19972)",24.99464843553641,5808011.0,535_0_yes,38.63202792675797,-77.58638344618704,40.0
20664,38.35062,-76.91631,Newburg,MD,Maryland,True,,3285.0,31.0,24017,Charles,"{""24017"": 100}",Charles,24017,False,False,America/New_York,"(38.35062, -76.91631)",41.12390124613826,5808011.0,535_0_yes,38.63202792675797,-77.58638344618704,40.0
20675,38.58349,-77.01522,Pomfret,MD,Maryland,True,,1662.0,90.1,24017,Charles,"{""24017"": 100}",Charles,24017,False,False,America/New_York,"(38.58349, -77.01522)",31.020070445270505,5808011.0,535_0_yes,38.63202792675797,-77.58638344618704,40.0
20677,38.49992,-77.04016,Port Tobacco,MD,Maryland,True,,2215.0,54.7,24017,Charles,"{""24017"": 100}",Charles,24017,False,False,America/New_York,"(38.49992, -77.04016)",30.888323214776857,5808011.0,535_0_yes,38.63202792675797,-77.58638344618704,40.0
20693,38.45924,-77.08931,Welcome,MD,Maryland,True,,1171.0,22.4,24017,Charles,"{""24017"": 100}",Charles,24017,False,False,America/New_York,"(38.45924, -77.08931)",29.394752975774022,5808011.0,535_0_yes,38.63202792675797,-77.58638344618704,40.0
20695,38.58885,-76.97269,White Plains,MD,Maryland,True,,8400.0,225.4,24017,Charles,"{""24017"": 100}",Charles,24017,False,False,America/New_York,"(38.58885, -76.97269)",33.26732330212839,5808011.0,535_0_yes,38.63202792675797,-77.58638344618704,40.0
20705,39.04503,-76.90009,Beltsville,MD,Maryland,True,,28348.0,757.4,24033,Prince George's,"{""24033"": 98.86, ""24031"": 1.14}",Prince George's|Montgomery,24033|24031,False,False,America/New_York,"(39.04503, -76.90009)",46.673907008191016,5808011.0,535_0_yes,38.63202792675797,-77.58638344618704,40.0
20706,38.96548,-76.85091,Lanham,MD,Maryland,True,,45329.0,1741.5,24033,Prince George's,"{""24033"": 100}",Prince George's,24033,False,False,America/New_York,"(38.96548, -76.85091)",45.81760218161325,5808011.0,535_0_yes,38.63202792675797,-77.58638344618704,40.0
20707,39.09563,-76.8842,Laurel,MD,Maryland,True,,32184.0,982.4,24033,Prince George's,"{""24033"": 93.51, ""24031"": 6.49}",Prince George's|Montgomery,24033|24031,False,False,America/New_York,"(39.09563, -76.8842)",49.52864124618818,5808011.0,535_0_yes,38.63202792675797,-77.58638344618704,40.0
20710,38.94204,-76.92623,Bladensburg,MD,Maryland,True,,9483.0,3278.7,24033,Prince George's,"{""24033"": 100}",Prince George's,24033,False,False,America/New_York,"(38.94204, -76.92623)",41.507444924100554,5808011.0,535_0_yes,38.63202792675797,-77.58638344618704,40.0
20712,38.94306,-76.96517,Mount Rainier,MD,Maryland,True,,9649.0,5104.4,24033,Prince George's,"{""24033"": 100}",Prince George's,24033,False,False,America/New_York,"(38.94306, -76.96517)",39.76368020938161,5808011.0,535_0_yes,38.63202792675797,-77.58638344618704,40.0
20722,38.9351,-76.94944,Brentwood,MD,Maryland,True,,5604.0,1470.7,24033,Prince George's,"{""24033"": 100}",Prince George's,24033,False,False,America/New_York,"(38.9351, -76.94944)",40.19140280939602,5808011.0,535_0_yes,38.63202792675797,-77.58638344618704,40.0
20723,39.13664,-76.86647,Laurel,MD,Maryland,True,,36082.0,1070.1,24027,Howard,"{""24027"": 100}",Howard,24027,False,False,America/New_York,"(39.13664, -76.86647)",52.10322447216189,5808011.0,535_0_yes,38.63202792675797,-77.58638344618704,40.0
20735,38.75034,-76.90566,Clinton,MD,Maryland,True,,37009.0,551.2,24033,Prince George's,"{""24033"": 100}",Prince George's,24033,False,False,America/New_York,"(38.75034, -76.90566)",37.609930558838144,5808011.0,535_0_yes,38.63202792675797,-77.58638344618704,40.0
20737,38.96247,-76.91571,Riverdale,MD,Maryland,True,,22666.0,2764.8,24033,Prince George's,"{""24033"": 100}",Prince George's,24033,False,False,America/New_York,"(38.96247, -76.91571)",42.72663095416591,5808011.0,535_0_yes,38.63202792675797,-77.58638344618704,40.0
20740,39.00193,-76.93096,College Park,MD,Maryland,True,,31723.0,1394.6,24033,Prince George's,"{""24033"": 100}",Prince George's,24033,False,False,America/New_York,"(39.00193, -76.93096)",43.56789937492409,5808011.0,535_0_yes,38.63202792675797,-77.58638344618704,40.0
20742,38.99422,-76.94347,College Park,MD,Maryland,True,,6511.0,7796.8,24033,Prince George's,"{""24033"": 100}",Prince George's,24033,False,False,America/New_York,"(38.99422, -76.94347)",42.71153110354102,5808011.0,535_0_yes,38.63202792675797,-77.58638344618704,40.0
20743,38.88372,-76.89362,Capitol Heights,MD,Maryland,True,,38747.0,1552.1,24033,Prince George's,"{""24033"": 100}",Prince George's,24033,False,False,America/New_York,"(38.88372, -76.89362)",41.17755107389373,5808011.0,535_0_yes,38.63202792675797,-77.58638344618704,40.0
20744,38.75362,-76.98393,Fort Washington,MD,Maryland,True,,54572.0,807.6,24033,Prince George's,"{""24033"": 100}",Prince George's,24033,False,False,America/New_York,"(38.75362, -76.98393)",33.55768522018625,5808011.0,535_0_yes,38.63202792675797,-77.58638344618704,40.0
20745,38.80552,-76.99495,Oxon Hill,MD,Maryland,True,,27503.0,1631.9,24033,Prince George's,"{""24033"": 100}",Prince George's,24033,False,False,America/New_York,"(38.80552, -76.99495)",34.06212540694323,5808011.0,535_0_yes,38.63202792675797,-77.58638344618704,40.0
20746,38.83664,-76.91936,Suitland,MD,Maryland,True,,26396.0,1347.0,24033,Prince George's,"{""24033"": 100}",Prince George's,24033,False,False,America/New_York,"(38.83664, -76.91936)",38.630089573526085,5808011.0,535_0_yes,38.63202792675797,-77.58638344618704,40.0
20747,38.85348,-76.88377,District Heights,MD,Maryland,True,,41128.0,2009.8,24033,Prince George's,"{""24033"": 100}",Prince George's,24033,False,False,America/New_York,"(38.85348, -76.88377)",40.83863136250014,5808011.0,535_0_yes,38.63202792675797,-77.58638344618704,40.0
20748,38.81692,-76.94124,Temple Hills,MD,Maryland,True,,38720.0,1607.4,24033,Prince George's,"{""24033"": 100}",Prince George's,24033,False,False,America/New_York,"(38.81692, -76.94124)",37.04796647494432,5808011.0,535_0_yes,38.63202792675797,-77.58638344618704,40.0
20759,39.15419,-76.92877,Fulton,MD,Maryland,True,,4721.0,290.1,24027,Howard,"{""24027"": 100}",Howard,24027,False,False,America/New_York,"(39.15419, -76.92877)",50.519508244783445,5808011.0,535_0_yes,38.63202792675797,-77.58638344618704,40.0
20762,38.80748,-76.87457,Andrews Air Force Base,MD,Maryland,True,,3316.0,219.7,24033,Prince George's,"{""24033"": 100}",Prince George's,24033,False,False,America/New_York,"(38.80748, -76.87457)",40.24145104895938,5808011.0,535_0_yes,38.63202792675797,-77.58638344618704,40.0
20770,38.99981,-76.88567,Greenbelt,MD,Maryland,True,,24602.0,1300.5,24033,Prince George's,"{""24033"": 100}",Prince George's,24033,False,False,America/New_York,"(38.99981, -76.88567)",45.48336680454183,5808011.0,535_0_yes,38.63202792675797,-77.58638344618704,40.0
20777,39.17487,-76.96783,Highland,MD,Maryland,True,,3444.0,176.3,24027,Howard,"{""24027"": 98.2, ""24031"": 1.8}",Howard|Montgomery,24027|24031,False,False,America/New_York,"(39.17487, -76.96783)",50.12871580296805,5808011.0,535_0_yes,38.63202792675797,-77.58638344618704,40.0
20781,38.94229,-76.93655,Hyattsville,MD,Maryland,True,,11460.0,1799.0,24033,Prince George's,"{""24033"": 100}",Prince George's,24033,False,False,America/New_York,"(38.94229, -76.93655)",41.04134022704245,5808011.0,535_0_yes,38.63202792675797,-77.58638344618704,40.0
20782,38.96469,-76.9649,Hyattsville,MD,Maryland,True,,32527.0,2953.4,24033,Prince George's,"{""24033"": 100}",Prince George's,24033,False,False,America/New_York,"(38.96469, -76.9649)",40.598644055696695,5808011.0,535_0_yes,38.63202792675797,-77.58638344618704,40.0
20783,38.99988,-76.96886,Hyattsville,MD,Maryland,True,,45550.0,3012.2,24033,Prince George's,"{""24033"": 100}",Prince George's,24033,False,False,America/New_York,"(38.99988, -76.96886)",41.84682662332776,5808011.0,535_0_yes,38.63202792675797,-77.58638344618704,40.0
20784,38.95145,-76.89025,Hyattsville,MD,Maryland,True,,30381.0,2833.7,24033,Prince George's,"{""24033"": 100}",Prince George's,24033,False,False,America/New_York,"(38.95145, -76.89025)",43.502880561124464,5808011.0,535_0_yes,38.63202792675797,-77.58638344618704,40.0
20785,38.91849,-76.88237,Hyattsville,MD,Maryland,True,,39237.0,1497.0,24033,Prince George's,"{""24033"": 100}",Prince George's,24033,False,False,America/New_York,"(38.91849, -76.88237)",42.776518041540015,5808011.0,535_0_yes,38.63202792675797,-77.58638344618704,40.0
20812,38.96677,-77.14357,Glen Echo,MD,Maryland,True,,323.0,705.0,24031,Montgomery,"{""24031"": 100}",Montgomery,24031,False,False,America/New_York,"(38.96677, -77.14357)",33.2186301946021,5808011.0,535_0_yes,38.63202792675797,-77.58638344618704,40.0
20814,39.00506,-77.10295,Bethesda,MD,Maryland,True,,29632.0,2565.8,24031,Montgomery,"{""24031"": 100}",Montgomery,24031,False,False,America/New_York,"(39.00506, -77.10295)",36.62758472817286,5808011.0,535_0_yes,38.63202792675797,-77.58638344618704,40.0
20815,38.98369,-77.07845,Chevy Chase,MD,Maryland,True,,30908.0,2216.3,24031,Montgomery,"{""24031"": 100}",Montgomery,24031,False,False,America/New_York,"(38.98369, -77.07845)",36.58223890775381,5808011.0,535_0_yes,38.63202792675797,-77.58638344618704,40.0
20816,38.95612,-77.11873,Bethesda,MD,Maryland,True,,16661.0,1804.9,24031,Montgomery,"{""24031"": 100}",Montgomery,24031,False,False,America/New_York,"(38.95612, -77.11873)",33.699431460451635,5808011.0,535_0_yes,38.63202792675797,-77.58638344618704,40.0
20817,38.99809,-77.14919,Bethesda,MD,Maryland,True,,38131.0,1048.7,24031,Montgomery,"{""24031"": 100}",Montgomery,24031,False,False,America/New_York,"(38.99809, -77.14919)",34.54961810892978,5808011.0,535_0_yes,38.63202792675797,-77.58638344618704,40.0
20818,38.97347,-77.16188,Cabin John,MD,Maryland,True,,2072.0,861.9,24031,Montgomery,"{""24031"": 100}",Montgomery,24031,False,False,America/New_York,"(38.97347, -77.16188)",32.84828439067228,5808011.0,535_0_yes,38.63202792675797,-77.58638344618704,40.0
20832,39.15134,-77.07331,Olney,MD,Maryland,True,,25427.0,1021.6,24031,Montgomery,"{""24031"": 100}",Montgomery,24031,False,False,America/New_York,"(39.15134, -77.07331)",45.26309515429112,5808011.0,535_0_yes,38.63202792675797,-77.58638344618704,40.0
20833,39.20595,-77.05552,Brookeville,MD,Maryland,True,,7746.0,156.5,24031,Montgomery,"{""24031"": 90.43, ""24027"": 9.57}",Montgomery|Howard,24031|24027,False,False,America/New_York,"(39.20595, -77.05552)",48.85524789201467,5808011.0,535_0_yes,38.63202792675797,-77.58638344618704,40.0
20837,39.11208,-77.40823,Poolesville,MD,Maryland,True,,6129.0,58.7,24031,Montgomery,"{""24031"": 100}",Montgomery,24031,False,False,America/New_York,"(39.11208, -77.40823)",34.52512428255549,5808011.0,535_0_yes,38.63202792675797,-77.58638344618704,40.0
20839,39.17909,-77.41438,Beallsville,MD,Maryland,True,,139.0,17.6,24031,Montgomery,"{""24031"": 100}",Montgomery,24031,False,False,America/New_York,"(39.17909, -77.41438)",38.91329661863529,5808011.0,535_0_yes,38.63202792675797,-77.58638344618704,40.0
20841,39.1858,-77.32581,Boyds,MD,Maryland,True,,11692.0,166.3,24031,Montgomery,"{""24031"": 100}",Montgomery,24031,False,False,America/New_York,"(39.1858, -77.32581)",40.7461291421295,5808011.0,535_0_yes,38.63202792675797,-77.58638344618704,40.0
20842,39.20831,-77.42473,Dickerson,MD,Maryland,True,,1467.0,10.2,24031,Montgomery,"{""24031"": 77.46, ""24021"": 22.54}",Montgomery|Frederick,24031|24021,False,False,America/New_York,"(39.20831, -77.42473)",40.75450053642796,5808011.0,535_0_yes,38.63202792675797,-77.58638344618704,40.0
20850,39.0908,-77.1809,Rockville,MD,Maryland,True,,53522.0,1463.8,24031,Montgomery,"{""24031"": 100}",Montgomery,24031,False,False,America/New_York,"(39.0908, -77.1809)",38.47947552020559,5808011.0,535_0_yes,38.63202792675797,-77.58638344618704,40.0
20851,39.07767,-77.12089,Rockville,MD,Maryland,True,,14519.0,2211.0,24031,Montgomery,"{""24031"": 100}",Montgomery,24031,False,False,America/New_York,"(39.07767, -77.12089)",39.69108312095435,5808011.0,535_0_yes,38.63202792675797,-77.58638344618704,40.0
20852,39.05134,-77.12507,Rockville,MD,Maryland,True,,47338.0,2263.6,24031,Montgomery,"{""24031"": 100}",Montgomery,24031,False,False,America/New_York,"(39.05134, -77.12507)",38.15329446196668,5808011.0,535_0_yes,38.63202792675797,-77.58638344618704,40.0
20853,39.10237,-77.09462,Rockville,MD,Maryland,True,,31510.0,1347.2,24031,Montgomery,"{""24031"": 100}",Montgomery,24031,False,False,America/New_York,"(39.10237, -77.09462)",41.90402238829378,5808011.0,535_0_yes,38.63202792675797,-77.58638344618704,40.0
20854,39.03413,-77.22149,Potomac,MD,Maryland,True,,49196.0,561.8,24031,Montgomery,"{""24031"": 100}",Montgomery,24031,False,False,America/New_York,"(39.03413, -77.22149)",34.02310558403519,5808011.0,535_0_yes,38.63202792675797,-77.58638344618704,40.0
20855,39.13702,-77.13197,Derwood,MD,Maryland,True,,15955.0,471.2,24031,Montgomery,"{""24031"": 100}",Montgomery,24031,False,False,America/New_York,"(39.13702, -77.13197)",42.59949931975149,5808011.0,535_0_yes,38.63202792675797,-77.58638344618704,40.0
20860,39.15072,-77.03069,Sandy Spring,MD,Maryland,True,,2890.0,309.2,24031,Montgomery,"{""24031"": 100}",Montgomery,24031,False,False,America/New_York,"(39.15072, -77.03069)",46.66278163204269,5808011.0,535_0_yes,38.63202792675797,-77.58638344618704,40.0
20861,39.14653,-76.99886,Ashton,MD,Maryland,True,,2015.0,150.3,24031,Montgomery,"{""24031"": 100}",Montgomery,24031,False,False,America/New_York,"(39.14653, -76.99886)",47.56094514997148,5808011.0,535_0_yes,38.63202792675797,-77.58638344618704,40.0
20862,39.18039,-77.01879,Brinklow,MD,Maryland,True,,359.0,87.9,24031,Montgomery,"{""24031"": 99.6, ""24027"": 0.4}",Montgomery|Howard,24031|24027,False,False,America/New_York,"(39.18039, -77.01879)",48.64998163129341,5808011.0,535_0_yes,38.63202792675797,-77.58638344618704,40.0
20866,39.10969,-76.93411,Burtonsville,MD,Maryland,True,,16974.0,932.6,24031,Montgomery,"{""24031"": 100}",Montgomery,24031,False,False,America/New_York,"(39.10969, -76.93411)",48.1701831793854,5808011.0,535_0_yes,38.63202792675797,-77.58638344618704,40.0
20868,39.12534,-76.96834,Spencerville,MD,Maryland,True,,539.0,128.0,24031,Montgomery,"{""24031"": 100}",Montgomery,24031,False,False,America/New_York,"(39.12534, -76.96834)",47.61133789770476,5808011.0,535_0_yes,38.63202792675797,-77.58638344618704,40.0
20874,39.1291,-77.29721,Germantown,MD,Maryland,True,,60258.0,1026.1,24031,Montgomery,"{""24031"": 100}",Montgomery,24031,False,False,America/New_York,"(39.1291, -77.29721)",37.70207340991432,5808011.0,535_0_yes,38.63202792675797,-77.58638344618704,40.0
20876,39.20706,-77.23284,Germantown,MD,Maryland,True,,31703.0,1128.0,24031,Montgomery,"{""24031"": 100}",Montgomery,24031,False,False,America/New_York,"(39.20706, -77.23284)",44.04247675353376,5808011.0,535_0_yes,38.63202792675797,-77.58638344618704,40.0
20877,39.14068,-77.18865,Gaithersburg,MD,Maryland,True,,37948.0,2597.5,24031,Montgomery,"{""24031"": 100}",Montgomery,24031,False,False,America/New_York,"(39.14068, -77.18865)",41.14236819581843,5808011.0,535_0_yes,38.63202792675797,-77.58638344618704,40.0
20878,39.11376,-77.24781,Gaithersburg,MD,Maryland,True,,63576.0,1200.4,24031,Montgomery,"{""24031"": 100}",Montgomery,24031,False,False,America/New_York,"(39.11376, -77.24781)",37.94139666362173,5808011.0,535_0_yes,38.63202792675797,-77.58638344618704,40.0
20879,39.16992,-77.17416,Gaithersburg,MD,Maryland,True,,26343.0,1180.5,24031,Montgomery,"{""24031"": 100}",Montgomery,24031,False,False,America/New_York,"(39.16992, -77.17416)",43.27266025663693,5808011.0,535_0_yes,38.63202792675797,-77.58638344618704,40.0
20880,39.14077,-77.17456,Washington Grove,MD,Maryland,True,,530.0,613.4,24031,Montgomery,"{""24031"": 100}",Montgomery,24031,False,False,America/New_York,"(39.14077, -77.17456)",41.54664579154743,5808011.0,535_0_yes,38.63202792675797,-77.58638344618704,40.0
20886,39.17952,-77.197,Montgomery Village,MD,Maryland,True,,34887.0,3284.5,24031,Montgomery,"{""24031"": 100}",Montgomery,24031,False,False,America/New_York,"(39.17952, -77.197)",43.23507336050899,5808011.0,535_0_yes,38.63202792675797,-77.58638344618704,40.0
20895,39.02696,-77.07781,Kensington,MD,Maryland,True,,18930.0,1794.0,24031,Montgomery,"{""24031"": 100}",Montgomery,24031,False,False,America/New_York,"(39.02696, -77.07781)",38.6511358825317,5808011.0,535_0_yes,38.63202792675797,-77.58638344618704,40.0
20896,39.03521,-77.09494,Garrett Park,MD,Maryland,True,,792.0,895.4,24031,Montgomery,"{""24031"": 100}",Montgomery,24031,False,False,America/New_York,"(39.03521, -77.09494)",38.41399211404541,5808011.0,535_0_yes,38.63202792675797,-77.58638344618704,40.0
20899,39.14442,-77.21621,Gaithersburg,MD,Maryland,True,,284.0,1034.4,24031,Montgomery,"{""24031"": 100}",Montgomery,24031,False,False,America/New_York,"(39.14442, -77.21621)",40.616374233549436,5808011.0,535_0_yes,38.63202792675797,-77.58638344618704,40.0
20901,39.02155,-77.00919,Silver Spring,MD,Maryland,True,,36802.0,2656.8,24031,Montgomery,"{""24031"": 100}",Montgomery,24031,False,False,America/New_York,"(39.02155, -77.00919)",41.10438578661724,5808011.0,535_0_yes,38.63202792675797,-77.58638344618704,40.0
20902,39.04381,-77.0421,Silver Spring,MD,Maryland,True,,52752.0,2692.8,24031,Montgomery,"{""24031"": 100}",Montgomery,24031,False,False,America/New_York,"(39.04381, -77.0421)",40.83529000725547,5808011.0,535_0_yes,38.63202792675797,-77.58638344618704,40.0
20903,39.02128,-76.9821,Silver Spring,MD,Maryland,True,,26951.0,3051.4,24031,Montgomery,"{""24031"": 94.94, ""24033"": 5.06}",Montgomery|Prince George's,24031|24033,False,False,America/New_York,"(39.02128, -76.9821)",42.205469930874344,5808011.0,535_0_yes,38.63202792675797,-77.58638344618704,40.0
20904,39.06608,-76.97918,Silver Spring,MD,Maryland,True,,55856.0,1570.9,24031,Montgomery,"{""24031"": 97.42, ""24033"": 2.58}",Montgomery|Prince George's,24031|24033,False,False,America/New_York,"(39.06608, -76.97918)",44.350382491946164,5808011.0,535_0_yes,38.63202792675797,-77.58638344618704,40.0
20905,39.11052,-76.99036,Silver Spring,MD,Maryland,True,,18590.0,609.0,24031,Montgomery,"{""24031"": 100}",Montgomery,24031,False,False,America/New_York,"(39.11052, -76.99036)",46.053869760127874,5808011.0,535_0_yes,38.63202792675797,-77.58638344618704,40.0
20906,39.08858,-77.05522,Silver Spring,MD,Maryland,True,,70441.0,2135.9,24031,Montgomery,"{""24031"": 100}",Montgomery,24031,False,False,America/New_York,"(39.08858, -77.05522)",42.56434981979426,5808011.0,535_0_yes,38.63202792675797,-77.58638344618704,40.0
20910,39.00227,-77.03634,Silver Spring,MD,Maryland,True,,43729.0,3673.6,24031,Montgomery,"{""24031"": 100}",Montgomery,24031,False,False,America/New_York,"(39.00227, -77.03634)",39.13067563196853,5808011.0,535_0_yes,38.63202792675797,-77.58638344618704,40.0
20912,38.98182,-77.00106,Takoma Park,MD,Maryland,True,,25118.0,3620.0,24031,Montgomery,"{""24031"": 89.99, ""24033"": 10.01}",Montgomery|Prince George's,24031|24033,False,False,America/New_York,"(38.98182, -77.00106)",39.71506046951844,5808011.0,535_0_yes,38.63202792675797,-77.58638344618704,40.0
21029,39.20633,-76.95206,Clarksville,MD,Maryland,True,,11523.0,263.0,24027,Howard,"{""24027"": 100}",Howard,24027,False,False,America/New_York,"(39.20633, -76.95206)",52.31892681748942,5808011.0,535_0_yes,38.63202792675797,-77.58638344618704,40.0
21044,39.21047,-76.88353,Columbia,MD,Maryland,True,,45741.0,1485.8,24027,Howard,"{""24027"": 100}",Howard,24027,False,False,America/New_York,"(39.21047, -76.88353)",54.99793534780343,5808011.0,535_0_yes,38.63202792675797,-77.58638344618704,40.0
22003,38.8308,-77.21402,Annandale,VA,Virginia,True,,58252.0,1780.2,51059,Fairfax,"{""51059"": 100}",Fairfax,51059,False,False,America/New_York,"(38.8308, -77.21402)",24.3191478948321,5808011.0,535_0_yes,38.63202792675797,-77.58638344618704,40.0
22015,38.78784,-77.28136,Burke,VA,Virginia,True,,45028.0,2048.6,51059,Fairfax,"{""51059"": 100}",Fairfax,51059,False,False,America/New_York,"(38.78784, -77.28136)",19.655724109030835,5808011.0,535_0_yes,38.63202792675797,-77.58638344618704,40.0
22025,38.59874,-77.3491,Dumfries,VA,Virginia,True,,19634.0,787.0,51153,Prince William,"{""51153"": 100}",Prince William,51153,False,False,America/New_York,"(38.59874, -77.3491)",13.0148984485834,5808011.0,535_0_yes,38.63202792675797,-77.58638344618704,40.0
22026,38.56717,-77.29476,Dumfries,VA,Virginia,True,,16701.0,768.4,51153,Prince William,"{""51153"": 100}",Prince William,51153,False,False,America/New_York,"(38.56717, -77.29476)",16.37235587405945,5808011.0,535_0_yes,38.63202792675797,-77.58638344618704,40.0
22027,38.89411,-77.22159,Dunn Loring,VA,Virginia,True,,2427.0,1470.7,51059,Fairfax,"{""51059"": 100}",Fairfax,51059,False,False,America/New_York,"(38.89411, -77.22159)",26.723638872061414,5808011.0,535_0_yes,38.63202792675797,-77.58638344618704,40.0
22030,38.83891,-77.34188,Fairfax,VA,Virginia,True,,60220.0,1195.7,51059,Fairfax,"{""51059"": 76.11, ""51600"": 23.89}",Fairfax|Fairfax,51059|51600,False,False,America/New_York,"(38.83891, -77.34188)",19.44159326101402,5808011.0,535_0_yes,38.63202792675797,-77.58638344618704,40.0
22031,38.85954,-77.2599,Fairfax,VA,Virginia,True,,35110.0,1902.1,51059,Fairfax,"{""51059"": 82.35, ""51600"": 17.65}",Fairfax|Fairfax,51059|51600,False,False,America/New_York,"(38.85954, -77.2599)",23.59316253192749,5808011.0,535_0_yes,38.63202792675797,-77.58638344618704,40.0
22032,38.82012,-77.29032,Fairfax,VA,Virginia,True,,31103.0,1662.2,51059,Fairfax,"{""51059"": 95.4, ""51600"": 4.6}",Fairfax|Fairfax,51059|51600,False,False,America/New_York,"(38.82012, -77.29032)",20.580888066429022,5808011.0,535_0_yes,38.63202792675797,-77.58638344618704,40.0
22033,38.87564,-77.38419,Fairfax,VA,Virginia,True,,38724.0,1911.8,51059,Fairfax,"{""51059"": 100}",Fairfax,51059,False,False,America/New_York,"(38.87564, -77.38419)",20.050120783103086,5808011.0,535_0_yes,38.63202792675797,-77.58638344618704,40.0
22035,38.85628,-77.36269,Fairfax,VA,Virginia,True,,183.0,1680.3,51059,Fairfax,"{""51059"": 100}",Fairfax,51059,False,False,America/New_York,"(38.85628, -77.36269)",19.63133737937812,5808011.0,535_0_yes,38.63202792675797,-77.58638344618704,40.0
22039,38.74992,-77.31536,Fairfax Station,VA,Virginia,True,,18095.0,295.8,51059,Fairfax,"{""51059"": 100}",Fairfax,51059,False,False,America/New_York,"(38.74992, -77.31536)",16.732640701694077,5808011.0,535_0_yes,38.63202792675797,-77.58638344618704,40.0
22041,38.8485,-77.14212,Falls Church,VA,Virginia,True,,28476.0,3962.2,51059,Fairfax,"{""51059"": 100}",Fairfax,51059,False,False,America/New_York,"(38.8485, -77.14212)",28.230102802915653,5808011.0,535_0_yes,38.63202792675797,-77.58638344618704,40.0
22042,38.86463,-77.19406,Falls Church,VA,Virginia,True,,36744.0,2209.4,51059,Fairfax,"{""51059"": 99.09, ""51610"": 0.91}",Fairfax|Falls Church,51059|51610,False,False,America/New_York,"(38.86463, -77.19406)",26.555916247013304,5808011.0,535_0_yes,38.63202792675797,-77.58638344618704,40.0
22043,38.90076,-77.19746,Falls Church,VA,Virginia,True,,25012.0,2066.8,51059,Fairfax,"{""51059"": 98.86, ""51610"": 1.14}",Fairfax|Falls Church,51059|51610,False,False,America/New_York,"(38.90076, -77.19746)",27.995562480924228,5808011.0,535_0_yes,38.63202792675797,-77.58638344618704,40.0
22044,38.85957,-77.15627,Falls Church,VA,Virginia,True,,14078.0,2537.6,51059,Fairfax,"{""51059"": 94.24, ""51610"": 5.76}",Fairfax|Falls Church,51059|51610,False,False,America/New_York,"(38.85957, -77.15627)",28.006895078079246,5808011.0,535_0_yes,38.63202792675797,-77.58638344618704,40.0
22046,38.88696,-77.18025,Falls Church,VA,Virginia,True,,18639.0,2642.0,51610,Falls Church,"{""51610"": 66.38, ""51059"": 33.62}",Falls Church|Fairfax,51610|51059,False,False,America/New_York,"(38.88696, -77.18025)",28.090147151183626,5808011.0,535_0_yes,38.63202792675797,-77.58638344618704,40.0
22060,38.70525,-77.15636,Fort Belvoir,VA,Virginia,True,,9800.0,288.1,51059,Fairfax,"{""51059"": 100}",Fairfax,51059,False,False,America/New_York,"(38.70525, -77.15636)",23.743379327829693,5808011.0,535_0_yes,38.63202792675797,-77.58638344618704,40.0
22066,39.01032,-77.30258,Great Falls,VA,Virginia,True,,17393.0,262.5,51059,Fairfax,"{""51059"": 99.12, ""51107"": 0.88}",Fairfax|Loudoun,51059|51107,False,False,America/New_York,"(39.01032, -77.30258)",30.27485025220605,5808011.0,535_0_yes,38.63202792675797,-77.58638344618704,40.0
22079,38.67998,-77.2055,Lorton,VA,Virginia,True,,36839.0,500.4,51059,Fairfax,"{""51059"": 100}",Fairfax,51059,False,False,America/New_York,"(38.67998, -77.2055)",20.816198825908266,5808011.0,535_0_yes,38.63202792675797,-77.58638344618704,40.0
22101,38.9386,-77.16513,McLean,VA,Virginia,True,,30598.0,901.6,51059,Fairfax,"{""51059"": 99.46, ""51013"": 0.54}",Fairfax|Arlington,51059|51013,False,False,America/New_York,"(38.9386, -77.16513)",31.039022932230214,5808011.0,535_0_yes,38.63202792675797,-77.58638344618704,40.0
22102,38.95199,-77.22901,McLean,VA,Virginia,True,,26875.0,843.1,51059,Fairfax,"{""51059"": 100}",Fairfax,51059,False,False,America/New_York,"(38.95199, -77.22901)",29.31083138401408,5808011.0,535_0_yes,38.63202792675797,-77.58638344618704,40.0
22124,38.8909,-77.33025,Oakton,VA,Virginia,True,,18377.0,687.1,51059,Fairfax,"{""51059"": 100}",Fairfax,51059,False,False,America/New_York,"(38.8909, -77.33025)",22.59086120906864,5808011.0,535_0_yes,38.63202792675797,-77.58638344618704,40.0
22125,38.68217,-77.26073,Occoquan,VA,Virginia,True,,797.0,2030.4,51153,Prince William,"{""51153"": 100}",Prince William,51153,False,False,America/New_York,"(38.68217, -77.26073)",17.90889902393008,5808011.0,535_0_yes,38.63202792675797,-77.58638344618704,40.0
22134,38.53186,-77.409,Quantico,VA,Virginia,True,,7354.0,60.2,51179,Stafford,"{""51179"": 76.56, ""51153"": 23.44}",Stafford|Prince William,51179|51153,False,False,America/New_York,"(38.53186, -77.409)",11.819055846153036,5808011.0,535_0_yes,38.63202792675797,-77.58638344618704,40.0
22150,38.77198,-77.18605,Springfield,VA,Virginia,True,,29585.0,1498.4,51059,Fairfax,"{""51059"": 100}",Fairfax,51059,False,False,America/New_York,"(38.77198, -77.18605)",23.65325341407759,5808011.0,535_0_yes,38.63202792675797,-77.58638344618704,40.0
22151,38.80283,-77.2096,Springfield,VA,Virginia,True,,18631.0,1414.0,51059,Fairfax,"{""51059"": 100}",Fairfax,51059,False,False,America/New_York,"(38.80283, -77.2096)",23.491580571291923,5808011.0,535_0_yes,38.63202792675797,-77.58638344618704,40.0
22152,38.77564,-77.23149,Springfield,VA,Virginia,True,,30314.0,1941.2,51059,Fairfax,"{""51059"": 100}",Fairfax,51059,False,False,America/New_York,"(38.77564, -77.23149)",21.555393716013086,5808011.0,535_0_yes,38.63202792675797,-77.58638344618704,40.0
22153,38.74443,-77.23451,Springfield,VA,Virginia,True,,31897.0,1390.3,51059,Fairfax,"{""51059"": 100}",Fairfax,51059,False,False,America/New_York,"(38.74443, -77.23451)",20.50469194325296,5808011.0,535_0_yes,38.63202792675797,-77.58638344618704,40.0
22172,38.5742,-77.3895,Triangle,VA,Virginia,True,,11494.0,215.4,51153,Prince William,"{""51153"": 100}",Prince William,51153,False,False,America/New_York,"(38.5742, -77.3895)",11.35688546985121,5808011.0,535_0_yes,38.63202792675797,-77.58638344618704,40.0
22180,38.89619,-77.25426,Vienna,VA,Virginia,True,,24011.0,1573.4,51059,Fairfax,"{""51059"": 100}",Fairfax,51059,False,False,America/New_York,"(38.89619, -77.25426)",25.559423820025987,5808011.0,535_0_yes,38.63202792675797,-77.58638344618704,40.0
22181,38.9053,-77.29466,Vienna,VA,Virginia,True,,14531.0,1005.2,51059,Fairfax,"{""51059"": 100}",Fairfax,51059,False,False,America/New_York,"(38.9053, -77.29466)",24.56572721574052,5808011.0,535_0_yes,38.63202792675797,-77.58638344618704,40.0
22182,38.93611,-77.2736,Vienna,VA,Virginia,True,,25985.0,803.1,51059,Fairfax,"{""51059"": 100}",Fairfax,51059,False,False,America/New_York,"(38.93611, -77.2736)",26.929854789222883,5808011.0,535_0_yes,38.63202792675797,-77.58638344618704,40.0
22191,38.6249,-77.26849,Woodbridge,VA,Virginia,True,,73081.0,1829.0,51153,Prince William,"{""51153"": 100}",Prince William,51153,False,False,America/New_York,"(38.6249, -77.26849)",17.16583338044917,5808011.0,535_0_yes,38.63202792675797,-77.58638344618704,40.0
22192,38.68358,-77.31821,Woodbridge,VA,Virginia,True,,59670.0,1199.7,51153,Prince William,"{""51153"": 100}",Prince William,51153,False,False,America/New_York,"(38.68358, -77.31821)",14.901106871714479,5808011.0,535_0_yes,38.63202792675797,-77.58638344618704,40.0
22193,38.64233,-77.34881,Woodbridge,VA,Virginia,True,,82060.0,1733.1,51153,Prince William,"{""51153"": 100}",Prince William,51153,False,False,America/New_York,"(38.64233, -77.34881)",12.841563521711448,5808011.0,535_0_yes,38.63202792675797,-77.58638344618704,40.0
22201,38.88684,-77.09501,Arlington,VA,Virginia,True,,38990.0,6559.9,51013,Arlington,"{""51013"": 100}",Arlington,51013,False,False,America/New_York,"(38.88684, -77.09501)",31.793687071065083,5808011.0,535_0_yes,38.63202792675797,-77.58638344618704,40.0
22202,38.8569,-77.05175,Arlington,VA,Virginia,True,,26742.0,2632.9,51013,Arlington,"{""51013"": 100}",Arlington,51013,False,False,America/New_York,"(38.8569, -77.05175)",32.73325848700022,5808011.0,535_0_yes,38.63202792675797,-77.58638344618704,40.0
22203,38.87377,-77.1164,Arlington,VA,Virginia,True,,24841.0,6110.4,51013,Arlington,"{""51013"": 99.07, ""51059"": 0.93}",Arlington|Fairfax,51013|51059,False,False,America/New_York,"(38.87377, -77.1164)",30.336160227531906,5808011.0,535_0_yes,38.63202792675797,-77.58638344618704,40.0
22204,38.86076,-77.09894,Arlington,VA,Virginia,True,,53855.0,5048.8,51013,Arlington,"{""51013"": 100}",Arlington,51013,False,False,America/New_York,"(38.86076, -77.09894)",30.654886713318852,5808011.0,535_0_yes,38.63202792675797,-77.58638344618704,40.0
22205,38.88337,-77.13948,Arlington,VA,Virginia,True,,18570.0,2628.2,51013,Arlington,"{""51013"": 100}",Arlington,51013,False,False,America/New_York,"(38.88337, -77.13948)",29.687756111849747,5808011.0,535_0_yes,38.63202792675797,-77.58638344618704,40.0
22206,38.8442,-77.0886,Arlington,VA,Virginia,True,,20716.0,3880.7,51013,Arlington,"{""51013"": 96.76, ""51510"": 3.24}",Arlington|Alexandria,51013|51510,False,False,America/New_York,"(38.8442, -77.0886)",30.571482662053892,5808011.0,535_0_yes,38.63202792675797,-77.58638344618704,40.0
22207,38.90665,-77.12384,Arlington,VA,Virginia,True,,34113.0,2041.0,51013,Arlington,"{""51013"": 99.37, ""51059"": 0.63}",Arlington|Fairfax,51013|51059,False,False,America/New_York,"(38.90665, -77.12384)",31.3193869016902,5808011.0,535_0_yes,38.63202792675797,-77.58638344618704,40.0
22209,38.89413,-77.07309,Arlington,VA,Virginia,True,,13172.0,6792.5,51013,Arlington,"{""51013"": 100}",Arlington,51013,False,False,America/New_York,"(38.89413, -77.07309)",33.055645479991995,5808011.0,535_0_yes,38.63202792675797,-77.58638344618704,40.0
22211,38.88011,-77.07482,Fort Myer,VA,Virginia,True,,1482.0,531.6,51013,Arlington,"{""51013"": 100}",Arlington,51013,False,False,America/New_York,"(38.88011, -77.07482)",32.45816626433313,5808011.0,535_0_yes,38.63202792675797,-77.58638344618704,40.0
22213,38.89459,-77.16239,Arlington,VA,Virginia,True,,4168.0,2720.0,51013,Arlington,"{""51013"": 100}",Arlington,51013,False,False,America/New_York,"(38.89459, -77.16239)",29.169966547612358,5808011.0,535_0_yes,38.63202792675797,-77.58638344618704,40.0
22301,38.81995,-77.05934,Alexandria,VA,Virginia,True,,13188.0,3668.6,51510,Alexandria,"{""51510"": 100}",Alexandria,51510,False,False,America/New_York,"(38.81995, -77.05934)",31.235694630013732,5808011.0,535_0_yes,38.63202792675797,-77.58638344618704,40.0
22302,38.82799,-77.08432,Alexandria,VA,Virginia,True,,17985.0,3062.4,51510,Alexandria,"{""51510"": 95.58, ""51059"": 4.42}",Alexandria|Fairfax,51510|51059,False,False,America/New_York,"(38.82799, -77.08432)",30.259347440839363,5808011.0,535_0_yes,38.63202792675797,-77.58638344618704,40.0
22303,38.794,-77.08175,Alexandria,VA,Virginia,True,,14688.0,2950.2,51059,Fairfax,"{""51059"": 100}",Fairfax,51059,False,False,America/New_York,"(38.794, -77.08175)",29.41796957407683,5808011.0,535_0_yes,38.63202792675797,-77.58638344618704,40.0
22304,38.81361,-77.11498,Alexandria,VA,Virginia,True,,49262.0,3924.7,51510,Alexandria,"{""51510"": 96.62, ""51059"": 3.38}",Alexandria|Fairfax,51510|51059,False,False,America/New_York,"(38.81361, -77.11498)",28.33956276257196,5808011.0,535_0_yes,38.63202792675797,-77.58638344618704,40.0
22305,38.83655,-77.06234,Alexandria,VA,Virginia,True,,18377.0,5328.4,51510,Alexandria,"{""51510"": 100}",Alexandria,51510,False,False,America/New_York,"(38.83655, -77.06234)",31.58197170530975,5808011.0,535_0_yes,38.63202792675797,-77.58638344618704,40.0
22306,38.75655,-77.09254,Alexandria,VA,Virginia,True,,34391.0,1956.6,51059,Fairfax,"{""51059"": 100}",Fairfax,51059,False,False,America/New_York,"(38.75655, -77.09254)",27.986685586406633,5808011.0,535_0_yes,38.63202792675797,-77.58638344618704,40.0
22307,38.7708,-77.05694,Alexandria,VA,Virginia,True,,10286.0,1275.3,51059,Fairfax,"{""51059"": 100}",Fairfax,51059,False,False,America/New_York,"(38.7708, -77.05694)",30.11548287065373,5808011.0,535_0_yes,38.63202792675797,-77.58638344618704,40.0
22308,38.72957,-77.05876,Alexandria,VA,Virginia,True,,12980.0,1130.0,51059,Fairfax,"{""51059"": 100}",Fairfax,51059,False,False,America/New_York,"(38.72957, -77.05876)",29.245557674896205,5808011.0,535_0_yes,38.63202792675797,-77.58638344618704,40.0
22309,38.71931,-77.10724,Alexandria,VA,Virginia,True,,36110.0,1852.4,51059,Fairfax,"{""51059"": 100}",Fairfax,51059,False,False,America/New_York,"(38.71931, -77.10724)",26.539663793579265,5808011.0,535_0_yes,38.63202792675797,-77.58638344618704,40.0
22310,38.78447,-77.12231,Alexandria,VA,Virginia,True,,32329.0,1851.2,51059,Fairfax,"{""51059"": 100}",Fairfax,51059,False,False,America/New_York,"(38.78447, -77.12231)",27.147649150852075,5808011.0,535_0_yes,38.63202792675797,-77.58638344618704,40.0
22311,38.83442,-77.12313,Alexandria,VA,Virginia,True,,18890.0,4712.7,51510,Alexandria,"{""51510"": 76.41, ""51059"": 23.59}",Alexandria|Fairfax,51510|51059,False,False,America/New_York,"(38.83442, -77.12313)",28.61747920412192,5808011.0,535_0_yes,38.63202792675797,-77.58638344618704,40.0
22312,38.81685,-77.15372,Alexandria,VA,Virginia,True,,30327.0,2284.4,51059,Fairfax,"{""51059"": 91.6, ""51510"": 8.4}",Fairfax|Alexandria,51059|51510,False,False,America/New_York,"(38.81685, -77.15372)",26.58952722415784,5808011.0,535_0_yes,38.63202792675797,-77.58638344618704,40.0
22314,38.80732,-77.0563,Alexandria,VA,Virginia,True,,35208.0,3672.5,51510,Alexandria,"{""51510"": 100}",Alexandria,51510,False,False,America/New_York,"(38.80732, -77.0563)",31.03628171038927,5808011.0,535_0_yes,38.63202792675797,-77.58638344618704,40.0
22315,38.75735,-77.14803,Alexandria,VA,Virginia,True,,29634.0,2077.7,51059,Fairfax,"{""51059"": 100}",Fairfax,51059,False,False,America/New_York,"(38.75735, -77.14803)",25.17486176981426,5808011.0,535_0_yes,38.63202792675797,-77.58638344618704,40.0
22401,38.29928,-77.48704,Fredericksburg,VA,Virginia,True,,29059.0,1082.4,51630,Fredericksburg,"{""51630"": 100}",Fredericksburg,51630,False,False,America/New_York,"(38.29928, -77.48704)",23.61049525131752,5808011.0,535_0_yes,38.63202792675797,-77.58638344618704,40.0
22405,38.31568,-77.40377,Fredericksburg,VA,Virginia,True,,33482.0,242.5,51179,Stafford,"{""51179"": 100}",Stafford,51179,False,False,America/New_York,"(38.31568, -77.40377)",23.98599829560418,5808011.0,535_0_yes,38.63202792675797,-77.58638344618704,40.0
22406,38.39964,-77.55596,Fredericksburg,VA,Virginia,True,,25665.0,136.3,51179,Stafford,"{""51179"": 95.39, ""51061"": 4.61}",Stafford|Fauquier,51179|51061,False,False,America/New_York,"(38.39964, -77.55596)",16.14049416839942,5808011.0,535_0_yes,38.63202792675797,-77.58638344618704,40.0
22407,38.28581,-77.58055,Fredericksburg,VA,Virginia,True,,59551.0,376.9,51177,Spotsylvania,"{""51177"": 97.26, ""51047"": 2.63, ""51630"": 0.11}",Spotsylvania|Culpeper|Fredericksburg,51177|51047|51630,False,False,America/New_York,"(38.28581, -77.58055)",23.923462215484964,5808011.0,535_0_yes,38.63202792675797,-77.58638344618704,40.0
22408,38.21916,-77.44013,Fredericksburg,VA,Virginia,True,,30129.0,245.8,51177,Spotsylvania,"{""51177"": 82.83, ""51033"": 17.17}",Spotsylvania|Caroline,51177|51033,False,False,America/New_York,"(38.21916, -77.44013)",29.60455153984439,5808011.0,535_0_yes,38.63202792675797,-77.58638344618704,40.0
22427,38.07177,-77.28624,Bowling Green,VA,Virginia,True,,5259.0,19.2,51033,Caroline,"{""51033"": 100}",Caroline,51033,False,False,America/New_York,"(38.07177, -77.28624)",41.987537142476825,5808011.0,535_0_yes,38.63202792675797,-77.58638344618704,40.0
22433,38.35875,-77.86093,Burr Hill,VA,Virginia,True,,402.0,41.5,51137,Orange,"{""51137"": 100}",Orange,51137,False,False,America/New_York,"(38.35875, -77.86093)",24.01950871657348,5808011.0,535_0_yes,38.63202792675797,-77.58638344618704,40.0
22443,38.18078,-76.99776,Colonial Beach,VA,Virginia,True,,8906.0,58.0,51193,Westmoreland,"{""51193"": 99.69, ""51099"": 0.31}",Westmoreland|King George,51193|51099,False,False,America/New_York,"(38.18078, -76.99776)",44.58432412172757,5808011.0,535_0_yes,38.63202792675797,-77.58638344618704,40.0
22448,38.33996,-77.03238,Dahlgren,VA,Virginia,True,,714.0,67.3,51099,King George,"{""51099"": 100}",King George,51099,False,False,America/New_York,"(38.33996, -77.03238)",36.12442251537594,5808011.0,535_0_yes,38.63202792675797,-77.58638344618704,40.0
22485,38.2717,-77.15996,King George,VA,Virginia,True,,25997.0,57.1,51099,King George,"{""51099"": 99.77, ""51193"": 0.23}",King George|Westmoreland,51099|51193,False,False,America/New_York,"(38.2717, -77.15996)",33.94410394386914,5808011.0,535_0_yes,38.63202792675797,-77.58638344618704,40.0
22508,38.31732,-77.7913,Locust Grove,VA,Virginia,True,,15323.0,102.8,51137,Orange,"{""51137"": 90.38, ""51177"": 9.62}",Orange|Spotsylvania,51137|51177,False,False,America/New_York,"(38.31732, -77.7913)",24.406442028588103,5808011.0,535_0_yes,38.63202792675797,-77.58638344618704,40.0
22509,38.10642,-77.06669,Loretto,VA,Virginia,True,,55.0,1.4,51057,Essex,"{""51057"": 100}",Essex,51057,False,False,America/New_York,"(38.10642, -77.06669)",45.94989810604485,5808011.0,535_0_yes,38.63202792675797,-77.58638344618704,40.0
22534,38.08473,-77.67062,Partlow,VA,Virginia,True,,2910.0,33.9,51177,Spotsylvania,"{""51177"": 100}",Spotsylvania,51177,False,False,America/New_York,"(38.08473, -77.67062)",38.089091085083844,5808011.0,535_0_yes,38.63202792675797,-77.58638344618704,40.0
22535,38.12314,-77.19619,Port Royal,VA,Virginia,True,,432.0,3.9,51033,Caroline,"{""51033"": 100}",Caroline,51033,False,False,America/New_York,"(38.12314, -77.19619)",41.02379351193299,5808011.0,535_0_yes,38.63202792675797,-77.58638344618704,40.0
22538,38.18941,-77.27334,Rappahannock Academy,VA,Virginia,True,,177.0,2.8,51033,Caroline,"{""51033"": 100}",Caroline,51033,False,False,America/New_York,"(38.18941, -77.27334)",34.96418630667234,5808011.0,535_0_yes,38.63202792675797,-77.58638344618704,40.0
22542,38.29348,-77.88837,Rhoadesville,VA,Virginia,True,,1846.0,41.8,51137,Orange,"{""51137"": 100}",Orange,51137,False,False,America/New_York,"(38.29348, -77.88837)",28.532083415018427,5808011.0,535_0_yes,38.63202792675797,-77.58638344618704,40.0
22551,38.17273,-77.70575,Spotsylvania,VA,Virginia,True,,20218.0,46.4,51177,Spotsylvania,"{""51177"": 99.39, ""51137"": 0.61}",Spotsylvania|Orange,51177|51137,False,False,America/New_York,"(38.17273, -77.70575)",32.38594171537403,5808011.0,535_0_yes,38.63202792675797,-77.58638344618704,40.0
22553,38.26594,-77.6397,Spotsylvania,VA,Virginia,True,,15960.0,141.4,51177,Spotsylvania,"{""51177"": 100}",Spotsylvania,51177,False,False,America/New_York,"(38.26594, -77.6397)",25.45826463226524,5808011.0,535_0_yes,38.63202792675797,-77.58638344618704,40.0
22554,38.42285,-77.3835,Stafford,VA,Virginia,True,,57488.0,346.2,51179,Stafford,"{""51179"": 100}",Stafford,51179,False,False,America/New_York,"(38.42285, -77.3835)",18.142336483157337,5808011.0,535_0_yes,38.63202792675797,-77.58638344618704,40.0
22556,38.48624,-77.513,Stafford,VA,Virginia,True,,31545.0,262.8,51179,Stafford,"{""51179"": 99.18, ""51061"": 0.82}",Stafford|Fauquier,51179|51061,False,False,America/New_York,"(38.48624, -77.513)",10.825189883801393,5808011.0,535_0_yes,38.63202792675797,-77.58638344618704,40.0
22567,38.23395,-77.92401,Unionville,VA,Virginia,True,,3336.0,28.5,51137,Orange,"{""51137"": 99.35, ""51177"": 0.65}",Orange|Spotsylvania,51137|51177,False,False,America/New_York,"(38.23395, -77.92401)",33.021459811711686,5808011.0,535_0_yes,38.63202792675797,-77.58638344618704,40.0
22580,38.10941,-77.44419,Woodford,VA,Virginia,True,,5467.0,22.3,51033,Caroline,"{""51033"": 89.9, ""51177"": 10.1}",Caroline|Spotsylvania,51033|51177,False,False,America/New_York,"(38.10941, -77.44419)",36.92183864773148,5808011.0,535_0_yes,38.63202792675797,-77.58638344618704,40.0
22601,39.1743,-78.1743,Winchester,VA,Virginia,True,,29192.0,1153.1,51840,Winchester,"{""51840"": 94.0, ""51069"": 6.0}",Winchester|Frederick,51840|51069,False,False,America/New_York,"(39.1743, -78.1743)",49.021267782859574,5808011.0,535_0_yes,38.63202792675797,-77.58638344618704,40.0
22602,39.1508,-78.26555,Winchester,VA,Virginia,True,,30665.0,104.4,51069,Frederick,"{""51069"": 100}",Frederick,51069,False,False,America/New_York,"(39.1508, -78.26555)",51.17380191314054,5808011.0,535_0_yes,38.63202792675797,-77.58638344618704,40.0
22610,38.81803,-78.28102,Bentonville,VA,Virginia,True,,1499.0,11.1,51187,Warren,"{""51187"": 100}",Warren,51187,False,False,America/New_York,"(38.81803, -78.28102)",39.58745920677747,5808011.0,535_0_yes,38.63202792675797,-77.58638344618704,40.0
22611,39.16374,-77.98512,Berryville,VA,Virginia,True,,9059.0,42.2,51043,Clarke,"{""51043"": 100}",Clarke,51043,False,False,America/New_York,"(39.16374, -77.98512)",42.53686534999752,5808011.0,535_0_yes,38.63202792675797,-77.58638344618704,40.0
22620,39.06417,-78.03317,Boyce,VA,Virginia,True,,2865.0,24.2,51043,Clarke,"{""51043"": 100}",Clarke,51043,False,False,America/New_York,"(39.06417, -78.03317)",38.33425903595313,5808011.0,535_0_yes,38.63202792675797,-77.58638344618704,40.0
22623,38.85158,-78.13734,Chester Gap,VA,Virginia,True,,892.0,287.3,51157,Rappahannock,"{""51157"": 100}",Rappahannock,51157,False,False,America/New_York,"(38.85158, -78.13734)",33.34223243191924,5808011.0,535_0_yes,38.63202792675797,-77.58638344618704,40.0
22627,38.76554,-78.11371,Flint Hill,VA,Virginia,True,,780.0,9.4,51157,Rappahannock,"{""51157"": 100}",Rappahannock,51157,False,False,America/New_York,"(38.76554, -78.11371)",29.894151746675046,5808011.0,535_0_yes,38.63202792675797,-77.58638344618704,40.0
22630,38.92909,-78.18052,Front Royal,VA,Virginia,True,,33623.0,106.5,51187,Warren,"{""51187"": 97.58, ""51069"": 1.63, ""51043"": 0.6, ""51061"": 0.19}",Warren|Frederick|Clarke|Fauquier,51187|51069|51043|51061,False,False,America/New_York,"(38.92909, -78.18052)",38.0177333565212,5808011.0,535_0_yes,38.63202792675797,-77.58638344618704,40.0
22639,38.82625,-78.0321,Hume,VA,Virginia,True,,526.0,6.2,51061,Fauquier,"{""51061"": 100}",Fauquier,51061,False,False,America/New_York,"(38.82625, -78.0321)",27.518198224169954,5808011.0,535_0_yes,38.63202792675797,-77.58638344618704,40.0
22640,38.80737,-78.13302,Huntly,VA,Virginia,True,,294.0,4.7,51157,Rappahannock,"{""51157"": 100}",Rappahannock,51157,False,False,America/New_York,"(38.80737, -78.13302)",31.86107524793771,5808011.0,535_0_yes,38.63202792675797,-77.58638344618704,40.0
22642,38.91532,-78.06538,Linden,VA,Virginia,True,,4702.0,64.0,51187,Warren,"{""51187"": 52.1, ""51061"": 47.9}",Warren|Fauquier,51187|51061,False,False,America/New_York,"(38.91532, -78.06538)",32.38626320825163,5808011.0,535_0_yes,38.63202792675797,-77.58638344618704,40.0
22643,38.9034,-78.00801,Markham,VA,Virginia,True,,286.0,5.2,51061,Fauquier,"{""51061"": 100}",Fauquier,51061,False,False,America/New_York,"(38.9034, -78.00801)",29.45284403608104,5808011.0,535_0_yes,38.63202792675797,-77.58638344618704,40.0
22645,39.02152,-78.27457,Middletown,VA,Virginia,True,,4321.0,45.9,51069,Frederick,"{""51069"": 56.83, ""51187"": 43.17}",Frederick|Warren,51069|51187,False,False,America/New_York,"(39.02152, -78.27457)",45.78621575078089,5808011.0,535_0_yes,38.63202792675797,-77.58638344618704,40.0
22646,39.07019,-78.04803,Millwood,VA,Virginia,True,,50.0,19.2,51043,Clarke,"{""51043"": 100}",Clarke,51043,False,False,America/New_York,"(39.07019, -78.04803)",39.16072527893882,5808011.0,535_0_yes,38.63202792675797,-77.58638344618704,40.0
22655,39.06443,-78.21425,Stephens City,VA,Virginia,True,,21567.0,235.0,51069,Frederick,"{""51069"": 91.59, ""51187"": 8.41}",Frederick|Warren,51069|51187,False,False,America/New_York,"(39.06443, -78.21425)",45.10045683096924,5808011.0,535_0_yes,38.63202792675797,-77.58638344618704,40.0
22663,39.05,-78.11716,White Post,VA,Virginia,True,,690.0,12.4,51043,Clarke,"{""51043"": 75.32, ""51069"": 16.1, ""51187"": 8.58}",Clarke|Frederick|Warren,51043|51069|51187,False,False,America/New_York,"(39.05, -78.11716)",40.61910633281139,5808011.0,535_0_yes,38.63202792675797,-77.58638344618704,40.0
22701,38.44038,-77.99633,Culpeper,VA,Virginia,True,,34793.0,78.0,51047,Culpeper,"{""51047"": 78.54, ""51137"": 14.26, ""51113"": 7.2}",Culpeper|Orange|Madison,51047|51137|51113,False,False,America/New_York,"(38.44038, -77.99633)",25.811297469993047,5808011.0,535_0_yes,38.63202792675797,-77.58638344618704,40.0
22709,38.32769,-78.21732,Aroda,VA,Virginia,True,,1425.0,47.0,51113,Madison,"{""51113"": 100}",Madison,51113,False,False,America/New_York,"(38.32769, -78.21732)",40.08431509389551,5808011.0,535_0_yes,38.63202792675797,-77.58638344618704,40.0
22711,38.46239,-78.27634,Banco,VA,Virginia,True,,25.0,4.2,51113,Madison,"{""51113"": 100}",Madison,51113,False,False,America/New_York,"(38.46239, -78.27634)",39.08243251653653,5808011.0,535_0_yes,38.63202792675797,-77.58638344618704,40.0
22712,38.55632,-77.75884,Bealeton,VA,Virginia,True,,8209.0,87.4,51061,Fauquier,"{""51061"": 100}",Fauquier,51061,False,False,America/New_York,"(38.55632, -77.75884)",10.681543953183198,5808011.0,535_0_yes,38.63202792675797,-77.58638344618704,40.0
22713,38.54123,-78.13204,Boston,VA,Virginia,True,,1812.0,31.4,51047,Culpeper,"{""51047"": 67.95, ""51157"": 32.05}",Culpeper|Rappahannock,51047|51157,False,False,America/New_York,"(38.54123, -78.13204)",30.13011442978039,5808011.0,535_0_yes,38.63202792675797,-77.58638344618704,40.0
22714,38.52068,-77.89363,Brandy Station,VA,Virginia,True,,1027.0,18.9,51047,Culpeper,"{""51047"": 100}",Culpeper,51047,False,False,America/New_York,"(38.52068, -77.89363)",18.292618376690307,5808011.0,535_0_yes,38.63202792675797,-77.58638344618704,40.0
22715,38.41032,-78.18541,Brightwood,VA,Virginia,True,,1379.0,73.7,51113,Madison,"{""51113"": 100}",Madison,51113,False,False,America/New_York,"(38.41032, -78.18541)",35.82211783416672,5808011.0,535_0_yes,38.63202792675797,-77.58638344618704,40.0
22716,38.62596,-78.10794,Castleton,VA,Virginia,True,,757.0,11.5,51157,Rappahannock,"{""51157"": 97.1, ""51047"": 2.9}",Rappahannock|Culpeper,51157|51047,False,False,America/New_York,"(38.62596, -78.10794)",28.154673148913712,5808011.0,535_0_yes,38.63202792675797,-77.58638344618704,40.0
22718,38.47076,-77.82026,Elkwood,VA,Virginia,True,,579.0,8.9,51047,Culpeper,"{""51047"": 100}",Culpeper,51047,False,False,America/New_York,"(38.47076, -77.82026)",16.84814092363398,5808011.0,535_0_yes,38.63202792675797,-77.58638344618704,40.0
22719,38.52888,-78.28337,Etlan,VA,Virginia,True,,81.0,1.6,51113,Madison,"{""51113"": 100}",Madison,51113,False,False,America/New_York,"(38.52888, -78.28337)",38.31462834874033,5808011.0,535_0_yes,38.63202792675797,-77.58638344618704,40.0
22720,38.48044,-77.6468,Goldvein,VA,Virginia,True,,1060.0,29.6,51061,Fauquier,"{""51061"": 100}",Fauquier,51061,False,False,America/New_York,"(38.48044, -77.6468)",10.970642067191054,5808011.0,535_0_yes,38.63202792675797,-77.58638344618704,40.0
22722,38.46304,-78.22645,Haywood,VA,Virginia,True,,421.0,62.1,51113,Madison,"{""51113"": 100}",Madison,51113,False,False,America/New_York,"(38.46304, -78.22645)",36.5050224372164,5808011.0,535_0_yes,38.63202792675797,-77.58638344618704,40.0
22724,38.63286,-77.90752,Jeffersonton,VA,Virginia,True,,2342.0,55.0,51047,Culpeper,"{""51047"": 100}",Culpeper,51047,False,False,America/New_York,"(38.63286, -77.90752)",17.33295152789456,5808011.0,535_0_yes,38.63202792675797,-77.58638344618704,40.0
22726,38.40179,-77.81796,Lignum,VA,Virginia,True,,886.0,20.2,51047,Culpeper,"{""51047"": 100}",Culpeper,51047,False,False,America/New_York,"(38.40179, -77.81796)",20.243262179116197,5808011.0,535_0_yes,38.63202792675797,-77.58638344618704,40.0
22727,38.39626,-78.30058,Madison,VA,Virginia,True,,5761.0,20.9,51113,Madison,"{""51113"": 100}",Madison,51113,False,False,America/New_York,"(38.39626, -78.30058)",41.90676654086008,5808011.0,535_0_yes,38.63202792675797,-77.58638344618704,40.0
22728,38.57773,-77.68639,Midland,VA,Virginia,True,,2615.0,20.8,51061,Fauquier,"{""51061"": 100}",Fauquier,51061,False,False,America/New_York,"(38.57773, -77.68639)",6.575129384574561,5808011.0,535_0_yes,38.63202792675797,-77.58638344618704,40.0
22729,38.35658,-78.01596,Mitchells,VA,Virginia,True,,1391.0,52.5,51047,Culpeper,"{""51047"": 100}",Culpeper,51047,False,False,America/New_York,"(38.35658, -78.01596)",30.030800443464692,5808011.0,535_0_yes,38.63202792675797,-77.58638344618704,40.0
22730,38.36782,-78.16635,Oakpark,VA,Virginia,True,,211.0,20.2,51113,Madison,"{""51113"": 100}",Madison,51113,False,False,America/New_York,"(38.36782, -78.16635)",36.28671181068163,5808011.0,535_0_yes,38.63202792675797,-77.58638344618704,40.0
22731,38.34413,-78.26151,Pratts,VA,Virginia,True,,35.0,7.1,51113,Madison,"{""51113"": 100}",Madison,51113,False,False,America/New_York,"(38.34413, -78.26151)",41.57899776867448,5808011.0,535_0_yes,38.63202792675797,-77.58638344618704,40.0
22732,38.30886,-78.19153,Radiant,VA,Virginia,True,,89.0,8.6,51113,Madison,"{""51113"": 100}",Madison,51113,False,False,America/New_York,"(38.30886, -78.19153)",39.62548234949049,5808011.0,535_0_yes,38.63202792675797,-77.58638344618704,40.0
22733,38.33191,-78.0467,Rapidan,VA,Virginia,True,,1314.0,11.4,51047,Culpeper,"{""51047"": 50.35, ""51137"": 47.53, ""51113"": 2.12}",Culpeper|Orange|Madison,51047|51137|51113,False,False,America/New_York,"(38.33191, -78.0467)",32.401267472782195,5808011.0,535_0_yes,38.63202792675797,-77.58638344618704,40.0
22734,38.52757,-77.81119,Remington,VA,Virginia,True,,3641.0,39.3,51061,Fauquier,"{""51061"": 65.3, ""51047"": 34.7}",Fauquier|Culpeper,51061|51047,False,False,America/New_York,"(38.52757, -77.81119)",14.125522724849024,5808011.0,535_0_yes,38.63202792675797,-77.58638344618704,40.0
22735,38.47941,-78.18336,Reva,VA,Virginia,True,,2686.0,32.5,51113,Madison,"{""51113"": 62.84, ""51047"": 37.16}",Madison|Culpeper,51113|51047,False,False,America/New_York,"(38.47941, -78.18336)",33.93520790473259,5808011.0,535_0_yes,38.63202792675797,-77.58638344618704,40.0
22736,38.39633,-77.69673,Richardsville,VA,Virginia,True,,990.0,15.8,51047,Culpeper,"{""51047"": 100}",Culpeper,51047,False,False,America/New_York,"(38.39633, -77.69673)",17.3434485839989,5808011.0,535_0_yes,38.63202792675797,-77.58638344618704,40.0
22737,38.59024,-78.00205,Rixeyville,VA,Virginia,True,,3475.0,32.4,51047,Culpeper,"{""51047"": 100}",Culpeper,51047,False,False,America/New_York,"(38.59024, -78.00205)",22.626598425421104,5808011.0,535_0_yes,38.63202792675797,-77.58638344618704,40.0
22738,38.28692,-78.27685,Rochelle,VA,Virginia,True,,1394.0,22.3,51113,Madison,"{""51113"": 100}",Madison,51113,False,False,America/New_York,"(38.28692, -78.27685)",44.31782115640445,5808011.0,535_0_yes,38.63202792675797,-77.58638344618704,40.0
22740,38.63805,-78.26163,Sperryville,VA,Virginia,True,,922.0,4.8,51157,Rappahannock,"{""51157"": 93.8, ""51047"": 4.29, ""51113"": 1.91}",Rappahannock|Culpeper|Madison,51157|51047|51113,False,False,America/New_York,"(38.63805, -78.26163)",36.44639611119587,5808011.0,535_0_yes,38.63202792675797,-77.58638344618704,40.0
22741,38.44541,-77.86819,Stevensburg,VA,Virginia,True,,209.0,12.4,51047,Culpeper,"{""51047"": 100}",Culpeper,51047,False,False,America/New_York,"(38.44541, -77.86819)",19.955142585332123,5808011.0,535_0_yes,38.63202792675797,-77.58638344618704,40.0
22742,38.4589,-77.71179,Sumerduck,VA,Virginia,True,,1838.0,35.5,51061,Fauquier,"{""51061"": 100}",Fauquier,51061,False,False,America/New_York,"(38.4589, -77.71179)",13.748266975539307,5808011.0,535_0_yes,38.63202792675797,-77.58638344618704,40.0
22747,38.7122,-78.16768,Washington,VA,Virginia,True,,1261.0,11.9,51157,Rappahannock,"{""51157"": 100}",Rappahannock,51157,False,False,America/New_York,"(38.7122, -78.16768)",31.84269873019654,5808011.0,535_0_yes,38.63202792675797,-77.58638344618704,40.0
22749,38.61945,-78.18394,Woodville,VA,Virginia,True,,225.0,3.0,51157,Rappahannock,"{""51157"": 100}",Rappahannock,51157,False,False,America/New_York,"(38.61945, -78.18394)",32.26688539034801,5808011.0,535_0_yes,38.63202792675797,-77.58638344618704,40.0
22923,38.18671,-78.32405,Barboursville,VA,Virginia,True,,5766.0,47.0,51003,Albemarle,"{""51003"": 43.13, ""51137"": 41.95, ""51079"": 14.91}",Albemarle|Orange|Greene,51003|51137|51079,False,False,America/New_York,"(38.18671, -78.32405)",50.41545361050212,5808011.0,535_0_yes,38.63202792675797,-77.58638344618704,40.0
22942,38.10397,-78.19684,Gordonsville,VA,Virginia,True,,10494.0,34.4,51109,Louisa,"{""51109"": 52.08, ""51137"": 34.55, ""51003"": 13.37}",Louisa|Orange|Albemarle,51109|51137|51003,False,False,America/New_York,"(38.10397, -78.19684)",49.24180801191497,5808011.0,535_0_yes,38.63202792675797,-77.58638344618704,40.0
22948,38.35154,-78.12264,Locust Dale,VA,Virginia,True,,143.0,8.0,51113,Madison,"{""51113"": 100}",Madison,51113,False,False,America/New_York,"(38.35154, -78.12264)",34.87968239998549,5808011.0,535_0_yes,38.63202792675797,-77.58638344618704,40.0
22960,38.21992,-78.06624,Orange,VA,Virginia,True,,10319.0,32.7,51137,Orange,"{""51137"": 79.68, ""51113"": 16.22, ""51177"": 4.1}",Orange|Madison|Spotsylvania,51137|51113|51177,False,False,America/New_York,"(38.21992, -78.06624)",38.54091869011278,5808011.0,535_0_yes,38.63202792675797,-77.58638344618704,40.0
22972,38.21746,-78.23451,Somerset,VA,Virginia,True,,430.0,10.1,51137,Orange,"{""51137"": 95.24, ""51113"": 4.76}",Orange|Madison,51137|51113,False,False,America/New_York,"(38.21746, -78.23451)",45.29078008234761,5808011.0,535_0_yes,38.63202792675797,-77.58638344618704,40.0
22989,38.29328,-78.11943,Woodberry Forest,VA,Virginia,True,,19.0,4.2,51113,Madison,"{""51113"": 100}",Madison,51113,False,False,America/New_York,"(38.29328, -78.11943)",37.140948109747605,5808011.0,535_0_yes,38.63202792675797,-77.58638344618704,40.0
