zip,lat,lng,city,state_id,state_name,zcta,parent_zcta,population,density,county_fips,county_name,county_weights,county_names_all,county_fips_all,imprecise,military,timezone,Coord,distance_miles,market_total_population,market_id,market_center_lat,market_center_lng,radius_miles
25003,38.25101,-81.77925,Alum Creek,WV,West Virginia,True,,2315.0,24.0,54039,Kanawha,"{""54039"": 70.54, ""54043"": 29.36, ""54005"": 0.1}",Kanawha|Lincoln|Boone,54039|54043|54005,False,False,America/New_York,"(38.25101, -81.77925)",31.188761985993594,737897.0,538_0_yes,38.66007296452762,-82.0229841175522,40.0
25009,38.19237,-81.71301,Ashford,WV,West Virginia,True,,1182.0,16.1,54005,Boone,"{""54005"": 100}",Boone,54005,False,False,America/New_York,"(38.19237, -81.71301)",36.411291100893884,737897.0,538_0_yes,38.66007296452762,-82.0229841175522,40.0
25011,38.51169,-81.8363,Bancroft,WV,West Virginia,True,,541.0,230.2,54079,Putnam,"{""54079"": 100}",Putnam,54079,False,False,America/New_York,"(38.51169, -81.8363)",14.379385464447632,737897.0,538_0_yes,38.66007296452762,-82.0229841175522,40.0
25015,38.24293,-81.49226,Belle,WV,West Virginia,True,,3659.0,47.3,54039,Kanawha,"{""54039"": 100}",Kanawha,54039,False,False,America/New_York,"(38.24293, -81.49226)",40.68614799024276,737897.0,538_0_yes,38.66007296452762,-82.0229841175522,40.0
25024,38.15744,-81.6266,Bloomingrose,WV,West Virginia,True,,620.0,51.4,54005,Boone,"{""54005"": 100}",Boone,54005,False,False,America/New_York,"(38.15744, -81.6266)",40.824450725305205,737897.0,538_0_yes,38.66007296452762,-82.0229841175522,40.0
25025,38.29378,-81.4018,Blount,WV,West Virginia,True,,99.0,2.2,54039,Kanawha,"{""54039"": 100}",Kanawha,54039,False,False,America/New_York,"(38.29378, -81.4018)",42.065039072413896,737897.0,538_0_yes,38.66007296452762,-82.0229841175522,40.0
25033,38.61095,-81.92511,Buffalo,WV,West Virginia,True,,1699.0,26.4,54079,Putnam,"{""54079"": 100}",Putnam,54079,False,False,America/New_York,"(38.61095, -81.92511)",6.27879750555637,737897.0,538_0_yes,38.66007296452762,-82.0229841175522,40.0
25035,38.16339,-81.52399,Cabin Creek,WV,West Virginia,True,,1088.0,33.9,54039,Kanawha,"{""54039"": 100}",Kanawha,54039,False,False,America/New_York,"(38.16339, -81.52399)",43.67490521460193,737897.0,538_0_yes,38.66007296452762,-82.0229841175522,40.0
25039,38.24642,-81.36524,Cedar Grove,WV,West Virginia,True,,1005.0,21.6,54039,Kanawha,"{""54039"": 100}",Kanawha,54039,False,False,America/New_York,"(38.24642, -81.36524)",45.64465613467922,737897.0,538_0_yes,38.66007296452762,-82.0229841175522,40.0
25045,38.45603,-81.32474,Clendenin,WV,West Virginia,True,,4652.0,13.7,54039,Kanawha,"{""54039"": 78.18, ""54087"": 13.88, ""54015"": 7.94}",Kanawha|Roane|Clay,54039|54087|54015,False,False,America/New_York,"(38.45603, -81.32474)",40.273761686887596,737897.0,538_0_yes,38.66007296452762,-82.0229841175522,40.0
25049,38.11954,-81.57315,Comfort,WV,West Virginia,True,,405.0,9.1,54005,Boone,"{""54005"": 100}",Boone,54005,False,False,America/New_York,"(38.11954, -81.57315)",44.58998695732212,737897.0,538_0_yes,38.66007296452762,-82.0229841175522,40.0
25051,38.15885,-81.70929,Costa,WV,West Virginia,True,,182.0,158.2,54005,Boone,"{""54005"": 100}",Boone,54005,False,False,America/New_York,"(38.15885, -81.70929)",38.57150792436468,737897.0,538_0_yes,38.66007296452762,-82.0229841175522,40.0
25054,38.12226,-81.45044,Dawes,WV,West Virginia,True,,282.0,508.5,54039,Kanawha,"{""54039"": 100}",Kanawha,54039,False,False,America/New_York,"(38.12226, -81.45044)",48.39588056452528,737897.0,538_0_yes,38.66007296452762,-82.0229841175522,40.0
25061,38.1751,-81.43342,Drybranch,WV,West Virginia,True,,524.0,12.9,54039,Kanawha,"{""54039"": 100}",Kanawha,54039,False,False,America/New_York,"(38.1751, -81.43342)",46.275529958227835,737897.0,538_0_yes,38.66007296452762,-82.0229841175522,40.0
25064,38.37631,-81.74764,Dunbar,WV,West Virginia,True,,8892.0,513.2,54039,Kanawha,"{""54039"": 100}",Kanawha,54039,False,False,America/New_York,"(38.37631, -81.74764)",24.616280432882238,737897.0,538_0_yes,38.66007296452762,-82.0229841175522,40.0
25067,38.20963,-81.44018,East Bank,WV,West Virginia,True,,1261.0,563.3,54039,Kanawha,"{""54039"": 100}",Kanawha,54039,False,False,America/New_York,"(38.20963, -81.44018)",44.31173326070704,737897.0,538_0_yes,38.66007296452762,-82.0229841175522,40.0
25070,38.54667,-81.93179,Eleanor,WV,West Virginia,True,,1544.0,121.6,54079,Putnam,"{""54079"": 100}",Putnam,54079,False,False,America/New_York,"(38.54667, -81.93179)",9.254178875716416,737897.0,538_0_yes,38.66007296452762,-82.0229841175522,40.0
25071,38.47732,-81.46756,Elkview,WV,West Virginia,True,,11743.0,40.3,54039,Kanawha,"{""54039"": 91.31, ""54087"": 8.69}",Kanawha|Roane,54039|54087,False,False,America/New_York,"(38.47732, -81.46756)",32.55343801954172,737897.0,538_0_yes,38.66007296452762,-82.0229841175522,40.0
25081,38.08235,-81.76875,Foster,WV,West Virginia,True,,1274.0,31.9,54005,Boone,"{""54005"": 100}",Boone,54005,False,False,America/New_York,"(38.08235, -81.76875)",42.22572747089053,737897.0,538_0_yes,38.66007296452762,-82.0229841175522,40.0
25082,38.60861,-82.02879,Fraziers Bottom,WV,West Virginia,True,,1497.0,11.1,54079,Putnam,"{""54079"": 52.15, ""54053"": 47.85}",Putnam|Mason,54079|54053,False,False,America/New_York,"(38.60861, -82.02879)",3.5695329053293867,737897.0,538_0_yes,38.66007296452762,-82.0229841175522,40.0
25086,38.21326,-81.41238,Glasgow,WV,West Virginia,True,,697.0,194.6,54039,Kanawha,"{""54039"": 100}",Kanawha,54039,False,False,America/New_York,"(38.21326, -81.41238)",45.22283696165073,737897.0,538_0_yes,38.66007296452762,-82.0229841175522,40.0
25102,38.16735,-81.35192,Handley,WV,West Virginia,True,,274.0,22.8,54039,Kanawha,"{""54039"": 100}",Kanawha,54039,False,False,America/New_York,"(38.16735, -81.35192)",49.78777358473951,737897.0,538_0_yes,38.66007296452762,-82.0229841175522,40.0
25103,38.18207,-81.38225,Hansford,WV,West Virginia,True,,167.0,15.5,54039,Kanawha,"{""54039"": 100}",Kanawha,54039,False,False,America/New_York,"(38.18207, -81.38225)",47.893169051920864,737897.0,538_0_yes,38.66007296452762,-82.0229841175522,40.0
25106,38.77598,-82.08237,Henderson,WV,West Virginia,True,,604.0,14.7,54053,Mason,"{""54053"": 100}",Mason,54053,False,False,America/New_York,"(38.77598, -82.08237)",8.62460751674246,737897.0,538_0_yes,38.66007296452762,-82.0229841175522,40.0
25107,38.22427,-81.64493,Hernshaw,WV,West Virginia,True,,530.0,11.6,54039,Kanawha,"{""54039"": 100}",Kanawha,54039,False,False,America/New_York,"(38.22427, -81.64493)",36.40386726806751,737897.0,538_0_yes,38.66007296452762,-82.0229841175522,40.0
25109,38.53097,-81.86062,Hometown,WV,West Virginia,True,,595.0,764.7,54079,Putnam,"{""54079"": 100}",Putnam,54079,False,False,America/New_York,"(38.53097, -81.86062)",12.507789995511523,737897.0,538_0_yes,38.66007296452762,-82.0229841175522,40.0
25110,38.21324,-81.3264,Hugheston,WV,West Virginia,True,,436.0,11.9,54039,Kanawha,"{""54039"": 100}",Kanawha,54039,False,False,America/New_York,"(38.21324, -81.3264)",48.72764756117562,737897.0,538_0_yes,38.66007296452762,-82.0229841175522,40.0
25112,38.38103,-81.76633,Institute,WV,West Virginia,True,,122.0,944.5,54039,Kanawha,"{""54039"": 100}",Kanawha,54039,False,False,America/New_York,"(38.38103, -81.76633)",23.75309513574922,737897.0,538_0_yes,38.66007296452762,-82.0229841175522,40.0
25118,38.11882,-81.32294,Kimberly,WV,West Virginia,True,,894.0,62.3,54019,Fayette,"{""54019"": 100}",Fayette,54019,False,False,America/New_York,"(38.11882, -81.32294)",53.25209807210649,737897.0,538_0_yes,38.66007296452762,-82.0229841175522,40.0
25123,38.73172,-81.90214,Leon,WV,West Virginia,True,,2656.0,8.8,54053,Mason,"{""54053"": 80.93, ""54079"": 19.07}",Mason|Putnam,54053|54079,False,False,America/New_York,"(38.73172, -81.90214)",8.183639262379828,737897.0,538_0_yes,38.66007296452762,-82.0229841175522,40.0
25124,38.62006,-81.76536,Liberty,WV,West Virginia,True,,1254.0,14.8,54079,Putnam,"{""54079"": 93.1, ""54039"": 6.13, ""54035"": 0.77}",Putnam|Kanawha|Jackson,54079|54039|54035,False,False,America/New_York,"(38.62006, -81.76536)",14.175595628709353,737897.0,538_0_yes,38.66007296452762,-82.0229841175522,40.0
25126,38.19058,-81.35382,London,WV,West Virginia,True,,66.0,42.9,54039,Kanawha,"{""54039"": 100}",Kanawha,54039,False,False,America/New_York,"(38.19058, -81.35382)",48.62336774515777,737897.0,538_0_yes,38.66007296452762,-82.0229841175522,40.0
25132,38.29328,-81.33441,Mammoth,WV,West Virginia,True,,131.0,3.6,54039,Kanawha,"{""54039"": 100}",Kanawha,54039,False,False,America/New_York,"(38.29328, -81.33441)",45.049574625577044,737897.0,538_0_yes,38.66007296452762,-82.0229841175522,40.0
25134,38.13596,-81.48553,Miami,WV,West Virginia,True,,253.0,4.9,54039,Kanawha,"{""54039"": 100}",Kanawha,54039,False,False,America/New_York,"(38.13596, -81.48553)",46.45775392337186,737897.0,538_0_yes,38.66007296452762,-82.0229841175522,40.0
25136,38.15864,-81.31977,Montgomery,WV,West Virginia,True,,1751.0,131.5,54019,Fayette,"{""54019"": 91.72, ""54039"": 8.28}",Fayette|Kanawha,54019|54039,False,False,America/New_York,"(38.15864, -81.31977)",51.47646509388107,737897.0,538_0_yes,38.66007296452762,-82.0229841175522,40.0
25142,38.15001,-81.73066,Nellis,WV,West Virginia,True,,401.0,31.1,54005,Boone,"{""54005"": 100}",Boone,54005,False,False,America/New_York,"(38.15001, -81.73066)",38.632999113095394,737897.0,538_0_yes,38.66007296452762,-82.0229841175522,40.0
25143,38.42001,-81.82414,Nitro,WV,West Virginia,True,,8926.0,388.2,54039,Kanawha,"{""54039"": 67.22, ""54079"": 32.78}",Kanawha|Putnam,54039|54079,False,False,America/New_York,"(38.42001, -81.82414)",19.76359805419889,737897.0,538_0_yes,38.66007296452762,-82.0229841175522,40.0
25154,38.11572,-81.70249,Peytona,WV,West Virginia,True,,989.0,23.1,54005,Boone,"{""54005"": 100}",Boone,54005,False,False,America/New_York,"(38.11572, -81.70249)",41.42297587568904,737897.0,538_0_yes,38.66007296452762,-82.0229841175522,40.0
25159,38.50186,-81.7806,Poca,WV,West Virginia,True,,4939.0,55.9,54079,Putnam,"{""54079"": 100}",Putnam,54079,False,False,America/New_York,"(38.50186, -81.7806)",17.055484690121975,737897.0,538_0_yes,38.66007296452762,-82.0229841175522,40.0
25162,38.20712,-81.38435,Pratt,WV,West Virginia,True,,323.0,380.7,54039,Kanawha,"{""54039"": 100}",Kanawha,54039,False,False,America/New_York,"(38.20712, -81.38435)",46.627686412848014,737897.0,538_0_yes,38.66007296452762,-82.0229841175522,40.0
25165,38.14907,-81.65308,Racine,WV,West Virginia,True,,852.0,77.5,54005,Boone,"{""54005"": 100}",Boone,54005,False,False,America/New_York,"(38.14907, -81.65308)",40.59194123282758,737897.0,538_0_yes,38.66007296452762,-82.0229841175522,40.0
25168,38.56394,-81.87733,Red House,WV,West Virginia,True,,3815.0,46.2,54079,Putnam,"{""54079"": 100}",Putnam,54079,False,False,America/New_York,"(38.56394, -81.87733)",10.293493423763406,737897.0,538_0_yes,38.66007296452762,-82.0229841175522,40.0
25169,38.12788,-81.76288,Ridgeview,WV,West Virginia,True,,598.0,35.6,54005,Boone,"{""54005"": 100}",Boone,54005,False,False,America/New_York,"(38.12788, -81.76288)",39.37639372922559,737897.0,538_0_yes,38.66007296452762,-82.0229841175522,40.0
25177,38.36928,-81.85021,Saint Albans,WV,West Virginia,True,,23143.0,283.1,54039,Kanawha,"{""54039"": 93.38, ""54079"": 6.62}",Kanawha|Putnam,54039|54079,False,False,America/New_York,"(38.36928, -81.85021)",22.156905491145686,737897.0,538_0_yes,38.66007296452762,-82.0229841175522,40.0
25186,38.17113,-81.29811,Smithers,WV,West Virginia,True,,1023.0,222.0,54019,Fayette,"{""54019"": 100}",Fayette,54019,False,False,America/New_York,"(38.17113, -81.29811)",51.780088539804744,737897.0,538_0_yes,38.66007296452762,-82.0229841175522,40.0
25187,38.72617,-82.01878,Southside,WV,West Virginia,True,,533.0,5.1,54053,Mason,"{""54053"": 100}",Mason,54053,False,False,America/New_York,"(38.72617, -82.01878)",4.572494340584353,737897.0,538_0_yes,38.66007296452762,-82.0229841175522,40.0
25202,38.31593,-81.85372,Tornado,WV,West Virginia,True,,1072.0,31.6,54039,Kanawha,"{""54039"": 52.43, ""54043"": 47.57}",Kanawha|Lincoln,54039|54043,False,False,America/New_York,"(38.31593, -81.85372)",25.47924174661474,737897.0,538_0_yes,38.66007296452762,-82.0229841175522,40.0
25213,38.50776,-81.91796,Winfield,WV,West Virginia,True,,6462.0,69.5,54079,Putnam,"{""54079"": 100}",Putnam,54079,False,False,America/New_York,"(38.50776, -81.91796)",11.955183359436456,737897.0,538_0_yes,38.66007296452762,-82.0229841175522,40.0
25214,38.18947,-81.55127,Winifrede,WV,West Virginia,True,,854.0,49.9,54039,Kanawha,"{""54039"": 100}",Kanawha,54039,False,False,America/New_York,"(38.18947, -81.55127)",41.34268252226984,737897.0,538_0_yes,38.66007296452762,-82.0229841175522,40.0
25239,38.84616,-81.83941,Cottageville,WV,West Virginia,True,,2126.0,28.4,54035,Jackson,"{""54035"": 83.97, ""54053"": 16.03}",Jackson|Mason,54035|54053,False,False,America/New_York,"(38.84616, -81.83941)",16.221983055975738,737897.0,538_0_yes,38.66007296452762,-82.0229841175522,40.0
25241,38.78427,-81.80801,Evans,WV,West Virginia,True,,1846.0,30.5,54035,Jackson,"{""54035"": 71.19, ""54053"": 28.81}",Jackson|Mason,54035|54053,False,False,America/New_York,"(38.78427, -81.80801)",14.419676017309584,737897.0,538_0_yes,38.66007296452762,-82.0229841175522,40.0
25243,38.67841,-81.48216,Gandeeville,WV,West Virginia,True,,421.0,3.0,54087,Roane,"{""54087"": 96.23, ""54035"": 3.77}",Roane|Jackson,54087|54035,False,False,America/New_York,"(38.67841, -81.48216)",29.202637900167282,737897.0,538_0_yes,38.66007296452762,-82.0229841175522,40.0
25244,38.77068,-81.54237,Gay,WV,West Virginia,True,,610.0,7.4,54035,Jackson,"{""54035"": 67.12, ""54087"": 32.88}",Jackson|Roane,54035|54087,False,False,America/New_York,"(38.77068, -81.54237)",27.01388119909781,737897.0,538_0_yes,38.66007296452762,-82.0229841175522,40.0
25245,38.69916,-81.7393,Given,WV,West Virginia,True,,632.0,7.3,54035,Jackson,"{""54035"": 84.89, ""54079"": 15.11}",Jackson|Putnam,54035|54079,False,False,America/New_York,"(38.69916, -81.7393)",15.537841264327758,737897.0,538_0_yes,38.66007296452762,-82.0229841175522,40.0
25247,39.001,-81.98987,Hartford,WV,West Virginia,True,,531.0,161.3,54053,Mason,"{""54053"": 100}",Mason,54053,False,False,America/New_York,"(39.001, -81.98987)",23.623147331723953,737897.0,538_0_yes,38.66007296452762,-82.0229841175522,40.0
25248,38.64255,-81.61454,Kenna,WV,West Virginia,True,,3191.0,18.7,54035,Jackson,"{""54035"": 98.3, ""54039"": 1.7}",Jackson|Kanawha,54035|54039,False,False,America/New_York,"(38.64255, -81.61454)",22.07256878632088,737897.0,538_0_yes,38.66007296452762,-82.0229841175522,40.0
25252,38.88345,-81.53679,Le Roy,WV,West Virginia,True,,1371.0,8.1,54035,Jackson,"{""54035"": 55.54, ""54087"": 26.63, ""54105"": 17.83}",Jackson|Roane|Wirt,54035|54087|54105,False,False,America/New_York,"(38.88345, -81.53679)",30.39974098329984,737897.0,538_0_yes,38.66007296452762,-82.0229841175522,40.0
25253,38.91947,-81.9669,Letart,WV,West Virginia,True,,2269.0,18.6,54053,Mason,"{""54053"": 100}",Mason,54053,False,False,America/New_York,"(38.91947, -81.9669)",18.17535083287144,737897.0,538_0_yes,38.66007296452762,-82.0229841175522,40.0
25260,39.01653,-82.02465,Mason,WV,West Virginia,True,,1328.0,237.4,54053,Mason,"{""54053"": 100}",Mason,54053,False,False,America/New_York,"(39.01653, -82.02465)",24.628998482312287,737897.0,538_0_yes,38.66007296452762,-82.0229841175522,40.0
25262,38.90751,-81.83219,Millwood,WV,West Virginia,True,,1230.0,120.4,54035,Jackson,"{""54035"": 100}",Jackson,54035,False,False,America/New_York,"(38.90751, -81.83219)",19.946908962989216,737897.0,538_0_yes,38.66007296452762,-82.0229841175522,40.0
25264,38.85547,-81.89516,Mount Alto,WV,West Virginia,True,,356.0,19.4,54053,Mason,"{""54053"": 51.03, ""54035"": 48.97}",Mason|Jackson,54053|54035,False,False,America/New_York,"(38.85547, -81.89516)",15.15581341860399,737897.0,538_0_yes,38.66007296452762,-82.0229841175522,40.0
25265,38.98129,-81.97356,New Haven,WV,West Virginia,True,,1672.0,270.9,54053,Mason,"{""54053"": 100}",Mason,54053,False,False,America/New_York,"(38.98129, -81.97356)",22.352885511307772,737897.0,538_0_yes,38.66007296452762,-82.0229841175522,40.0
25270,38.88174,-81.43395,Reedy,WV,West Virginia,True,,799.0,7.5,54087,Roane,"{""54087"": 90.03, ""54105"": 9.97}",Roane|Wirt,54087|54105,False,False,America/New_York,"(38.88174, -81.43395)",35.2335677742751,737897.0,538_0_yes,38.66007296452762,-82.0229841175522,40.0
25271,38.78845,-81.68625,Ripley,WV,West Virginia,True,,9185.0,37.1,54035,Jackson,"{""54035"": 100}",Jackson,54035,False,False,America/New_York,"(38.78845, -81.68625)",20.202729995668008,737897.0,538_0_yes,38.66007296452762,-82.0229841175522,40.0
25275,38.92451,-81.61687,Sandyville,WV,West Virginia,True,,1761.0,11.3,54035,Jackson,"{""54035"": 100}",Jackson,54035,False,False,America/New_York,"(38.92451, -81.61687)",28.498022235552924,737897.0,538_0_yes,38.66007296452762,-82.0229841175522,40.0
25276,38.78803,-81.33203,Spencer,WV,West Virginia,True,,7446.0,17.4,54087,Roane,"{""54087"": 100}",Roane,54087,False,False,America/New_York,"(38.78803, -81.33203)",38.28032176686961,737897.0,538_0_yes,38.66007296452762,-82.0229841175522,40.0
25286,38.62098,-81.39728,Walton,WV,West Virginia,True,,1719.0,11.2,54087,Roane,"{""54087"": 100}",Roane,54087,False,False,America/New_York,"(38.62098, -81.39728)",33.87542530003751,737897.0,538_0_yes,38.66007296452762,-82.0229841175522,40.0
25287,38.96158,-82.04834,West Columbia,WV,West Virginia,True,,1041.0,18.3,54053,Mason,"{""54053"": 100}",Mason,54053,False,False,America/New_York,"(38.96158, -82.04834)",20.876832420443375,737897.0,538_0_yes,38.66007296452762,-82.0229841175522,40.0
25301,38.35123,-81.62761,Charleston,WV,West Virginia,True,,2120.0,610.5,54039,Kanawha,"{""54039"": 100}",Kanawha,54039,False,False,America/New_York,"(38.35123, -81.62761)",30.205026548922984,737897.0,538_0_yes,38.66007296452762,-82.0229841175522,40.0
25302,38.39053,-81.59879,Charleston,WV,West Virginia,True,,12818.0,398.0,54039,Kanawha,"{""54039"": 100}",Kanawha,54039,False,False,America/New_York,"(38.39053, -81.59879)",29.539714367365903,737897.0,538_0_yes,38.66007296452762,-82.0229841175522,40.0
25303,38.36033,-81.68679,South Charleston,WV,West Virginia,True,,6764.0,730.6,54039,Kanawha,"{""54039"": 100}",Kanawha,54039,False,False,America/New_York,"(38.36033, -81.68679)",27.555340506897704,737897.0,538_0_yes,38.66007296452762,-82.0229841175522,40.0
25304,38.30521,-81.59044,Charleston,WV,West Virginia,True,,8732.0,349.2,54039,Kanawha,"{""54039"": 100}",Kanawha,54039,False,False,America/New_York,"(38.30521, -81.59044)",33.8890667006439,737897.0,538_0_yes,38.66007296452762,-82.0229841175522,40.0
25306,38.31071,-81.49087,Charleston,WV,West Virginia,True,,6749.0,70.2,54039,Kanawha,"{""54039"": 100}",Kanawha,54039,False,False,America/New_York,"(38.31071, -81.49087)",37.561817863774856,737897.0,538_0_yes,38.66007296452762,-82.0229841175522,40.0
25309,38.31177,-81.75715,South Charleston,WV,West Virginia,True,,13425.0,166.7,54039,Kanawha,"{""54039"": 100}",Kanawha,54039,False,False,America/New_York,"(38.31177, -81.75715)",28.033009675204948,737897.0,538_0_yes,38.66007296452762,-82.0229841175522,40.0
25311,38.36308,-81.55357,Charleston,WV,West Virginia,True,,10386.0,156.1,54039,Kanawha,"{""54039"": 100}",Kanawha,54039,False,False,America/New_York,"(38.36308, -81.55357)",32.636605114724354,737897.0,538_0_yes,38.66007296452762,-82.0229841175522,40.0
25312,38.46156,-81.656,Charleston,WV,West Virginia,True,,15859.0,86.2,54039,Kanawha,"{""54039"": 100}",Kanawha,54039,False,False,America/New_York,"(38.46156, -81.656)",24.108980206684752,737897.0,538_0_yes,38.66007296452762,-82.0229841175522,40.0
25313,38.41547,-81.75704,Charleston,WV,West Virginia,True,,11611.0,221.4,54039,Kanawha,"{""54039"": 100}",Kanawha,54039,False,False,America/New_York,"(38.41547, -81.75704)",22.185665926141827,737897.0,538_0_yes,38.66007296452762,-82.0229841175522,40.0
25314,38.29705,-81.65463,Charleston,WV,West Virginia,True,,13979.0,165.1,54039,Kanawha,"{""54039"": 100}",Kanawha,54039,False,False,America/New_York,"(38.29705, -81.65463)",32.032666807795785,737897.0,538_0_yes,38.66007296452762,-82.0229841175522,40.0
25315,38.21032,-81.57992,Charleston,WV,West Virginia,True,,3554.0,67.8,54039,Kanawha,"{""54039"": 100}",Kanawha,54039,False,False,America/New_York,"(38.21032, -81.57992)",39.25117393035836,737897.0,538_0_yes,38.66007296452762,-82.0229841175522,40.0
25320,38.54124,-81.62706,Charleston,WV,West Virginia,True,,5482.0,34.9,54039,Kanawha,"{""54039"": 100}",Kanawha,54039,False,False,America/New_York,"(38.54124, -81.62706)",22.901289151236927,737897.0,538_0_yes,38.66007296452762,-82.0229841175522,40.0
25501,38.16035,-81.95582,Alkol,WV,West Virginia,True,,1204.0,17.9,54043,Lincoln,"{""54043"": 100}",Lincoln,54043,False,False,America/New_York,"(38.16035, -81.95582)",34.718515909885774,737897.0,538_0_yes,38.66007296452762,-82.0229841175522,40.0
25502,38.66501,-82.11024,Apple Grove,WV,West Virginia,True,,850.0,13.5,54053,Mason,"{""54053"": 100}",Mason,54053,False,False,America/New_York,"(38.66501, -82.11024)",4.71987049708855,737897.0,538_0_yes,38.66007296452762,-82.0229841175522,40.0
25503,38.60835,-82.11666,Ashton,WV,West Virginia,True,,1336.0,34.0,54053,Mason,"{""54053"": 100}",Mason,54053,False,False,America/New_York,"(38.60835, -82.11666)",6.1914033375664115,737897.0,538_0_yes,38.66007296452762,-82.0229841175522,40.0
25504,38.37297,-82.26674,Barboursville,WV,West Virginia,True,,13249.0,97.9,54011,Cabell,"{""54011"": 90.23, ""54099"": 9.77}",Cabell|Wayne,54011|54099,False,False,America/New_York,"(38.37297, -82.26674)",23.81494810048411,737897.0,538_0_yes,38.66007296452762,-82.0229841175522,40.0
25506,38.20826,-82.18665,Branchland,WV,West Virginia,True,,5563.0,21.1,54043,Lincoln,"{""54043"": 83.88, ""54011"": 16.12}",Lincoln|Cabell,54043|54011,False,False,America/New_York,"(38.20826, -82.18665)",32.44969861658432,737897.0,538_0_yes,38.66007296452762,-82.0229841175522,40.0
25507,38.39945,-82.55193,Ceredo,WV,West Virginia,True,,864.0,482.4,54099,Wayne,"{""54099"": 100}",Wayne,54099,False,False,America/New_York,"(38.39945, -82.55193)",33.78817087560743,737897.0,538_0_yes,38.66007296452762,-82.0229841175522,40.0
25510,38.38832,-82.06599,Culloden,WV,West Virginia,True,,5109.0,59.7,54011,Cabell,"{""54011"": 49.52, ""54043"": 26.93, ""54079"": 23.55}",Cabell|Lincoln|Putnam,54011|54043|54079,False,False,America/New_York,"(38.38832, -82.06599)",18.919701375204315,737897.0,538_0_yes,38.66007296452762,-82.0229841175522,40.0
25512,38.17784,-82.32056,East Lynn,WV,West Virginia,True,,1130.0,8.9,54099,Wayne,"{""54099"": 100}",Wayne,54099,False,False,America/New_York,"(38.17784, -82.32056)",37.00887784349115,737897.0,538_0_yes,38.66007296452762,-82.0229841175522,40.0
25514,38.08136,-82.51678,Fort Gay,WV,West Virginia,True,,4066.0,20.5,54099,Wayne,"{""54099"": 100}",Wayne,54099,False,False,America/New_York,"(38.08136, -82.51678)",48.10723581769398,737897.0,538_0_yes,38.66007296452762,-82.0229841175522,40.0
25515,38.75731,-82.15262,Gallipolis Ferry,WV,West Virginia,True,,1856.0,15.7,54053,Mason,"{""54053"": 100}",Mason,54053,False,False,America/New_York,"(38.75731, -82.15262)",9.694836915370738,737897.0,538_0_yes,38.66007296452762,-82.0229841175522,40.0
25517,38.10989,-82.45368,Genoa,WV,West Virginia,True,,1216.0,11.7,54099,Wayne,"{""54099"": 100}",Wayne,54099,False,False,America/New_York,"(38.10989, -82.45368)",44.60004509002638,737897.0,538_0_yes,38.66007296452762,-82.0229841175522,40.0
25520,38.55773,-82.17899,Glenwood,WV,West Virginia,True,,1200.0,12.2,54011,Cabell,"{""54011"": 54.39, ""54053"": 45.61}",Cabell|Mason,54011|54053,False,False,America/New_York,"(38.55773, -82.17899)",10.99764599359217,737897.0,538_0_yes,38.66007296452762,-82.0229841175522,40.0
25521,38.22915,-81.98641,Griffithsville,WV,West Virginia,True,,825.0,10.0,54043,Lincoln,"{""54043"": 100}",Lincoln,54043,False,False,America/New_York,"(38.22915, -81.98641)",29.839650090011617,737897.0,538_0_yes,38.66007296452762,-82.0229841175522,40.0
25523,38.27934,-82.06754,Hamlin,WV,West Virginia,True,,2775.0,27.5,54043,Lincoln,"{""54043"": 89.03, ""54079"": 10.97}",Lincoln|Putnam,54043|54079,False,False,America/New_York,"(38.27934, -82.06754)",26.416330898779332,737897.0,538_0_yes,38.66007296452762,-82.0229841175522,40.0
25526,38.3984,-81.98279,Hurricane,WV,West Virginia,True,,22135.0,93.7,54079,Putnam,"{""54079"": 98.63, ""54043"": 1.11, ""54053"": 0.26}",Putnam|Lincoln|Mason,54079|54043|54053,False,False,America/New_York,"(38.3984, -81.98279)",18.209940853235217,737897.0,538_0_yes,38.66007296452762,-82.0229841175522,40.0
25529,38.15573,-81.8245,Julian,WV,West Virginia,True,,944.0,11.1,54005,Boone,"{""54005"": 94.8, ""54043"": 5.2}",Boone|Lincoln,54005|54043,False,False,America/New_York,"(38.15573, -81.8245)",36.46614885239419,737897.0,538_0_yes,38.66007296452762,-82.0229841175522,40.0
25530,38.35629,-82.56337,Kenova,WV,West Virginia,True,,6575.0,170.6,54099,Wayne,"{""54099"": 100}",Wayne,54099,False,False,America/New_York,"(38.35629, -82.56337)",35.97471702459937,737897.0,538_0_yes,38.66007296452762,-82.0229841175522,40.0
25534,38.08065,-82.27781,Kiahsville,WV,West Virginia,True,,243.0,4.4,54099,Wayne,"{""54099"": 100}",Wayne,54099,False,False,America/New_York,"(38.08065, -82.27781)",42.34727157856829,737897.0,538_0_yes,38.66007296452762,-82.0229841175522,40.0
25535,38.30772,-82.43405,Lavalette,WV,West Virginia,True,,2848.0,70.4,54099,Wayne,"{""54099"": 100}",Wayne,54099,False,False,America/New_York,"(38.30772, -82.43405)",32.96928556691207,737897.0,538_0_yes,38.66007296452762,-82.0229841175522,40.0
25537,38.53399,-82.26926,Lesage,WV,West Virginia,True,,1077.0,17.9,54011,Cabell,"{""54011"": 100}",Cabell,54011,False,False,America/New_York,"(38.53399, -82.26926)",15.898165447767267,737897.0,538_0_yes,38.66007296452762,-82.0229841175522,40.0
25540,38.15709,-82.13914,Midkiff,WV,West Virginia,True,,267.0,6.8,54043,Lincoln,"{""54043"": 100}",Lincoln,54043,False,False,America/New_York,"(38.15709, -82.13914)",35.317235547737305,737897.0,538_0_yes,38.66007296452762,-82.0229841175522,40.0
25541,38.45884,-82.12707,Milton,WV,West Virginia,True,,10663.0,58.7,54011,Cabell,"{""54011"": 80.45, ""54053"": 19.55}",Cabell|Mason,54011|54053,False,False,America/New_York,"(38.45884, -82.12707)",14.998080530752496,737897.0,538_0_yes,38.66007296452762,-82.0229841175522,40.0
25545,38.45847,-82.22456,Ona,WV,West Virginia,True,,5112.0,74.8,54011,Cabell,"{""54011"": 100}",Cabell,54011,False,False,America/New_York,"(38.45847, -82.22456)",17.68161507914328,737897.0,538_0_yes,38.66007296452762,-82.0229841175522,40.0
25550,38.86655,-82.0749,Point Pleasant,WV,West Virginia,True,,9489.0,74.3,54053,Mason,"{""54053"": 100}",Mason,54053,False,False,America/New_York,"(38.86655, -82.0749)",14.53779708609311,737897.0,538_0_yes,38.66007296452762,-82.0229841175522,40.0
25555,38.23525,-82.55913,Prichard,WV,West Virginia,True,,2214.0,22.7,54099,Wayne,"{""54099"": 100}",Wayne,54099,False,False,America/New_York,"(38.23525, -82.55913)",41.270528146111396,737897.0,538_0_yes,38.66007296452762,-82.0229841175522,40.0
25557,38.09923,-82.16262,Ranger,WV,West Virginia,True,,1612.0,14.1,54043,Lincoln,"{""54043"": 100}",Lincoln,54043,False,False,America/New_York,"(38.09923, -82.16262)",39.481710960798516,737897.0,538_0_yes,38.66007296452762,-82.0229841175522,40.0
25559,38.32753,-82.23181,Salt Rock,WV,West Virginia,True,,1734.0,33.8,54011,Cabell,"{""54011"": 100}",Cabell,54011,False,False,America/New_York,"(38.32753, -82.23181)",25.601715579326306,737897.0,538_0_yes,38.66007296452762,-82.0229841175522,40.0
25560,38.44736,-81.89908,Scott Depot,WV,West Virginia,True,,7590.0,138.1,54079,Putnam,"{""54079"": 100}",Putnam,54079,False,False,America/New_York,"(38.44736, -81.89908)",16.150076511672317,737897.0,538_0_yes,38.66007296452762,-82.0229841175522,40.0
25564,38.26302,-81.88835,Sod,WV,West Virginia,True,,1217.0,26.8,54043,Lincoln,"{""54043"": 100}",Lincoln,54043,False,False,America/New_York,"(38.26302, -81.88835)",28.38425607246042,737897.0,538_0_yes,38.66007296452762,-82.0229841175522,40.0
25565,38.10998,-81.96631,Spurlockville,WV,West Virginia,True,,521.0,5.2,54043,Lincoln,"{""54043"": 58.78, ""54005"": 41.22}",Lincoln|Boone,54043|54005,False,False,America/New_York,"(38.10998, -81.96631)",38.13153978672653,737897.0,538_0_yes,38.66007296452762,-82.0229841175522,40.0
25567,38.21971,-81.87294,Sumerco,WV,West Virginia,True,,511.0,13.4,54043,Lincoln,"{""54043"": 100}",Lincoln,54043,False,False,America/New_York,"(38.21971, -81.87294)",31.491076134180638,737897.0,538_0_yes,38.66007296452762,-82.0229841175522,40.0
25570,38.23508,-82.41927,Wayne,WV,West Virginia,True,,5193.0,26.2,54099,Wayne,"{""54099"": 100}",Wayne,54099,False,False,America/New_York,"(38.23508, -82.41927)",36.36062155996568,737897.0,538_0_yes,38.66007296452762,-82.0229841175522,40.0
25571,38.2947,-82.15632,West Hamlin,WV,West Virginia,True,,2211.0,32.1,54043,Lincoln,"{""54043"": 100}",Lincoln,54043,False,False,America/New_York,"(38.2947, -82.15632)",26.254862902791064,737897.0,538_0_yes,38.66007296452762,-82.0229841175522,40.0
25573,38.22725,-81.94549,Yawkey,WV,West Virginia,True,,565.0,19.4,54043,Lincoln,"{""54043"": 100}",Lincoln,54043,False,False,America/New_York,"(38.22725, -81.94549)",30.19781945822773,737897.0,538_0_yes,38.66007296452762,-82.0229841175522,40.0
25701,38.36809,-82.41127,Huntington,WV,West Virginia,True,,19869.0,197.1,54011,Cabell,"{""54011"": 74.48, ""54099"": 25.52}",Cabell|Wayne,54011|54099,False,False,America/New_York,"(38.36809, -82.41127)",29.114303301485094,737897.0,538_0_yes,38.66007296452762,-82.0229841175522,40.0
25702,38.43825,-82.33344,Huntington,WV,West Virginia,True,,7286.0,257.0,54011,Cabell,"{""54011"": 100}",Cabell,54011,False,False,America/New_York,"(38.43825, -82.33344)",22.72288138091074,737897.0,538_0_yes,38.66007296452762,-82.0229841175522,40.0
25703,38.42201,-82.41827,Huntington,WV,West Virginia,True,,7205.0,2724.9,54011,Cabell,"{""54011"": 100}",Cabell,54011,False,False,America/New_York,"(38.42201, -82.41827)",26.9609767660787,737897.0,538_0_yes,38.66007296452762,-82.0229841175522,40.0
25704,38.34969,-82.50693,Huntington,WV,West Virginia,True,,16540.0,206.8,54099,Wayne,"{""54099"": 92.68, ""54011"": 7.32}",Wayne|Cabell,54099|54011,False,False,America/New_York,"(38.34969, -82.50693)",33.83185056043527,737897.0,538_0_yes,38.66007296452762,-82.0229841175522,40.0
25705,38.40636,-82.36276,Huntington,WV,West Virginia,True,,20690.0,689.9,54011,Cabell,"{""54011"": 100}",Cabell,54011,False,False,America/New_York,"(38.40636, -82.36276)",25.387811598820345,737897.0,538_0_yes,38.66007296452762,-82.0229841175522,40.0
26101,39.23394,-81.57483,Parkersburg,WV,West Virginia,True,,28644.0,359.1,54107,Wood,"{""54107"": 100}",Wood,54107,False,False,America/New_York,"(39.23394, -81.57483)",46.39053571833793,737897.0,538_0_yes,38.66007296452762,-82.0229841175522,40.0
26133,39.11973,-81.66968,Belleville,WV,West Virginia,True,,1425.0,13.7,54107,Wood,"{""54107"": 100}",Wood,54107,False,False,America/New_York,"(39.11973, -81.66968)",37.00891990243003,737897.0,538_0_yes,38.66007296452762,-82.0229841175522,40.0
26142,39.21488,-81.45431,Davisville,WV,West Virginia,True,,2490.0,90.8,54107,Wood,"{""54107"": 100}",Wood,54107,False,False,America/New_York,"(39.21488, -81.45431)",49.02538269837483,737897.0,538_0_yes,38.66007296452762,-82.0229841175522,40.0
26143,39.06338,-81.3764,Elizabeth,WV,West Virginia,True,,4517.0,13.0,54105,Wirt,"{""54105"": 85.29, ""54107"": 7.0, ""54085"": 5.05, ""54035"": 2.66}",Wirt|Wood|Ritchie|Jackson,54105|54107|54085|54035,False,False,America/New_York,"(39.06338, -81.3764)",44.57115950539283,737897.0,538_0_yes,38.66007296452762,-82.0229841175522,40.0
26150,39.1566,-81.53697,Mineral Wells,WV,West Virginia,True,,6030.0,53.0,54107,Wood,"{""54107"": 100}",Wood,54107,False,False,America/New_York,"(39.1566, -81.53697)",43.12480388011011,737897.0,538_0_yes,38.66007296452762,-82.0229841175522,40.0
26160,38.98066,-81.41368,Palestine,WV,West Virginia,True,,1034.0,5.8,54105,Wirt,"{""54105"": 100}",Wirt,54105,False,False,America/New_York,"(38.98066, -81.41368)",39.57857436581708,737897.0,538_0_yes,38.66007296452762,-82.0229841175522,40.0
26164,38.99061,-81.71949,Ravenswood,WV,West Virginia,True,,7690.0,29.0,54035,Jackson,"{""54035"": 97.3, ""54107"": 2.7}",Jackson|Wood,54035|54107,False,False,America/New_York,"(38.99061, -81.71949)",28.079336388898614,737897.0,538_0_yes,38.66007296452762,-82.0229841175522,40.0
26169,39.07291,-81.57121,Rockport,WV,West Virginia,True,,605.0,9.0,54107,Wood,"{""54107"": 100}",Wood,54107,False,False,America/New_York,"(39.07291, -81.57121)",37.47417413318235,737897.0,538_0_yes,38.66007296452762,-82.0229841175522,40.0
26180,39.20016,-81.36699,Walker,WV,West Virginia,True,,1980.0,11.4,54107,Wood,"{""54107"": 87.81, ""54105"": 12.19}",Wood|Wirt,54107|54105,False,False,America/New_York,"(39.20016, -81.36699)",51.33876893439577,737897.0,538_0_yes,38.66007296452762,-82.0229841175522,40.0
26181,39.20707,-81.6733,Washington,WV,West Virginia,True,,6821.0,67.7,54107,Wood,"{""54107"": 100}",Wood,54107,False,False,America/New_York,"(39.20707, -81.6733)",42.208883359792935,737897.0,538_0_yes,38.66007296452762,-82.0229841175522,40.0
41101,38.47392,-82.65045,Ashland,KY,Kentucky,True,,19237.0,724.5,21019,Boyd,"{""21019"": 82.64, ""21089"": 17.36}",Boyd|Greenup,21019|21089,False,False,America/New_York,"(38.47392, -82.65045)",36.25545238931514,737897.0,538_0_yes,38.66007296452762,-82.0229841175522,40.0
41102,38.42045,-82.72425,Ashland,KY,Kentucky,True,,18600.0,144.3,21019,Boyd,"{""21019"": 88.93, ""21089"": 9.71, ""21043"": 1.36}",Boyd|Greenup|Carter,21019|21089|21043,False,False,America/New_York,"(38.42045, -82.72425)",41.356847518888316,737897.0,538_0_yes,38.66007296452762,-82.0229841175522,40.0
41129,38.31755,-82.64073,Catlettsburg,KY,Kentucky,True,,9730.0,42.9,21019,Boyd,"{""21019"": 78.65, ""21127"": 21.35}",Boyd|Lawrence,21019|21127,False,False,America/New_York,"(38.31755, -82.64073)",40.94147808458424,737897.0,538_0_yes,38.66007296452762,-82.0229841175522,40.0
41139,38.50927,-82.73288,Flatwoods,KY,Kentucky,True,,7778.0,364.4,21089,Greenup,"{""21089"": 100}",Greenup,21089,False,False,America/New_York,"(38.50927, -82.73288)",39.73153689399307,737897.0,538_0_yes,38.66007296452762,-82.0229841175522,40.0
41169,38.52232,-82.71316,Russell,KY,Kentucky,True,,4867.0,302.3,21089,Greenup,"{""21089"": 100}",Greenup,21089,False,False,America/New_York,"(38.52232, -82.71316)",38.468554830490284,737897.0,538_0_yes,38.66007296452762,-82.0229841175522,40.0
41183,38.55,-82.73707,Worthington,KY,Kentucky,True,,1639.0,419.1,21089,Greenup,"{""21089"": 100}",Greenup,21089,False,False,America/New_York,"(38.55, -82.73707)",39.29925789323401,737897.0,538_0_yes,38.66007296452762,-82.0229841175522,40.0
45614,38.92858,-82.27819,Bidwell,OH,Ohio,True,,4759.0,25.9,39053,Gallia,"{""39053"": 100}",Gallia,39053,False,False,America/New_York,"(38.92858, -82.27819)",23.08795339743494,737897.0,538_0_yes,38.66007296452762,-82.0229841175522,40.0
45619,38.47257,-82.45157,Chesapeake,OH,Ohio,True,,7468.0,89.7,39087,Lawrence,"{""39087"": 100}",Lawrence,39087,False,False,America/New_York,"(38.47257, -82.45157)",26.531578942610583,737897.0,538_0_yes,38.66007296452762,-82.0229841175522,40.0
45620,38.95564,-82.14052,Cheshire,OH,Ohio,True,,792.0,14.1,39053,Gallia,"{""39053"": 97.7, ""39105"": 2.3}",Gallia|Meigs,39053|39105,False,False,America/New_York,"(38.95564, -82.14052)",21.37975903074636,737897.0,538_0_yes,38.66007296452762,-82.0229841175522,40.0
45621,39.11138,-82.60996,Coalton,OH,Ohio,True,,300.0,242.1,39079,Jackson,"{""39079"": 100}",Jackson,39079,False,False,America/New_York,"(39.11138, -82.60996)",44.37246731965721,737897.0,538_0_yes,38.66007296452762,-82.0229841175522,40.0
45623,38.64125,-82.26748,Crown City,OH,Ohio,True,,3357.0,17.9,39053,Gallia,"{""39053"": 91.37, ""39087"": 8.63}",Gallia|Lawrence,39053|39087,False,False,America/New_York,"(38.64125, -82.26748)",13.256889259183566,737897.0,538_0_yes,38.66007296452762,-82.0229841175522,40.0
45631,38.81672,-82.25486,Gallipolis,OH,Ohio,True,,14166.0,47.7,39053,Gallia,"{""39053"": 100}",Gallia,39053,False,False,America/New_York,"(38.81672, -82.25486)",16.532057200252467,737897.0,538_0_yes,38.66007296452762,-82.0229841175522,40.0
45634,39.17891,-82.49037,Hamden,OH,Ohio,True,,1783.0,19.8,39163,Vinton,"{""39163"": 98.65, ""39079"": 1.35}",Vinton|Jackson,39163|39079,False,False,America/New_York,"(39.17891, -82.49037)",43.776172267709285,737897.0,538_0_yes,38.66007296452762,-82.0229841175522,40.0
45638,38.56217,-82.67607,Ironton,OH,Ohio,True,,21514.0,108.0,39087,Lawrence,"{""39087"": 88.73, ""39145"": 11.27}",Lawrence|Scioto,39087|39145,False,False,America/New_York,"(38.56217, -82.67607)",35.90273283717914,737897.0,538_0_yes,38.66007296452762,-82.0229841175522,40.0
45640,39.02345,-82.65032,Jackson,OH,Ohio,True,,15871.0,35.1,39079,Jackson,"{""39079"": 100}",Jackson,39079,False,False,America/New_York,"(39.02345, -82.65032)",42.07267888088639,737897.0,538_0_yes,38.66007296452762,-82.0229841175522,40.0
45645,38.57082,-82.53159,Kitts Hill,OH,Ohio,True,,3184.0,26.9,39087,Lawrence,"{""39087"": 100}",Lawrence,39087,False,False,America/New_York,"(38.57082, -82.53159)",28.14169389575261,737897.0,538_0_yes,38.66007296452762,-82.0229841175522,40.0
45656,38.87565,-82.59143,Oak Hill,OH,Ohio,True,,6730.0,19.4,39079,Jackson,"{""39079"": 73.42, ""39053"": 14.95, ""39087"": 10.82, ""39145"": 0.81}",Jackson|Gallia|Lawrence|Scioto,39079|39053|39087|39145,False,False,America/New_York,"(38.87565, -82.59143)",34.053194580377216,737897.0,538_0_yes,38.66007296452762,-82.0229841175522,40.0
45658,38.76324,-82.41411,Patriot,OH,Ohio,True,,3042.0,12.5,39053,Gallia,"{""39053"": 97.93, ""39087"": 2.07}",Gallia|Lawrence,39053|39087,False,False,America/New_York,"(38.76324, -82.41411)",22.2592674393072,737897.0,538_0_yes,38.66007296452762,-82.0229841175522,40.0
45659,38.67117,-82.62331,Pedro,OH,Ohio,True,,2441.0,9.5,39087,Lawrence,"{""39087"": 99.78, ""39145"": 0.22}",Lawrence|Scioto,39087|39145,False,False,America/New_York,"(38.67117, -82.62331)",32.39570734517273,737897.0,538_0_yes,38.66007296452762,-82.0229841175522,40.0
45669,38.4935,-82.35857,Proctorville,OH,Ohio,True,,9796.0,106.0,39087,Lawrence,"{""39087"": 100}",Lawrence,39087,False,False,America/New_York,"(38.4935, -82.35857)",21.47182113167198,737897.0,538_0_yes,38.66007296452762,-82.0229841175522,40.0
45672,39.20549,-82.67579,Ray,OH,Ohio,True,,1203.0,8.1,39163,Vinton,"{""39163"": 57.85, ""39079"": 41.6, ""39141"": 0.55}",Vinton|Jackson|Ross,39163|39079|39141,False,False,America/New_York,"(39.20549, -82.67579)",51.489244256166074,737897.0,538_0_yes,38.66007296452762,-82.0229841175522,40.0
45674,38.87798,-82.38017,Rio Grande,OH,Ohio,True,,576.0,190.0,39053,Gallia,"{""39053"": 100}",Gallia,39053,False,False,America/New_York,"(38.87798, -82.38017)",24.432070725123065,737897.0,538_0_yes,38.66007296452762,-82.0229841175522,40.0
45678,38.60595,-82.37883,Scottown,OH,Ohio,True,,923.0,7.8,39087,Lawrence,"{""39087"": 81.5, ""39053"": 18.5}",Lawrence|Gallia,39087|39053,False,False,America/New_York,"(38.60595, -82.37883)",19.566752074869864,737897.0,538_0_yes,38.66007296452762,-82.0229841175522,40.0
45680,38.45526,-82.54489,South Point,OH,Ohio,True,,12897.0,144.0,39087,Lawrence,"{""39087"": 100}",Lawrence,39087,False,False,America/New_York,"(38.45526, -82.54489)",31.55004113495766,737897.0,538_0_yes,38.66007296452762,-82.0229841175522,40.0
45682,38.80839,-82.69658,South Webster,OH,Ohio,True,,2082.0,16.6,39145,Scioto,"{""39145"": 76.76, ""39087"": 21.15, ""39079"": 2.09}",Scioto|Lawrence|Jackson,39145|39087|39079,False,False,America/New_York,"(38.80839, -82.69658)",37.72314548390905,737897.0,538_0_yes,38.66007296452762,-82.0229841175522,40.0
45685,38.9333,-82.4527,Thurman,OH,Ohio,True,,1471.0,18.7,39079,Jackson,"{""39079"": 65.5, ""39053"": 34.5}",Jackson|Gallia,39079|39053,False,False,America/New_York,"(38.9333, -82.4527)",29.863750044904382,737897.0,538_0_yes,38.66007296452762,-82.0229841175522,40.0
45686,39.00901,-82.36843,Vinton,OH,Ohio,True,,3527.0,14.1,39053,Gallia,"{""39053"": 61.34, ""39163"": 32.38, ""39105"": 6.28}",Gallia|Vinton|Meigs,39053|39163|39105,False,False,America/New_York,"(39.00901, -82.36843)",30.44542971362807,737897.0,538_0_yes,38.66007296452762,-82.0229841175522,40.0
45688,38.73013,-82.53155,Waterloo,OH,Ohio,True,,520.0,5.9,39087,Lawrence,"{""39087"": 97.57, ""39053"": 2.43}",Lawrence|Gallia,39087|39053,False,False,America/New_York,"(38.73013, -82.53155)",27.848928339767113,737897.0,538_0_yes,38.66007296452762,-82.0229841175522,40.0
45692,39.11582,-82.5426,Wellston,OH,Ohio,True,,8644.0,40.9,39079,Jackson,"{""39079"": 99.55, ""39163"": 0.45}",Jackson|Vinton,39079|39163,False,False,America/New_York,"(39.11582, -82.5426)",42.100924872305484,737897.0,538_0_yes,38.66007296452762,-82.0229841175522,40.0
45695,39.1529,-82.36334,Wilkesville,OH,Ohio,True,,670.0,7.9,39163,Vinton,"{""39163"": 100}",Vinton,39163,False,False,America/New_York,"(39.1529, -82.36334)",38.65685898256254,737897.0,538_0_yes,38.66007296452762,-82.0229841175522,40.0
45696,38.60356,-82.45201,Willow Wood,OH,Ohio,True,,1006.0,11.2,39087,Lawrence,"{""39087"": 100}",Lawrence,39087,False,False,America/New_York,"(38.60356, -82.45201)",23.483110797382828,737897.0,538_0_yes,38.66007296452762,-82.0229841175522,40.0
45710,39.19763,-82.22574,Albany,OH,Ohio,True,,5226.0,20.8,39105,Meigs,"{""39105"": 45.79, ""39009"": 35.81, ""39163"": 18.4}",Meigs|Athens|Vinton,39105|39009|39163,False,False,America/New_York,"(39.19763, -82.22574)",38.70745856983559,737897.0,538_0_yes,38.66007296452762,-82.0229841175522,40.0
45723,39.22173,-81.8268,Coolville,OH,Ohio,True,,3751.0,21.9,39009,Athens,"{""39009"": 78.41, ""39105"": 16.63, ""39167"": 4.96}",Athens|Meigs|Washington,39009|39105|39167,False,False,America/New_York,"(39.22173, -81.8268)",40.2134422142358,737897.0,538_0_yes,38.66007296452762,-82.0229841175522,40.0
45741,39.06648,-82.2527,Langsville,OH,Ohio,True,,688.0,6.4,39105,Meigs,"{""39105"": 99.9, ""39053"": 0.1}",Meigs|Gallia,39105|39053,False,False,America/New_York,"(39.06648, -82.2527)",30.67932617001849,737897.0,538_0_yes,38.66007296452762,-82.0229841175522,40.0
45743,39.076,-81.85017,Long Bottom,OH,Ohio,True,,1543.0,16.7,39105,Meigs,"{""39105"": 100}",Meigs,39105,False,False,America/New_York,"(39.076, -81.85017)",30.20412143559707,737897.0,538_0_yes,38.66007296452762,-82.0229841175522,40.0
45760,39.01395,-82.12244,Middleport,OH,Ohio,True,,4090.0,77.6,39105,Meigs,"{""39105"": 93.08, ""39053"": 6.92}",Meigs|Gallia,39105|39053,False,False,America/New_York,"(39.01395, -82.12244)",25.029601817163947,737897.0,538_0_yes,38.66007296452762,-82.0229841175522,40.0
45769,39.1062,-82.04578,Pomeroy,OH,Ohio,True,,6979.0,25.7,39105,Meigs,"{""39105"": 100}",Meigs,39105,False,False,America/New_York,"(39.1062, -82.04578)",30.848815780836997,737897.0,538_0_yes,38.66007296452762,-82.0229841175522,40.0
45770,38.98586,-81.80238,Portland,OH,Ohio,True,,656.0,11.6,39105,Meigs,"{""39105"": 100}",Meigs,39105,False,False,America/New_York,"(38.98586, -81.80238)",25.450038431453688,737897.0,538_0_yes,38.66007296452762,-82.0229841175522,40.0
45771,38.98204,-81.89902,Racine,OH,Ohio,True,,3407.0,21.4,39105,Meigs,"{""39105"": 100}",Meigs,39105,False,False,America/New_York,"(38.98204, -81.89902)",23.22511978121239,737897.0,538_0_yes,38.66007296452762,-82.0229841175522,40.0
45772,39.1408,-81.82268,Reedsville,OH,Ohio,True,,1768.0,16.7,39105,Meigs,"{""39105"": 100}",Meigs,39105,False,False,America/New_York,"(39.1408, -81.82268)",34.91768271876884,737897.0,538_0_yes,38.66007296452762,-82.0229841175522,40.0
45775,39.0876,-82.15596,Rutland,OH,Ohio,True,,1009.0,12.5,39105,Meigs,"{""39105"": 100}",Meigs,39105,False,False,America/New_York,"(39.0876, -82.15596)",30.39299939605215,737897.0,538_0_yes,38.66007296452762,-82.0229841175522,40.0
45776,39.18732,-82.0228,Shade,OH,Ohio,True,,873.0,18.6,39105,Meigs,"{""39105"": 56.18, ""39009"": 43.82}",Meigs|Athens,39105|39009,False,False,America/New_York,"(39.18732, -82.0228)",36.42930167512888,737897.0,538_0_yes,38.66007296452762,-82.0229841175522,40.0
45779,38.99884,-81.97082,Syracuse,OH,Ohio,True,,707.0,313.2,39105,Meigs,"{""39105"": 100}",Meigs,39105,False,False,America/New_York,"(38.99884, -81.97082)",23.574369675943576,737897.0,538_0_yes,38.66007296452762,-82.0229841175522,40.0
