zip,lat,lng,city,state_id,state_name,zcta,parent_zcta,population,density,county_fips,county_name,county_weights,county_names_all,county_fips_all,imprecise,military,timezone,Coord,distance_miles,market_total_population,market_id,market_center_lat,market_center_lng,radius_miles
80813,38.76307,-105.09278,Cripple Creek,CO,Colorado,True,,1621.0,5.6,8119,Teller,"{""08119"": 100}",Teller,08119,False,False,America/Denver,"(38.76307, -105.09278)",37.49017700232943,396424.0,553_0_no,38.231359873307056,-105.23099184229982,40.0
80817,38.58347,-104.67412,Fountain,CO,Colorado,True,,31426.0,105.4,8041,El Paso,"{""08041"": 76.51, ""08101"": 23.49}",El Paso|Pueblo,08041|08101,False,False,America/Denver,"(38.58347, -104.67412)",38.74162334236769,396424.0,553_0_no,38.231359873307056,-105.23099184229982,40.0
80820,38.77781,-105.56613,Guffey,CO,Colorado,True,,1074.0,1.6,8093,Park,"{""08093"": 100}",Park,08093,False,False,America/Denver,"(38.77781, -105.56613)",41.87934274944401,396424.0,553_0_no,38.231359873307056,-105.23099184229982,40.0
80860,38.69307,-105.09876,Victor,CO,Colorado,True,,597.0,3.3,8119,Teller,"{""08119"": 100}",Teller,08119,False,False,America/Denver,"(38.69307, -105.09876)",32.6934259007509,396424.0,553_0_no,38.231359873307056,-105.23099184229982,40.0
80902,38.68683,-104.8127,Colorado Springs,CO,Colorado,True,,12797.0,272.5,8041,El Paso,"{""08041"": 100}",El Paso,08041,False,False,America/Denver,"(38.68683, -104.8127)",38.762366769762494,396424.0,553_0_no,38.231359873307056,-105.23099184229982,40.0
80906,38.76744,-104.87023,Colorado Springs,CO,Colorado,True,,37610.0,318.6,8041,El Paso,"{""08041"": 100}",El Paso,08041,False,False,America/Denver,"(38.76744, -104.87023)",41.86254942170129,396424.0,553_0_no,38.231359873307056,-105.23099184229982,40.0
80911,38.75325,-104.71955,Colorado Springs,CO,Colorado,True,,35597.0,1237.1,8041,El Paso,"{""08041"": 100}",El Paso,08041,False,False,America/Denver,"(38.75325, -104.71955)",45.444713162908144,396424.0,553_0_no,38.231359873307056,-105.23099184229982,40.0
80913,38.70005,-104.76268,Colorado Springs,CO,Colorado,True,,4165.0,67.3,8041,El Paso,"{""08041"": 100}",El Paso,08041,False,False,America/Denver,"(38.70005, -104.76268)",41.11618914310186,396424.0,553_0_no,38.231359873307056,-105.23099184229982,40.0
80916,38.80327,-104.71208,Colorado Springs,CO,Colorado,True,,41173.0,864.5,8041,El Paso,"{""08041"": 100}",El Paso,08041,False,False,America/Denver,"(38.80327, -104.71208)",48.45998204102485,396424.0,553_0_no,38.231359873307056,-105.23099184229982,40.0
80925,38.76156,-104.64441,Colorado Springs,CO,Colorado,True,,13752.0,184.9,8041,El Paso,"{""08041"": 100}",El Paso,08041,False,False,America/Denver,"(38.76156, -104.64441)",48.457462916317496,396424.0,553_0_no,38.231359873307056,-105.23099184229982,40.0
80926,38.64318,-104.92439,Colorado Springs,CO,Colorado,True,,1595.0,7.9,8041,El Paso,"{""08041"": 63.47, ""08043"": 36.53}",El Paso|Fremont,08041|08043,False,False,America/Denver,"(38.64318, -104.92439)",32.93886087987695,396424.0,553_0_no,38.231359873307056,-105.23099184229982,40.0
80930,38.80507,-104.50644,Colorado Springs,CO,Colorado,True,,1794.0,20.2,8041,El Paso,"{""08041"": 100}",El Paso,08041,False,False,America/Denver,"(38.80507, -104.50644)",55.726564445737544,396424.0,553_0_no,38.231359873307056,-105.23099184229982,40.0
81001,38.29525,-104.5378,Pueblo,CO,Colorado,True,,29997.0,361.4,8101,Pueblo,"{""08101"": 100}",Pueblo,08101,False,False,America/Denver,"(38.29525, -104.5378)",37.863976902526844,396424.0,553_0_no,38.231359873307056,-105.23099184229982,40.0
81003,38.27782,-104.65668,Pueblo,CO,Colorado,True,,14824.0,468.6,8101,Pueblo,"{""08101"": 100}",Pueblo,08101,False,False,America/Denver,"(38.27782, -104.65668)",31.325186210201032,396424.0,553_0_no,38.231359873307056,-105.23099184229982,40.0
81004,38.05121,-104.71595,Pueblo,CO,Colorado,True,,27159.0,65.2,8101,Pueblo,"{""08101"": 100}",Pueblo,08101,False,False,America/Denver,"(38.05121, -104.71595)",30.631008775624565,396424.0,553_0_no,38.231359873307056,-105.23099184229982,40.0
81005,38.21054,-104.84608,Pueblo,CO,Colorado,True,,32062.0,62.3,8101,Pueblo,"{""08101"": 100}",Pueblo,08101,False,False,America/Denver,"(38.21054, -104.84608)",20.94319741761808,396424.0,553_0_no,38.231359873307056,-105.23099184229982,40.0
81007,38.35858,-104.78472,Pueblo,CO,Colorado,True,,32842.0,92.9,8101,Pueblo,"{""08101"": 100}",Pueblo,08101,False,False,America/Denver,"(38.35858, -104.78472)",25.746747654294552,396424.0,553_0_no,38.231359873307056,-105.23099184229982,40.0
81008,38.40765,-104.59354,Pueblo,CO,Colorado,True,,11659.0,44.0,8101,Pueblo,"{""08101"": 98.14, ""08041"": 1.86}",Pueblo|El Paso,08101|08041,False,False,America/Denver,"(38.40765, -104.59354)",36.63901494125113,396424.0,553_0_no,38.231359873307056,-105.23099184229982,40.0
81019,37.94152,-104.83714,Colorado City,CO,Colorado,True,,1748.0,51.6,8101,Pueblo,"{""08101"": 100}",Pueblo,08101,False,False,America/Denver,"(37.94152, -104.83714)",29.322182332751005,396424.0,553_0_no,38.231359873307056,-105.23099184229982,40.0
81023,38.06352,-104.92966,Beulah,CO,Colorado,True,,1268.0,3.2,8101,Pueblo,"{""08101"": 100}",Pueblo,08101,False,False,America/Denver,"(38.06352, -104.92966)",20.064114588434247,396424.0,553_0_no,38.231359873307056,-105.23099184229982,40.0
81040,37.79283,-105.2493,Gardner,CO,Colorado,True,,258.0,0.2,8055,Huerfano,"{""08055"": 100}",Huerfano,08055,False,False,America/Denver,"(37.79283, -105.2493)",30.31591508213658,396424.0,553_0_no,38.231359873307056,-105.23099184229982,40.0
81069,37.88998,-104.88951,Rye,CO,Colorado,True,,2170.0,2.9,8055,Huerfano,"{""08055"": 48.37, ""08101"": 36.28, ""08027"": 15.35}",Huerfano|Pueblo|Custer,08055|08101|08027,False,False,America/Denver,"(37.88998, -104.88951)",30.02423900269913,396424.0,553_0_no,38.231359873307056,-105.23099184229982,40.0
81089,37.6642,-104.66427,Walsenburg,CO,Colorado,True,,4628.0,1.9,8055,Huerfano,"{""08055"": 77.99, ""08071"": 22.01}",Huerfano|Las Animas,08055|08071,False,False,America/Denver,"(37.6642, -104.66427)",49.89029791220277,396424.0,553_0_no,38.231359873307056,-105.23099184229982,40.0
81131,37.87706,-105.66651,Crestone,CO,Colorado,True,,1290.0,1.3,8109,Saguache,"{""08109"": 100}",Saguache,08109,False,False,America/Denver,"(37.87706, -105.66651)",34.06903800520108,396424.0,553_0_no,38.231359873307056,-105.23099184229982,40.0
81136,37.72672,-105.85355,Hooper,CO,Colorado,True,,265.0,1.2,8003,Alamosa,"{""08003"": 80.39, ""08109"": 19.61}",Alamosa|Saguache,08003|08109,False,False,America/Denver,"(37.72672, -105.85355)",48.63435033898096,396424.0,553_0_no,38.231359873307056,-105.23099184229982,40.0
81143,38.14477,-105.87112,Moffat,CO,Colorado,True,,719.0,0.7,8109,Saguache,"{""08109"": 100}",Saguache,08109,False,False,America/Denver,"(38.14477, -105.87112)",35.274071184433986,396424.0,553_0_no,38.231359873307056,-105.23099184229982,40.0
81212,38.54409,-105.42498,Canon City,CO,Colorado,True,,31129.0,17.9,8043,Fremont,"{""08043"": 100}",Fremont,08043,False,False,America/Denver,"(38.54409, -105.42498)",24.0262458917194,396424.0,553_0_no,38.231359873307056,-105.23099184229982,40.0
81221,38.36243,-105.14238,Coal Creek,CO,Colorado,True,,304.0,102.4,8043,Fremont,"{""08043"": 100}",Fremont,08043,False,False,America/Denver,"(38.36243, -105.14238)",10.25185789697456,396424.0,553_0_no,38.231359873307056,-105.23099184229982,40.0
81222,38.35492,-105.81612,Coaldale,CO,Colorado,True,,240.0,2.9,8043,Fremont,"{""08043"": 100}",Fremont,08043,False,False,America/Denver,"(38.35492, -105.81612)",32.858687338621664,396424.0,553_0_no,38.231359873307056,-105.23099184229982,40.0
81223,38.39372,-105.6031,Cotopaxi,CO,Colorado,True,,1760.0,1.7,8043,Fremont,"{""08043"": 100}",Fremont,08043,False,False,America/Denver,"(38.39372, -105.6031)",23.08255063261662,396424.0,553_0_no,38.231359873307056,-105.23099184229982,40.0
81226,38.32213,-105.10193,Florence,CO,Colorado,True,,9110.0,27.1,8043,Fremont,"{""08043"": 88.43, ""08027"": 11.57}",Fremont|Custer,08043|08027,False,False,America/Denver,"(38.32213, -105.10193)",9.398831223129962,396424.0,553_0_no,38.231359873307056,-105.23099184229982,40.0
81232,38.27535,-105.60895,Hillside,CO,Colorado,True,,122.0,57.8,8043,Fremont,"{""08043"": 100}",Fremont,08043,False,False,America/Denver,"(38.27535, -105.60895)",20.731152954064235,396424.0,553_0_no,38.231359873307056,-105.23099184229982,40.0
81233,38.49244,-105.81369,Howard,CO,Colorado,True,,882.0,5.9,8043,Fremont,"{""08043"": 100}",Fremont,08043,False,False,America/Denver,"(38.49244, -105.81369)",36.35891444797832,396424.0,553_0_no,38.231359873307056,-105.23099184229982,40.0
81240,38.4995,-105.03076,Penrose,CO,Colorado,True,,3659.0,10.2,8043,Fremont,"{""08043"": 100}",Fremont,08043,False,False,America/Denver,"(38.4995, -105.03076)",21.468665458491856,396424.0,553_0_no,38.231359873307056,-105.23099184229982,40.0
81244,38.36393,-105.16495,Rockvale,CO,Colorado,True,,407.0,81.8,8043,Fremont,"{""08043"": 100}",Fremont,08043,False,False,America/Denver,"(38.36393, -105.16495)",9.83487456353215,396424.0,553_0_no,38.231359873307056,-105.23099184229982,40.0
81252,38.10891,-105.42143,Westcliffe,CO,Colorado,True,,4023.0,2.5,8027,Custer,"{""08027"": 100}",Custer,08027,False,False,America/Denver,"(38.10891, -105.42143)",13.363740727463789,396424.0,553_0_no,38.231359873307056,-105.23099184229982,40.0
81253,38.18763,-105.07497,Wetmore,CO,Colorado,True,,698.0,2.9,8027,Custer,"{""08027"": 70.02, ""08043"": 23.76, ""08101"": 6.22}",Custer|Fremont|Pueblo,08027|08043|08101,False,False,America/Denver,"(38.18763, -105.07497)",8.993243910090724,396424.0,553_0_no,38.231359873307056,-105.23099184229982,40.0
