zip,lat,lng,city,state_id,state_name,zcta,parent_zcta,population,density,county_fips,county_name,county_weights,county_names_all,county_fips_all,imprecise,military,timezone,Coord,distance_miles,market_total_population,market_id,market_center_lat,market_center_lng,radius_miles
84728,39.23887,-113.95719,Garrison,UT,Utah,True,,46.0,0.1,49027,Millard,"{""49027"": 99.7, ""32033"": 0.3}",Millard|White Pine,49027|32033,False,False,America/Denver,"(39.23887, -113.95719)",43.5095065129139,3094.0,560_0_yes,38.86659502072701,-114.61122289945784,40.0
89043,38.30434,-114.39018,Pioche,NV,Nevada,True,,1493.0,0.4,32017,Lincoln,"{""32017"": 100}",Lincoln,32017,False,False,America/Los_Angeles,"(38.30434, -114.39018)",40.64105730010581,3094.0,560_0_yes,38.86659502072701,-114.61122289945784,40.0
89311,39.16715,-114.19288,Baker,NV,Nevada,True,,206.0,0.1,32033,White Pine,"{""32033"": 100}",White Pine,32033,False,False,America/Los_Angeles,"(39.16715, -114.19288)",30.58745918093812,3094.0,560_0_yes,38.86659502072701,-114.61122289945784,40.0
89317,38.87915,-115.08418,Lund,NV,Nevada,True,,256.0,1.6,32033,White Pine,"{""32033"": 100}",White Pine,32033,False,False,America/Los_Angeles,"(38.87915, -115.08418)",25.456072229175838,3094.0,560_0_yes,38.86659502072701,-114.61122289945784,40.0
89318,39.43783,-114.8188,McGill,NV,Nevada,True,,858.0,9.1,32033,White Pine,"{""32033"": 100}",White Pine,32033,False,False,America/Los_Angeles,"(39.43783, -114.8188)",41.005656046829614,3094.0,560_0_yes,38.86659502072701,-114.61122289945784,40.0
89319,39.27915,-114.98724,Ruth,NV,Nevada,True,,235.0,246.3,32033,White Pine,"{""32033"": 100}",White Pine,32033,False,False,America/Los_Angeles,"(39.27915, -114.98724)",34.918987960745596,3094.0,560_0_yes,38.86659502072701,-114.61122289945784,40.0
