zip,lat,lng,city,state_id,state_name,zcta,parent_zcta,population,density,county_fips,county_name,county_weights,county_names_all,county_fips_all,imprecise,military,timezone,Coord,distance_miles,market_total_population,market_id,market_center_lat,market_center_lng,radius_miles
46035,40.18925,-86.67902,Colfax,IN,Indiana,True,,1241.0,19.2,18023,Clinton,"{""18023"": 46.59, ""18107"": 31.95, ""18011"": 21.46}",Clinton|Montgomery|Boone,18023|18107|18011,False,False,America/Indiana/Indianapolis,"(40.18925, -86.67902)",41.56187566478191,526256.0,582_0_yes,39.84733494034672,-87.32525465276862,40.0
46058,40.35981,-86.64777,Mulberry,IN,Indiana,True,,2280.0,33.2,18023,Clinton,"{""18023"": 99.32, ""18157"": 0.68}",Clinton|Tippecanoe,18023|18157,False,False,America/Indiana/Indianapolis,"(40.35981, -86.64777)",50.355317765953764,526256.0,582_0_yes,39.84733494034672,-87.32525465276862,40.0
46065,40.42318,-86.60992,Rossville,IN,Indiana,True,,3496.0,37.0,18023,Clinton,"{""18023"": 66.7, ""18015"": 33.3}",Clinton|Carroll,18023|18015,False,False,America/Indiana/Indianapolis,"(40.42318, -86.60992)",54.870701155219884,526256.0,582_0_yes,39.84733494034672,-87.32525465276862,40.0
46071,40.11941,-86.60549,Thorntown,IN,Indiana,True,,3204.0,17.7,18011,Boone,"{""18011"": 100}",Boone,18011,False,False,America/Indiana/Indianapolis,"(40.11941, -86.60549)",42.48993754361509,526256.0,582_0_yes,39.84733494034672,-87.32525465276862,40.0
46105,39.76388,-86.81487,Bainbridge,IN,Indiana,True,,1677.0,16.1,18133,Putnam,"{""18133"": 100}",Putnam,18133,False,False,America/Indiana/Indianapolis,"(39.76388, -86.81487)",27.697529031565363,526256.0,582_0_yes,39.84733494034672,-87.32525465276862,40.0
46120,39.51252,-86.78711,Cloverdale,IN,Indiana,True,,5547.0,23.4,18133,Putnam,"{""18133"": 81.24, ""18119"": 13.0, ""18109"": 5.76}",Putnam|Owen|Morgan,18133|18119|18109,False,False,America/Indiana/Indianapolis,"(39.51252, -86.78711)",36.797335519196,526256.0,582_0_yes,39.84733494034672,-87.32525465276862,40.0
46121,39.67776,-86.67345,Coatesville,IN,Indiana,True,,5357.0,37.4,18063,Hendricks,"{""18063"": 51.98, ""18133"": 48.02}",Hendricks|Putnam,18063|18133,False,False,America/Indiana/Indianapolis,"(39.67776, -86.67345)",36.54764136959033,526256.0,582_0_yes,39.84733494034672,-87.32525465276862,40.0
46125,39.52188,-86.64179,Eminence,IN,Indiana,True,,45.0,670.3,18109,Morgan,"{""18109"": 100}",Morgan,18109,False,False,America/Indiana/Indianapolis,"(39.52188, -86.64179)",42.73564252080995,526256.0,582_0_yes,39.84733494034672,-87.32525465276862,40.0
46128,39.65634,-86.74312,Fillmore,IN,Indiana,True,,1853.0,21.3,18133,Putnam,"{""18133"": 100}",Putnam,18133,False,False,America/Indiana/Indianapolis,"(39.65634, -86.74312)",33.62128218524481,526256.0,582_0_yes,39.84733494034672,-87.32525465276862,40.0
46135,39.65909,-86.89107,Greencastle,IN,Indiana,True,,20180.0,46.6,18133,Putnam,"{""18133"": 98.41, ""18121"": 1.59}",Putnam|Parke,18133|18121,False,False,America/Indiana/Indianapolis,"(39.65909, -86.89107)",26.478251456000496,526256.0,582_0_yes,39.84733494034672,-87.32525465276862,40.0
46147,39.96988,-86.62693,Jamestown,IN,Indiana,True,,3130.0,21.3,18011,Boone,"{""18011"": 90.82, ""18063"": 9.18}",Boone|Hendricks,18011|18063,False,False,America/Indiana/Indianapolis,"(39.96988, -86.62693)",37.96684201701102,526256.0,582_0_yes,39.84733494034672,-87.32525465276862,40.0
46165,39.84522,-86.64716,North Salem,IN,Indiana,True,,1657.0,15.3,18063,Hendricks,"{""18063"": 96.4, ""18133"": 3.6}",Hendricks|Putnam,18063|18133,False,False,America/Indiana/Indianapolis,"(39.84522, -86.64716)",35.97150173976741,526256.0,582_0_yes,39.84733494034672,-87.32525465276862,40.0
46166,39.42686,-86.58755,Paragon,IN,Indiana,True,,2281.0,22.6,18109,Morgan,"{""18109"": 95.45, ""18119"": 4.55}",Morgan|Owen,18109|18119,False,False,America/Indiana/Indianapolis,"(39.42686, -86.58755)",48.833851458828896,526256.0,582_0_yes,39.84733494034672,-87.32525465276862,40.0
46171,39.53527,-86.96815,Reelsville,IN,Indiana,True,,2126.0,21.2,18133,Putnam,"{""18133"": 98.48, ""18021"": 1.52}",Putnam|Clay,18133|18021,False,False,America/Indiana/Indianapolis,"(39.53527, -86.96815)",28.72939174988415,526256.0,582_0_yes,39.84733494034672,-87.32525465276862,40.0
46172,39.82725,-86.8144,Roachdale,IN,Indiana,True,,2640.0,14.8,18133,Putnam,"{""18133"": 94.73, ""18107"": 5.27}",Putnam|Montgomery,18133|18107,False,False,America/Indiana/Indianapolis,"(39.82725, -86.8144)",27.138624402798783,526256.0,582_0_yes,39.84733494034672,-87.32525465276862,40.0
46175,39.82199,-86.97292,Russellville,IN,Indiana,True,,616.0,10.2,18133,Putnam,"{""18133"": 95.84, ""18121"": 4.16}",Putnam|Parke,18133|18121,False,False,America/Indiana/Indianapolis,"(39.82199, -86.97292)",18.77549844443518,526256.0,582_0_yes,39.84733494034672,-87.32525465276862,40.0
46180,39.59652,-86.61801,Stilesville,IN,Indiana,True,,1010.0,15.6,18109,Morgan,"{""18109"": 55.85, ""18063"": 44.15}",Morgan|Hendricks,18109|18063,False,False,America/Indiana/Indianapolis,"(39.59652, -86.61801)",41.38806795773156,526256.0,582_0_yes,39.84733494034672,-87.32525465276862,40.0
47429,39.27581,-86.61444,Ellettsville,IN,Indiana,True,,9025.0,145.3,18105,Monroe,"{""18105"": 100}",Monroe,18105,False,False,America/Indiana/Indianapolis,"(39.27581, -86.61444)",54.707463685917105,526256.0,582_0_yes,39.84733494034672,-87.32525465276862,40.0
47433,39.35569,-86.655,Gosport,IN,Indiana,True,,3918.0,19.2,18119,Owen,"{""18119"": 55.19, ""18105"": 30.24, ""18109"": 14.57}",Owen|Monroe|Morgan,18119|18105|18109,False,False,America/Indiana/Indianapolis,"(39.35569, -86.655)",49.265459968855026,526256.0,582_0_yes,39.84733494034672,-87.32525465276862,40.0
47455,39.31271,-86.95672,Patricksburg,IN,Indiana,True,,61.0,722.5,18119,Owen,"{""18119"": 100}",Owen,18119,False,False,America/Indiana/Indianapolis,"(39.31271, -86.95672)",41.82875844121381,526256.0,582_0_yes,39.84733494034672,-87.32525465276862,40.0
47456,39.46314,-86.69781,Quincy,IN,Indiana,True,,1477.0,20.5,18119,Owen,"{""18119"": 66.11, ""18109"": 19.69, ""18133"": 14.2}",Owen|Morgan|Putnam,18119|18109|18133,False,False,America/Indiana/Indianapolis,"(39.46314, -86.69781)",42.645665347051455,526256.0,582_0_yes,39.84733494034672,-87.32525465276862,40.0
47460,39.28153,-86.78951,Spencer,IN,Indiana,True,,10780.0,27.6,18119,Owen,"{""18119"": 96.83, ""18105"": 2.12, ""18055"": 1.05}",Owen|Monroe|Greene,18119|18105|18055,False,False,America/Indiana/Indianapolis,"(39.28153, -86.78951)",48.40032106983418,526256.0,582_0_yes,39.84733494034672,-87.32525465276862,40.0
47464,39.29995,-86.64979,Stinesville,IN,Indiana,True,,323.0,1076.1,18105,Monroe,"{""18105"": 100}",Monroe,18105,False,False,America/Indiana/Indianapolis,"(39.29995, -86.64979)",52.196486454822086,526256.0,582_0_yes,39.84733494034672,-87.32525465276862,40.0
47802,39.35153,-87.4106,Terre Haute,IN,Indiana,True,,33744.0,82.0,18167,Vigo,"{""18167"": 99.74, ""18021"": 0.26}",Vigo|Clay,18167|18021,False,False,America/Indiana/Indianapolis,"(39.35153, -87.4106)",34.55685560391437,526256.0,582_0_yes,39.84733494034672,-87.32525465276862,40.0
47803,39.46433,-87.30855,Terre Haute,IN,Indiana,True,,21498.0,248.4,18167,Vigo,"{""18167"": 100}",Vigo,18167,False,False,America/Indiana/Indianapolis,"(39.46433, -87.30855)",26.478035334508377,526256.0,582_0_yes,39.84733494034672,-87.32525465276862,40.0
47804,39.49756,-87.39031,Terre Haute,IN,Indiana,True,,11418.0,666.3,18167,Vigo,"{""18167"": 100}",Vigo,18167,False,False,America/Indiana/Indianapolis,"(39.49756, -87.39031)",24.41353593094335,526256.0,582_0_yes,39.84733494034672,-87.32525465276862,40.0
47805,39.54768,-87.32739,Terre Haute,IN,Indiana,True,,12543.0,92.8,18167,Vigo,"{""18167"": 100}",Vigo,18167,False,False,America/Indiana/Indianapolis,"(39.54768, -87.32739)",20.70449555277244,526256.0,582_0_yes,39.84733494034672,-87.32525465276862,40.0
47807,39.47061,-87.40262,Terre Haute,IN,Indiana,True,,12550.0,1279.6,18167,Vigo,"{""18167"": 100}",Vigo,18167,False,False,America/Indiana/Indianapolis,"(39.47061, -87.40262)",26.352511062051686,526256.0,582_0_yes,39.84733494034672,-87.32525465276862,40.0
47809,39.47136,-87.40986,Terre Haute,IN,Indiana,True,,2325.0,5739.7,18167,Vigo,"{""18167"": 100}",Vigo,18167,False,False,America/Indiana/Indianapolis,"(39.47136, -87.40986)",26.364323152253245,526256.0,582_0_yes,39.84733494034672,-87.32525465276862,40.0
47832,39.87879,-87.25463,Bloomingdale,IN,Indiana,True,,1261.0,11.2,18121,Parke,"{""18121"": 100}",Parke,18121,False,False,America/Indiana/Indianapolis,"(39.87879, -87.25463)",4.330421908833228,526256.0,582_0_yes,39.84733494034672,-87.32525465276862,40.0
47833,39.35841,-86.97773,Bowling Green,IN,Indiana,True,,640.0,6.2,18021,Clay,"{""18021"": 57.34, ""18119"": 42.66}",Clay|Owen,18021|18119,False,False,America/Indiana/Indianapolis,"(39.35841, -86.97773)",38.51561570523404,526256.0,582_0_yes,39.84733494034672,-87.32525465276862,40.0
47834,39.52423,-87.12276,Brazil,IN,Indiana,True,,18808.0,47.1,18021,Clay,"{""18021"": 78.78, ""18121"": 12.13, ""18167"": 9.09}",Clay|Parke|Vigo,18021|18121|18167,False,False,America/Indiana/Indianapolis,"(39.52423, -87.12276)",24.785189120888326,526256.0,582_0_yes,39.84733494034672,-87.32525465276862,40.0
47837,39.62929,-87.11281,Carbon,IN,Indiana,True,,944.0,11.5,18121,Parke,"{""18121"": 73.6, ""18021"": 26.4}",Parke|Clay,18121|18021,False,False,America/Indiana/Indianapolis,"(39.62929, -87.11281)",18.82479270645409,526256.0,582_0_yes,39.84733494034672,-87.32525465276862,40.0
47840,39.40863,-87.05937,Centerpoint,IN,Indiana,True,,2123.0,16.4,18021,Clay,"{""18021"": 95.35, ""18133"": 4.65}",Clay|Putnam,18021|18133,False,False,America/Indiana/Indianapolis,"(39.40863, -87.05937)",33.451363284490945,526256.0,582_0_yes,39.84733494034672,-87.32525465276862,40.0
47841,39.27764,-87.11492,Clay City,IN,Indiana,True,,2670.0,15.8,18021,Clay,"{""18021"": 97.1, ""18119"": 2.9}",Clay|Owen,18021|18119,False,False,America/Indiana/Indianapolis,"(39.27764, -87.11492)",40.92555327891156,526256.0,582_0_yes,39.84733494034672,-87.32525465276862,40.0
47842,39.67569,-87.462,Clinton,IN,Indiana,True,,9693.0,51.5,18165,Vermillion,"{""18165"": 98.14, ""18167"": 1.86}",Vermillion|Vigo,18165|18167,False,False,America/Indiana/Indianapolis,"(39.67569, -87.462)",13.906798560153693,526256.0,582_0_yes,39.84733494034672,-87.32525465276862,40.0
47846,39.36601,-87.20041,Cory,IN,Indiana,True,,575.0,6.7,18021,Clay,"{""18021"": 100}",Clay,18021,False,False,America/Indiana/Indianapolis,"(39.36601, -87.20041)",33.91389934173207,526256.0,582_0_yes,39.84733494034672,-87.32525465276862,40.0
47847,39.82293,-87.48865,Dana,IN,Indiana,True,,1118.0,8.9,18165,Vermillion,"{""18165"": 100}",Vermillion,18165,False,False,America/Indiana/Indianapolis,"(39.82293, -87.48865)",8.831605543188623,526256.0,582_0_yes,39.84733494034672,-87.32525465276862,40.0
47853,39.53757,-87.07277,Harmony,IN,Indiana,True,,129.0,861.5,18021,Clay,"{""18021"": 100}",Clay,18021,False,False,America/Indiana/Indianapolis,"(39.53757, -87.07277)",25.26399960151722,526256.0,582_0_yes,39.84733494034672,-87.32525465276862,40.0
47854,39.80874,-87.41299,Hillsdale,IN,Indiana,True,,531.0,6.0,18165,Vermillion,"{""18165"": 100}",Vermillion,18165,False,False,America/Indiana/Indianapolis,"(39.80874, -87.41299)",5.365041109004714,526256.0,582_0_yes,39.84733494034672,-87.32525465276862,40.0
47857,39.52403,-87.09111,Knightsville,IN,Indiana,True,,422.0,325.7,18021,Clay,"{""18021"": 100}",Clay,18021,False,False,America/Indiana/Indianapolis,"(39.52403, -87.09111)",25.57330058498702,526256.0,582_0_yes,39.84733494034672,-87.32525465276862,40.0
47859,39.88595,-87.16999,Marshall,IN,Indiana,True,,1139.0,10.3,18121,Parke,"{""18121"": 100}",Parke,18121,False,False,America/Indiana/Indianapolis,"(39.88595, -87.16999)",8.655446665960172,526256.0,582_0_yes,39.84733494034672,-87.32525465276862,40.0
47860,39.72215,-87.33013,Mecca,IN,Indiana,True,,605.0,343.2,18121,Parke,"{""18121"": 100}",Parke,18121,False,False,America/Indiana/Indianapolis,"(39.72215, -87.33013)",8.653328143144348,526256.0,582_0_yes,39.84733494034672,-87.32525465276862,40.0
47862,39.77184,-87.34527,Montezuma,IN,Indiana,True,,1394.0,13.5,18121,Parke,"{""18121"": 100}",Parke,18121,False,False,America/Indiana/Indianapolis,"(39.77184, -87.34527)",5.323281961391334,526256.0,582_0_yes,39.84733494034672,-87.32525465276862,40.0
47863,39.57848,-87.45921,New Goshen,IN,Indiana,True,,276.0,1327.5,18167,Vigo,"{""18167"": 100}",Vigo,18167,False,False,America/Indiana/Indianapolis,"(39.57848, -87.45921)",19.893791080295298,526256.0,582_0_yes,39.84733494034672,-87.32525465276862,40.0
47866,39.28302,-87.3247,Pimento,IN,Indiana,True,,504.0,9.8,18167,Vigo,"{""18167"": 85.03, ""18153"": 14.97}",Vigo|Sullivan,18167|18153,False,False,America/Indiana/Indianapolis,"(39.28302, -87.3247)",38.990459805317684,526256.0,582_0_yes,39.84733494034672,-87.32525465276862,40.0
47868,39.40892,-86.89822,Poland,IN,Indiana,True,,3156.0,21.0,18119,Owen,"{""18119"": 81.28, ""18021"": 13.87, ""18133"": 4.85}",Owen|Clay|Putnam,18119|18021|18133,False,False,America/Indiana/Indianapolis,"(39.40892, -86.89822)",37.86814146899659,526256.0,582_0_yes,39.84733494034672,-87.32525465276862,40.0
47869,39.2751,-87.49658,Prairie Creek,IN,Indiana,True,,114.0,644.2,18167,Vigo,"{""18167"": 100}",Vigo,18167,False,False,America/Indiana/Indianapolis,"(39.2751, -87.49658)",40.57720225484183,526256.0,582_0_yes,39.84733494034672,-87.32525465276862,40.0
47871,39.38978,-87.30026,Riley,IN,Indiana,True,,453.0,2022.4,18167,Vigo,"{""18167"": 100}",Vigo,18167,False,False,America/Indiana/Indianapolis,"(39.38978, -87.30026)",31.642011219516,526256.0,582_0_yes,39.84733494034672,-87.32525465276862,40.0
47872,39.75331,-87.16271,Rockville,IN,Indiana,True,,8290.0,18.9,18121,Parke,"{""18121"": 99.68, ""18133"": 0.32}",Parke|Putnam,18121|18133,False,False,America/Indiana/Indianapolis,"(39.75331, -87.16271)",10.800615768280638,526256.0,582_0_yes,39.84733494034672,-87.32525465276862,40.0
47874,39.62913,-87.27792,Rosedale,IN,Indiana,True,,3356.0,19.2,18121,Parke,"{""18121"": 76.44, ""18167"": 19.48, ""18021"": 4.08}",Parke|Vigo|Clay,18121|18167|18021,False,False,America/Indiana/Indianapolis,"(39.62913, -87.27792)",15.28484543469391,526256.0,582_0_yes,39.84733494034672,-87.32525465276862,40.0
47876,39.50996,-87.46113,Saint Mary Of The Woods,IN,Indiana,True,,340.0,467.7,18167,Vigo,"{""18167"": 100}",Vigo,18167,False,False,America/Indiana/Indianapolis,"(39.50996, -87.46113)",24.404518777234216,526256.0,582_0_yes,39.84733494034672,-87.32525465276862,40.0
47880,39.59976,-87.41885,Shepardsville,IN,Indiana,True,,71.0,1162.1,18167,Vigo,"{""18167"": 100}",Vigo,18167,False,False,America/Indiana/Indianapolis,"(39.59976, -87.41885)",17.81425404975202,526256.0,582_0_yes,39.84733494034672,-87.32525465276862,40.0
47881,39.48722,-87.19029,Staunton,IN,Indiana,True,,346.0,902.0,18021,Clay,"{""18021"": 100}",Clay,18021,False,False,America/Indiana/Indianapolis,"(39.48722, -87.19029)",25.896301154074326,526256.0,582_0_yes,39.84733494034672,-87.32525465276862,40.0
47884,39.62308,-87.45362,Universal,IN,Indiana,True,,232.0,260.2,18165,Vermillion,"{""18165"": 100}",Vermillion,18165,False,False,America/Indiana/Indianapolis,"(39.62308, -87.45362)",16.929249728504804,526256.0,582_0_yes,39.84733494034672,-87.32525465276862,40.0
47885,39.50872,-87.47679,West Terre Haute,IN,Indiana,True,,8931.0,41.7,18167,Vigo,"{""18167"": 100}",Vigo,18167,False,False,America/Indiana/Indianapolis,"(39.50872, -87.47679)",24.744910986854006,526256.0,582_0_yes,39.84733494034672,-87.32525465276862,40.0
47901,40.4178,-86.88995,Lafayette,IN,Indiana,True,,3970.0,2554.5,18157,Tippecanoe,"{""18157"": 100}",Tippecanoe,18157,False,False,America/Indiana/Indianapolis,"(40.4178, -86.88995)",45.632671622185875,526256.0,582_0_yes,39.84733494034672,-87.32525465276862,40.0
47905,40.4218,-86.76418,Lafayette,IN,Indiana,True,,42907.0,137.6,18157,Tippecanoe,"{""18157"": 98.08, ""18015"": 1.44, ""18023"": 0.48}",Tippecanoe|Carroll|Clinton,18157|18015|18023,False,False,America/Indiana/Indianapolis,"(40.4218, -86.76418)",49.536235292771394,526256.0,582_0_yes,39.84733494034672,-87.32525465276862,40.0
47909,40.32357,-86.89933,Lafayette,IN,Indiana,True,,43328.0,141.7,18157,Tippecanoe,"{""18157"": 100}",Tippecanoe,18157,False,False,America/Indiana/Indianapolis,"(40.32357, -86.89933)",39.870436122457484,526256.0,582_0_yes,39.84733494034672,-87.32525465276862,40.0
47916,39.98343,-87.05524,Alamo,IN,Indiana,True,,69.0,427.9,18107,Montgomery,"{""18107"": 100}",Montgomery,18107,False,False,America/Indiana/Indianapolis,"(39.98343, -87.05524)",17.12233350062557,526256.0,582_0_yes,39.84733494034672,-87.32525465276862,40.0
47918,40.30388,-87.20628,Attica,IN,Indiana,True,,5719.0,15.8,18045,Fountain,"{""18045"": 59.57, ""18171"": 38.01, ""18157"": 2.42}",Fountain|Warren|Tippecanoe,18045|18171|18157,False,False,America/Indiana/Indianapolis,"(40.30388, -87.20628)",32.16529304053068,526256.0,582_0_yes,39.84733494034672,-87.32525465276862,40.0
47928,39.93237,-87.46501,Cayuga,IN,Indiana,True,,2083.0,18.8,18165,Vermillion,"{""18165"": 100}",Vermillion,18165,False,False,America/Indiana/Indianapolis,"(39.93237, -87.46501)",9.45583407145008,526256.0,582_0_yes,39.84733494034672,-87.32525465276862,40.0
47930,40.23764,-86.74137,Clarks Hill,IN,Indiana,True,,1303.0,19.5,18157,Tippecanoe,"{""18157"": 81.21, ""18107"": 17.6, ""18023"": 1.19}",Tippecanoe|Montgomery|Clinton,18157|18107|18023,False,False,America/Indiana/Indianapolis,"(40.23764, -86.74137)",41.00138415932964,526256.0,582_0_yes,39.84733494034672,-87.32525465276862,40.0
47932,40.12764,-87.40761,Covington,IN,Indiana,True,,5201.0,18.9,18045,Fountain,"{""18045"": 63.78, ""18171"": 19.26, ""18165"": 16.96}",Fountain|Warren|Vermillion,18045|18171|18165,False,False,America/Indiana/Indianapolis,"(40.12764, -87.40761)",19.851879695440374,526256.0,582_0_yes,39.84733494034672,-87.32525465276862,40.0
47933,40.03728,-86.90234,Crawfordsville,IN,Indiana,True,,27780.0,45.5,18107,Montgomery,"{""18107"": 98.2, ""18045"": 1.37, ""18011"": 0.43}",Montgomery|Fountain|Boone,18107|18045|18011,False,False,America/Indiana/Indianapolis,"(40.03728, -86.90234)",25.964185165883205,526256.0,582_0_yes,39.84733494034672,-87.32525465276862,40.0
47940,40.11749,-86.7447,Darlington,IN,Indiana,True,,1686.0,15.8,18107,Montgomery,"{""18107"": 100}",Montgomery,18107,False,False,America/Indiana/Indianapolis,"(40.11749, -86.7447)",35.95973372754272,526256.0,582_0_yes,39.84733494034672,-87.32525465276862,40.0
47941,40.37539,-86.77128,Dayton,IN,Indiana,True,,1201.0,557.2,18157,Tippecanoe,"{""18157"": 100}",Tippecanoe,18157,False,False,America/Indiana/Indianapolis,"(40.37539, -86.77128)",46.77676481126001,526256.0,582_0_yes,39.84733494034672,-87.32525465276862,40.0
47949,40.06288,-87.13504,Hillsboro,IN,Indiana,True,,1107.0,10.4,18045,Fountain,"{""18045"": 96.71, ""18107"": 3.29}",Fountain|Montgomery,18045|18107,False,False,America/Indiana/Indianapolis,"(40.06288, -87.13504)",17.980192531910802,526256.0,582_0_yes,39.84733494034672,-87.32525465276862,40.0
47952,39.96186,-87.30049,Kingman,IN,Indiana,True,,2917.0,10.2,18045,Fountain,"{""18045"": 65.54, ""18121"": 34.46}",Fountain|Parke,18045|18121,False,False,America/Indiana/Indianapolis,"(39.96186, -87.30049)",8.0210545246927,526256.0,582_0_yes,39.84733494034672,-87.32525465276862,40.0
47954,39.90048,-86.8178,Ladoga,IN,Indiana,True,,2368.0,14.0,18107,Montgomery,"{""18107"": 94.4, ""18133"": 5.6}",Montgomery|Putnam,18107|18133,False,False,America/Indiana/Indianapolis,"(39.90048, -86.8178)",27.157760652333334,526256.0,582_0_yes,39.84733494034672,-87.32525465276862,40.0
47955,40.1954,-86.86513,Linden,IN,Indiana,True,,920.0,13.6,18107,Montgomery,"{""18107"": 88.44, ""18157"": 11.56}",Montgomery|Tippecanoe,18107|18157,False,False,America/Indiana/Indianapolis,"(40.1954, -86.86513)",34.221081312221486,526256.0,582_0_yes,39.84733494034672,-87.32525465276862,40.0
47958,40.16452,-87.14862,Mellott,IN,Indiana,True,,157.0,194.8,18045,Fountain,"{""18045"": 100}",Fountain,18045,False,False,America/Indiana/Indianapolis,"(40.16452, -87.14862)",23.82589416306547,526256.0,582_0_yes,39.84733494034672,-87.32525465276862,40.0
47965,39.95452,-86.91996,New Market,IN,Indiana,True,,639.0,624.7,18107,Montgomery,"{""18107"": 100}",Montgomery,18107,False,False,America/Indiana/Indianapolis,"(39.95452, -86.91996)",22.72343233925298,526256.0,582_0_yes,39.84733494034672,-87.32525465276862,40.0
47966,39.88843,-87.41433,Newport,IN,Indiana,True,,301.0,83.1,18165,Vermillion,"{""18165"": 100}",Vermillion,18165,False,False,America/Indiana/Indianapolis,"(39.88843, -87.41433)",5.511438182746479,526256.0,582_0_yes,39.84733494034672,-87.32525465276862,40.0
47967,40.1942,-86.99899,New Richmond,IN,Indiana,True,,722.0,8.3,18107,Montgomery,"{""18107"": 77.08, ""18157"": 22.92}",Montgomery|Tippecanoe,18107|18157,False,False,America/Indiana/Indianapolis,"(40.1942, -86.99899)",29.536391931223907,526256.0,582_0_yes,39.84733494034672,-87.32525465276862,40.0
47968,39.96209,-86.74542,New Ross,IN,Indiana,True,,1228.0,18.2,18107,Montgomery,"{""18107"": 88.18, ""18011"": 10.41, ""18063"": 1.41}",Montgomery|Boone|Hendricks,18107|18011|18063,False,False,America/Indiana/Indianapolis,"(39.96209, -86.74542)",31.738887097854708,526256.0,582_0_yes,39.84733494034672,-87.32525465276862,40.0
47969,40.20355,-87.14892,Newtown,IN,Indiana,True,,109.0,105.0,18045,Fountain,"{""18045"": 100}",Fountain,18045,False,False,America/Indiana/Indianapolis,"(40.20355, -87.14892)",26.32105941341519,526256.0,582_0_yes,39.84733494034672,-87.32525465276862,40.0
47974,40.04297,-87.47356,Perrysville,IN,Indiana,True,,1087.0,10.5,18165,Vermillion,"{""18165"": 100}",Vermillion,18165,False,False,America/Indiana/Indianapolis,"(40.04297, -87.47356)",15.634155916108757,526256.0,582_0_yes,39.84733494034672,-87.32525465276862,40.0
47981,40.24599,-86.93128,Romney,IN,Indiana,True,,1043.0,11.6,18157,Tippecanoe,"{""18157"": 98.16, ""18107"": 1.84}",Tippecanoe|Montgomery,18157|18107,False,False,America/Indiana/Indianapolis,"(40.24599, -86.93128)",34.538732411510246,526256.0,582_0_yes,39.84733494034672,-87.32525465276862,40.0
47982,40.19728,-87.5268,State Line,IN,Indiana,True,,138.0,406.1,18171,Warren,"{""18171"": 100}",Warren,18171,False,False,America/Indiana/Indianapolis,"(40.19728, -87.5268)",26.426117577697983,526256.0,582_0_yes,39.84733494034672,-87.32525465276862,40.0
47983,40.28633,-86.77345,Stockwell,IN,Indiana,True,,103.0,341.6,18157,Tippecanoe,"{""18157"": 100}",Tippecanoe,18157,False,False,America/Indiana/Indianapolis,"(40.28633, -86.77345)",42.087173665509866,526256.0,582_0_yes,39.84733494034672,-87.32525465276862,40.0
47987,40.11916,-87.23428,Veedersburg,IN,Indiana,True,,4182.0,14.0,18045,Fountain,"{""18045"": 100}",Fountain,18045,False,False,America/Indiana/Indianapolis,"(40.11916, -87.23428)",19.38904650209654,526256.0,582_0_yes,39.84733494034672,-87.32525465276862,40.0
47989,39.88871,-87.05243,Waveland,IN,Indiana,True,,1071.0,10.3,18107,Montgomery,"{""18107"": 65.36, ""18121"": 32.85, ""18133"": 1.79}",Montgomery|Parke|Putnam,18107|18121|18133,False,False,America/Indiana/Indianapolis,"(39.88871, -87.05243)",14.747825237358164,526256.0,582_0_yes,39.84733494034672,-87.32525465276862,40.0
47990,40.06118,-87.05952,Waynetown,IN,Indiana,True,,1731.0,15.0,18107,Montgomery,"{""18107"": 90.66, ""18045"": 9.34}",Montgomery|Fountain,18107|18045,False,False,America/Indiana/Indianapolis,"(40.06118, -87.05952)",20.4057992222943,526256.0,582_0_yes,39.84733494034672,-87.32525465276862,40.0
47991,40.28034,-87.44794,West Lebanon,IN,Indiana,True,,1180.0,15.3,18171,Warren,"{""18171"": 100}",Warren,18171,False,False,America/Indiana/Indianapolis,"(40.28034, -87.44794)",30.61309659851807,526256.0,582_0_yes,39.84733494034672,-87.32525465276862,40.0
47992,40.31933,-87.0519,Westpoint,IN,Indiana,True,,1405.0,15.0,18157,Tippecanoe,"{""18157"": 100}",Tippecanoe,18157,False,False,America/Indiana/Indianapolis,"(40.31933, -87.0519)",35.6699145727447,526256.0,582_0_yes,39.84733494034672,-87.32525465276862,40.0
47993,40.31161,-87.41603,Williamsport,IN,Indiana,True,,3360.0,9.0,18171,Warren,"{""18171"": 100}",Warren,18171,False,False,America/Indiana/Indianapolis,"(40.31161, -87.41603)",32.435332530648736,526256.0,582_0_yes,39.84733494034672,-87.32525465276862,40.0
47994,40.18233,-87.08231,Wingate,IN,Indiana,True,,349.0,6.2,18107,Montgomery,"{""18107"": 61.54, ""18045"": 38.46}",Montgomery|Fountain,18107|18045,False,False,America/Indiana/Indianapolis,"(40.18233, -87.08231)",26.476568047031233,526256.0,582_0_yes,39.84733494034672,-87.32525465276862,40.0
60963,40.36848,-87.65115,Rossville,IL,Illinois,True,,1485.0,7.3,17183,Vermilion,"{""17183"": 100}",Vermilion,17183,False,False,America/Chicago,"(40.36848, -87.65115)",39.91417404104595,526256.0,582_0_yes,39.84733494034672,-87.32525465276862,40.0
61810,39.91019,-87.91837,Allerton,IL,Illinois,True,,282.0,4.6,17183,Vermilion,"{""17183"": 58.08, ""17045"": 21.94, ""17019"": 19.98}",Vermilion|Edgar|Champaign,17183|17045|17019,False,False,America/Chicago,"(39.91019, -87.91837)",31.746837088800955,526256.0,582_0_yes,39.84733494034672,-87.32525465276862,40.0
61811,40.29531,-87.62162,Alvin,IL,Illinois,True,,740.0,10.8,17183,Vermilion,"{""17183"": 100}",Vermilion,17183,False,False,America/Chicago,"(40.29531, -87.62162)",34.69255289536594,526256.0,582_0_yes,39.84733494034672,-87.32525465276862,40.0
61812,40.25869,-87.88989,Armstrong,IL,Illinois,True,,347.0,6.1,17183,Vermilion,"{""17183"": 100}",Vermilion,17183,False,False,America/Chicago,"(40.25869, -87.88989)",41.225473177293004,526256.0,582_0_yes,39.84733494034672,-87.32525465276862,40.0
61814,40.23191,-87.57018,Bismarck,IL,Illinois,True,,1097.0,18.0,17183,Vermilion,"{""17183"": 100}",Vermilion,17183,False,False,America/Chicago,"(40.23191, -87.57018)",29.56191921411345,526256.0,582_0_yes,39.84733494034672,-87.32525465276862,40.0
61816,39.92444,-88.00398,Broadlands,IL,Illinois,True,,461.0,6.6,17019,Champaign,"{""17019"": 100}",Champaign,17019,False,False,America/Chicago,"(39.92444, -88.00398)",36.37610187384086,526256.0,582_0_yes,39.84733494034672,-87.32525465276862,40.0
61817,40.03088,-87.71991,Catlin,IL,Illinois,True,,2436.0,31.6,17183,Vermilion,"{""17183"": 100}",Vermilion,17183,False,False,America/Chicago,"(40.03088, -87.71991)",24.45271658752484,526256.0,582_0_yes,39.84733494034672,-87.32525465276862,40.0
61831,40.22623,-87.79705,Collison,IL,Illinois,True,,146.0,4.7,17183,Vermilion,"{""17183"": 100}",Vermilion,17183,False,False,America/Chicago,"(40.22623, -87.79705)",36.169636579519434,526256.0,582_0_yes,39.84733494034672,-87.32525465276862,40.0
61832,40.13186,-87.63256,Danville,IL,Illinois,True,,34077.0,481.5,17183,Vermilion,"{""17183"": 100}",Vermilion,17183,False,False,America/Chicago,"(40.13186, -87.63256)",25.51677521336372,526256.0,582_0_yes,39.84733494034672,-87.32525465276862,40.0
61833,40.09914,-87.64718,Tilton,IL,Illinois,True,,2191.0,579.6,17183,Vermilion,"{""17183"": 100}",Vermilion,17183,False,False,America/Chicago,"(40.09914, -87.64718)",24.35669399081381,526256.0,582_0_yes,39.84733494034672,-87.32525465276862,40.0
61834,40.16428,-87.64028,Danville,IL,Illinois,True,,8516.0,30.7,17183,Vermilion,"{""17183"": 100}",Vermilion,17183,False,False,America/Chicago,"(40.16428, -87.64028)",27.523190918314793,526256.0,582_0_yes,39.84733494034672,-87.32525465276862,40.0
61841,40.02775,-87.82459,Fairmount,IL,Illinois,True,,1207.0,8.1,17183,Vermilion,"{""17183"": 100}",Vermilion,17183,False,False,America/Chicago,"(40.02775, -87.82459)",29.243147840467927,526256.0,582_0_yes,39.84733494034672,-87.32525465276862,40.0
61844,40.14431,-87.8711,Fithian,IL,Illinois,True,,827.0,5.3,17183,Vermilion,"{""17183"": 100}",Vermilion,17183,False,False,America/Chicago,"(40.14431, -87.8711)",35.43733873253951,526256.0,582_0_yes,39.84733494034672,-87.32525465276862,40.0
61846,39.97601,-87.61222,Georgetown,IL,Illinois,True,,4979.0,44.7,17183,Vermilion,"{""17183"": 100}",Vermilion,17183,False,False,America/Chicago,"(39.97601, -87.61222)",17.61632820295721,526256.0,582_0_yes,39.84733494034672,-87.32525465276862,40.0
61847,40.31148,-88.01581,Gifford,IL,Illinois,True,,1304.0,15.0,17019,Champaign,"{""17019"": 100}",Champaign,17019,False,False,America/Chicago,"(40.31148, -88.01581)",48.59239052210447,526256.0,582_0_yes,39.84733494034672,-87.32525465276862,40.0
61848,40.30694,-87.70096,Henning,IL,Illinois,True,,186.0,70.7,17183,Vermilion,"{""17183"": 100}",Vermilion,17183,False,False,America/Chicago,"(40.30694, -87.70096)",37.456088280692136,526256.0,582_0_yes,39.84733494034672,-87.32525465276862,40.0
61849,40.01145,-87.96185,Homer,IL,Illinois,True,,2059.0,13.6,17019,Champaign,"{""17019"": 66.32, ""17183"": 33.68}",Champaign|Vermilion,17019|17183,False,False,America/Chicago,"(40.01145, -87.96185)",35.58388532360219,526256.0,582_0_yes,39.84733494034672,-87.32525465276862,40.0
61850,39.9301,-87.74346,Indianola,IL,Illinois,True,,405.0,4.7,17183,Vermilion,"{""17183"": 100}",Vermilion,17183,False,False,America/Chicago,"(39.9301, -87.74346)",22.896650362395803,526256.0,582_0_yes,39.84733494034672,-87.32525465276862,40.0
61852,39.89951,-88.07277,Longview,IL,Illinois,True,,240.0,5.1,17019,Champaign,"{""17019"": 78.92, ""17041"": 21.08}",Champaign|Douglas,17019|17041,False,False,America/Chicago,"(39.89951, -88.07277)",39.80168124173535,526256.0,582_0_yes,39.84733494034672,-87.32525465276862,40.0
61857,40.11862,-87.84337,Muncie,IL,Illinois,True,,136.0,93.0,17183,Vermilion,"{""17183"": 100}",Vermilion,17183,False,False,America/Chicago,"(40.11862, -87.84337)",33.222504359784416,526256.0,582_0_yes,39.84733494034672,-87.32525465276862,40.0
61858,40.13166,-87.76438,Oakwood,IL,Illinois,True,,2885.0,38.6,17183,Vermilion,"{""17183"": 100}",Vermilion,17183,False,False,America/Chicago,"(40.13166, -87.76438)",30.43504435023448,526256.0,582_0_yes,39.84733494034672,-87.32525465276862,40.0
61859,40.15065,-87.96163,Ogden,IL,Illinois,True,,1276.0,16.3,17019,Champaign,"{""17019"": 85.39, ""17183"": 14.61}",Champaign|Vermilion,17019|17183,False,False,America/Chicago,"(40.15065, -87.96163)",39.670247223313396,526256.0,582_0_yes,39.84733494034672,-87.32525465276862,40.0
61862,40.30474,-87.95103,Penfield,IL,Illinois,True,,685.0,6.6,17019,Champaign,"{""17019"": 81.69, ""17183"": 18.31}",Champaign|Vermilion,17019|17183,False,False,America/Chicago,"(40.30474, -87.95103)",45.75319993458544,526256.0,582_0_yes,39.84733494034672,-87.32525465276862,40.0
61865,40.30362,-87.80047,Potomac,IL,Illinois,True,,1580.0,7.7,17183,Vermilion,"{""17183"": 100}",Vermilion,17183,False,False,America/Chicago,"(40.30362, -87.80047)",40.313081121397815,526256.0,582_0_yes,39.84733494034672,-87.32525465276862,40.0
61870,39.90325,-87.61562,Ridge Farm,IL,Illinois,True,,1183.0,11.2,17183,Vermilion,"{""17183"": 85.7, ""17045"": 14.3}",Vermilion|Edgar,17183|17045,False,False,America/Chicago,"(39.90325, -87.61562)",15.87396650719383,526256.0,582_0_yes,39.84733494034672,-87.32525465276862,40.0
61873,40.14069,-88.03817,Saint Joseph,IL,Illinois,True,,6129.0,37.2,17019,Champaign,"{""17019"": 100}",Champaign,17019,False,False,America/Chicago,"(40.14069, -88.03817)",42.83559169800551,526256.0,582_0_yes,39.84733494034672,-87.32525465276862,40.0
61876,39.90534,-87.8398,Sidell,IL,Illinois,True,,640.0,5.9,17183,Vermilion,"{""17183"": 75.36, ""17045"": 24.64}",Vermilion|Edgar,17183|17045,False,False,America/Chicago,"(39.90534, -87.8398)",27.576185231183814,526256.0,582_0_yes,39.84733494034672,-87.32525465276862,40.0
61883,40.03494,-87.63992,Westville,IL,Illinois,True,,4262.0,80.0,17183,Vermilion,"{""17183"": 100}",Vermilion,17183,False,False,America/Chicago,"(40.03494, -87.63992)",21.115875798013395,526256.0,582_0_yes,39.84733494034672,-87.32525465276862,40.0
61912,39.52825,-88.03357,Ashmore,IL,Illinois,True,,1425.0,10.6,17029,Coles,"{""17029"": 100}",Coles,17029,False,False,America/Chicago,"(39.52825, -88.03357)",43.63931035298425,526256.0,582_0_yes,39.84733494034672,-87.32525465276862,40.0
61917,39.71746,-87.8941,Brocton,IL,Illinois,True,,531.0,3.0,17045,Edgar,"{""17045"": 93.59, ""17041"": 6.41}",Edgar|Douglas,17045|17041,False,False,America/Chicago,"(39.71746, -87.8941)",31.508685438505,526256.0,582_0_yes,39.84733494034672,-87.32525465276862,40.0
61924,39.79269,-87.6506,Chrisman,IL,Illinois,True,,2394.0,6.5,17045,Edgar,"{""17045"": 100}",Edgar,17045,False,False,America/Chicago,"(39.79269, -87.6506)",17.673382983017106,526256.0,582_0_yes,39.84733494034672,-87.32525465276862,40.0
61932,39.79968,-87.87493,Hume,IL,Illinois,True,,562.0,11.7,17045,Edgar,"{""17045"": 100}",Edgar,17045,False,False,America/Chicago,"(39.79968, -87.87493)",29.353829401642358,526256.0,582_0_yes,39.84733494034672,-87.32525465276862,40.0
61933,39.55099,-87.91502,Kansas,IL,Illinois,True,,1021.0,6.7,17045,Edgar,"{""17045"": 92.81, ""17023"": 6.31, ""17029"": 0.88}",Edgar|Clark|Coles,17045|17023|17029,False,False,America/Chicago,"(39.55099, -87.91502)",37.446212459414326,526256.0,582_0_yes,39.84733494034672,-87.32525465276862,40.0
61940,39.80395,-87.81249,Metcalf,IL,Illinois,True,,338.0,4.1,17045,Edgar,"{""17045"": 100}",Edgar,17045,False,False,America/Chicago,"(39.80395, -87.81249)",26.027591450064747,526256.0,582_0_yes,39.84733494034672,-87.32525465276862,40.0
61941,39.80457,-88.07505,Murdock,IL,Illinois,True,,181.0,37.8,17041,Douglas,"{""17041"": 100}",Douglas,17041,False,False,America/Chicago,"(39.80457, -88.07505)",39.896062352376205,526256.0,582_0_yes,39.84733494034672,-87.32525465276862,40.0
61942,39.81515,-88.00818,Newman,IL,Illinois,True,,1064.0,5.9,17041,Douglas,"{""17041"": 90.52, ""17045"": 9.48}",Douglas|Edgar,17041|17045,False,False,America/Chicago,"(39.81515, -88.00818)",36.3035628710887,526256.0,582_0_yes,39.84733494034672,-87.32525465276862,40.0
61943,39.6608,-88.0248,Oakland,IL,Illinois,True,,1711.0,8.9,17029,Coles,"{""17029"": 57.88, ""17041"": 34.25, ""17045"": 7.87}",Coles|Douglas|Edgar,17029|17041|17045,False,False,America/Chicago,"(39.6608, -88.0248)",39.33051105615022,526256.0,582_0_yes,39.84733494034672,-87.32525465276862,40.0
61944,39.59969,-87.70146,Paris,IL,Illinois,True,,11901.0,17.5,17045,Edgar,"{""17045"": 99.21, ""17023"": 0.79}",Edgar|Clark,17045|17023,False,False,America/Chicago,"(39.59969, -87.70146)",26.31479729607651,526256.0,582_0_yes,39.84733494034672,-87.32525465276862,40.0
61949,39.65753,-87.85844,Redmon,IL,Illinois,True,,165.0,56.9,17045,Edgar,"{""17045"": 100}",Edgar,17045,False,False,America/Chicago,"(39.65753, -87.85844)",31.211566660744317,526256.0,582_0_yes,39.84733494034672,-87.32525465276862,40.0
61955,39.58162,-87.5875,Vermilion,IL,Illinois,True,,224.0,219.5,17045,Edgar,"{""17045"": 100}",Edgar,17045,False,False,America/Chicago,"(39.58162, -87.5875)",23.05058504040451,526256.0,582_0_yes,39.84733494034672,-87.32525465276862,40.0
62420,39.29065,-88.0005,Casey,IL,Illinois,True,,4510.0,14.1,17023,Clark,"{""17023"": 56.86, ""17035"": 36.11, ""17029"": 5.49, ""17079"": 1.54}",Clark|Cumberland|Coles|Jasper,17023|17035|17029|17079,False,False,America/Chicago,"(39.29065, -88.0005)",52.657603455317805,526256.0,582_0_yes,39.84733494034672,-87.32525465276862,40.0
62423,39.46208,-87.5819,Dennison,IL,Illinois,True,,546.0,8.7,17023,Clark,"{""17023"": 66.56, ""17045"": 33.44}",Clark|Edgar,17023|17045,False,False,America/Chicago,"(39.46208, -87.5819)",29.915426037930942,526256.0,582_0_yes,39.84733494034672,-87.32525465276862,40.0
62441,39.39392,-87.69795,Marshall,IL,Illinois,True,,6953.0,15.2,17023,Clark,"{""17023"": 96.37, ""17045"": 3.63}",Clark|Edgar,17023|17045,False,False,America/Chicago,"(39.39392, -87.69795)",37.07937226389744,526256.0,582_0_yes,39.84733494034672,-87.32525465276862,40.0
62442,39.31269,-87.85602,Martinsville,IL,Illinois,True,,2763.0,7.6,17023,Clark,"{""17023"": 97.92, ""17033"": 2.08}",Clark|Crawford,17023|17033,False,False,America/Chicago,"(39.31269, -87.85602)",46.51312546345643,526256.0,582_0_yes,39.84733494034672,-87.32525465276862,40.0
62474,39.43526,-87.99462,Westfield,IL,Illinois,True,,719.0,7.7,17023,Clark,"{""17023"": 63.55, ""17029"": 36.45}",Clark|Coles,17023|17029,False,False,America/Chicago,"(39.43526, -87.99462)",45.59573273409743,526256.0,582_0_yes,39.84733494034672,-87.32525465276862,40.0
