zip,lat,lng,city,state_id,state_name,zcta,parent_zcta,population,density,county_fips,county_name,county_weights,county_names_all,county_fips_all,imprecise,military,timezone,Coord,distance_miles,market_total_population,market_id,market_center_lat,market_center_lng,radius_miles
89402,39.23075,-120.00259,Crystal Bay,NV,Nevada,True,,17.0,24.7,32031,Washoe,"{""32031"": 99.4, ""06061"": 0.6}",Washoe|Placer,32031|06061,False,False,America/Los_Angeles,"(39.23075, -120.00259)",18.71891687470445,607989.0,603_0_no,39.48219924008885,-119.87215259013212,40.0
89403,39.25838,-119.48633,Dayton,NV,Nevada,True,,15885.0,37.9,32019,Lyon,"{""32019"": 80.42, ""32029"": 19.58}",Lyon|Storey,32019|32029,False,False,America/Los_Angeles,"(39.25838, -119.48633)",25.765138412874357,607989.0,603_0_no,39.48219924008885,-119.87215259013212,40.0
89411,39.01837,-119.85301,Genoa,NV,Nevada,True,,776.0,14.0,32005,Douglas,"{""32005"": 100}",Douglas,32005,False,False,America/Los_Angeles,"(39.01837, -119.85301)",32.06391056994217,607989.0,603_0_no,39.48219924008885,-119.87215259013212,40.0
89413,39.07389,-119.92095,Glenbrook,NV,Nevada,True,,723.0,17.7,32005,Douglas,"{""32005"": 100}",Douglas,32005,False,False,America/Los_Angeles,"(39.07389, -119.92095)",28.331944534699453,607989.0,603_0_no,39.48219924008885,-119.87215259013212,40.0
89423,39.01561,-119.74636,Minden,NV,Nevada,True,,10636.0,54.9,32005,Douglas,"{""32005"": 100}",Douglas,32005,False,False,America/Los_Angeles,"(39.01561, -119.74636)",32.9333563096296,607989.0,603_0_no,39.48219924008885,-119.87215259013212,40.0
89428,39.25691,-119.63099,Silver City,NV,Nevada,True,,115.0,28.9,32019,Lyon,"{""32019"": 100}",Lyon,32019,False,False,America/Los_Angeles,"(39.25691, -119.63099)",20.20476015945415,607989.0,603_0_no,39.48219924008885,-119.87215259013212,40.0
89429,39.36221,-119.29063,Silver Springs,NV,Nevada,True,,7720.0,12.6,32019,Lyon,"{""32019"": 100}",Lyon,32019,False,False,America/Los_Angeles,"(39.36221, -119.29063)",32.12614852744678,607989.0,603_0_no,39.48219924008885,-119.87215259013212,40.0
89431,39.53865,-119.75005,Sparks,NV,Nevada,True,,39415.0,1649.6,32031,Washoe,"{""32031"": 100}",Washoe,32031,False,False,America/Los_Angeles,"(39.53865, -119.75005)",7.58799670321916,607989.0,603_0_no,39.48219924008885,-119.87215259013212,40.0
89433,39.59758,-119.77817,Sun Valley,NV,Nevada,True,,21771.0,754.4,32031,Washoe,"{""32031"": 100}",Washoe,32031,False,False,America/Los_Angeles,"(39.59758, -119.77817)",9.4143991461492,607989.0,603_0_no,39.48219924008885,-119.87215259013212,40.0
89434,39.54019,-119.53318,Sparks,NV,Nevada,True,,26564.0,81.8,32029,Storey,"{""32029"": 69.16, ""32031"": 30.84}",Storey|Washoe,32029|32031,False,False,America/Los_Angeles,"(39.54019, -119.53318)",18.50803741490822,607989.0,603_0_no,39.48219924008885,-119.87215259013212,40.0
89436,39.61086,-119.69854,Sparks,NV,Nevada,True,,44454.0,403.9,32031,Washoe,"{""32031"": 100}",Washoe,32031,False,False,America/Los_Angeles,"(39.61086, -119.69854)",12.82903400098687,607989.0,603_0_no,39.48219924008885,-119.87215259013212,40.0
89439,39.52291,-119.99008,Verdi,NV,Nevada,True,,1244.0,29.5,32031,Washoe,"{""32031"": 74.22, ""06091"": 25.78}",Washoe|Sierra,32031|06091,False,False,America/Los_Angeles,"(39.52291, -119.99008)",6.887532821218719,607989.0,603_0_no,39.48219924008885,-119.87215259013212,40.0
89440,39.29597,-119.66212,Virginia City,NV,Nevada,True,,747.0,23.1,32029,Storey,"{""32029"": 100}",Storey,32029,False,False,America/Los_Angeles,"(39.29597, -119.66212)",17.069085927835577,607989.0,603_0_no,39.48219924008885,-119.87215259013212,40.0
89441,39.68131,-119.68755,Sparks,NV,Nevada,True,,12479.0,97.0,32031,Washoe,"{""32031"": 100}",Washoe,32031,False,False,America/Los_Angeles,"(39.68131, -119.68755)",16.908494252348344,607989.0,603_0_no,39.48219924008885,-119.87215259013212,40.0
89442,39.69511,-119.35082,Wadsworth,NV,Nevada,True,,1048.0,1.9,32031,Washoe,"{""32031"": 100}",Washoe,32031,False,False,America/Los_Angeles,"(39.69511, -119.35082)",31.415907314467184,607989.0,603_0_no,39.48219924008885,-119.87215259013212,40.0
89448,39.00789,-119.92412,Zephyr Cove,NV,Nevada,True,,1776.0,55.8,32005,Douglas,"{""32005"": 100}",Douglas,32005,False,False,America/Los_Angeles,"(39.00789, -119.92412)",32.88940873649278,607989.0,603_0_no,39.48219924008885,-119.87215259013212,40.0
89449,38.96433,-119.90688,Stateline,NV,Nevada,True,,2973.0,114.4,32005,Douglas,"{""32005"": 100}",Douglas,32005,False,False,America/Los_Angeles,"(38.96433, -119.90688)",35.82960481709899,607989.0,603_0_no,39.48219924008885,-119.87215259013212,40.0
89450,39.24135,-119.93832,Incline Village,NV,Nevada,True,,18.0,672.7,32031,Washoe,"{""32031"": 100}",Washoe,32031,False,False,America/Los_Angeles,"(39.24135, -119.93832)",17.012346555225704,607989.0,603_0_no,39.48219924008885,-119.87215259013212,40.0
89451,39.26775,-119.94534,Incline Village,NV,Nevada,True,,9304.0,85.1,32031,Washoe,"{""32031"": 99.19, ""06061"": 0.65, ""06057"": 0.16}",Washoe|Placer|Nevada,32031|06061|06057,False,False,America/Los_Angeles,"(39.26775, -119.94534)",15.323972763353973,607989.0,603_0_no,39.48219924008885,-119.87215259013212,40.0
89501,39.52602,-119.81262,Reno,NV,Nevada,True,,4435.0,2930.3,32031,Washoe,"{""32031"": 100}",Washoe,32031,False,False,America/Los_Angeles,"(39.52602, -119.81262)",4.38631645187578,607989.0,603_0_no,39.48219924008885,-119.87215259013212,40.0
89502,39.49383,-119.74701,Reno,NV,Nevada,True,,44881.0,807.5,32031,Washoe,"{""32031"": 100}",Washoe,32031,False,False,America/Los_Angeles,"(39.49383, -119.74701)",6.721238156317221,607989.0,603_0_no,39.48219924008885,-119.87215259013212,40.0
89503,39.54112,-119.83991,Reno,NV,Nevada,True,,29993.0,1875.4,32031,Washoe,"{""32031"": 100}",Washoe,32031,False,False,America/Los_Angeles,"(39.54112, -119.83991)",4.418966534922148,607989.0,603_0_no,39.48219924008885,-119.87215259013212,40.0
89506,39.70084,-119.82646,Reno,NV,Nevada,True,,42742.0,181.1,32031,Washoe,"{""32031"": 100}",Washoe,32031,False,False,America/Los_Angeles,"(39.70084, -119.82646)",15.301282581516675,607989.0,603_0_no,39.48219924008885,-119.87215259013212,40.0
89508,39.78504,-119.92728,Reno,NV,Nevada,True,,14198.0,36.5,32031,Washoe,"{""32031"": 100}",Washoe,32031,False,False,America/Los_Angeles,"(39.78504, -119.92728)",21.128921804144987,607989.0,603_0_no,39.48219924008885,-119.87215259013212,40.0
89509,39.49637,-119.8273,Reno,NV,Nevada,True,,35558.0,1556.0,32031,Washoe,"{""32031"": 100}",Washoe,32031,False,False,America/Los_Angeles,"(39.49637, -119.8273)",2.584304082695564,607989.0,603_0_no,39.48219924008885,-119.87215259013212,40.0
89510,39.93619,-119.73734,Reno,NV,Nevada,True,,1671.0,1.1,32031,Washoe,"{""32031"": 100}",Washoe,32031,False,False,America/Los_Angeles,"(39.93619, -119.73734)",32.175833534961555,607989.0,603_0_no,39.48219924008885,-119.87215259013212,40.0
89511,39.40747,-119.88822,Reno,NV,Nevada,True,,27874.0,81.8,32031,Washoe,"{""32031"": 99.65, ""06057"": 0.35}",Washoe|Nevada,32031|06057,False,False,America/Los_Angeles,"(39.40747, -119.88822)",5.233986709955611,607989.0,603_0_no,39.48219924008885,-119.87215259013212,40.0
89512,39.55322,-119.80074,Reno,NV,Nevada,True,,26690.0,1661.0,32031,Washoe,"{""32031"": 100}",Washoe,32031,False,False,America/Los_Angeles,"(39.55322, -119.80074)",6.210271796447337,607989.0,603_0_no,39.48219924008885,-119.87215259013212,40.0
89519,39.48518,-119.86003,Reno,NV,Nevada,True,,8602.0,511.2,32031,Washoe,"{""32031"": 100}",Washoe,32031,False,False,America/Los_Angeles,"(39.48518, -119.86003)",0.678471219894875,607989.0,603_0_no,39.48219924008885,-119.87215259013212,40.0
89521,39.37215,-119.67611,Reno,NV,Nevada,True,,34101.0,141.6,32031,Washoe,"{""32031"": 57.17, ""32029"": 42.83}",Washoe|Storey,32031|32029,False,False,America/Los_Angeles,"(39.37215, -119.67611)",12.933901556665646,607989.0,603_0_no,39.48219924008885,-119.87215259013212,40.0
89523,39.52387,-119.91309,Reno,NV,Nevada,True,,35065.0,716.9,32031,Washoe,"{""32031"": 100}",Washoe,32031,False,False,America/Los_Angeles,"(39.52387, -119.91309)",3.612856753710674,607989.0,603_0_no,39.48219924008885,-119.87215259013212,40.0
89701,39.13944,-119.72087,Carson City,NV,Nevada,True,,27328.0,303.0,32510,Carson City,"{""32510"": 100}",Carson City,32510,False,False,America/Los_Angeles,"(39.13944, -119.72087)",25.0252299767137,607989.0,603_0_no,39.48219924008885,-119.87215259013212,40.0
89703,39.15359,-119.8486,Carson City,NV,Nevada,True,,10062.0,87.8,32510,Carson City,"{""32510"": 98.34, ""32031"": 1.66}",Carson City|Washoe,32510|32031,False,False,America/Los_Angeles,"(39.15359, -119.8486)",22.739613597894163,607989.0,603_0_no,39.48219924008885,-119.87215259013212,40.0
89704,39.26789,-119.81712,Washoe Valley,NV,Nevada,True,,4411.0,22.3,32031,Washoe,"{""32031"": 100}",Washoe,32031,False,False,America/Los_Angeles,"(39.26789, -119.81712)",15.096265139857909,607989.0,603_0_no,39.48219924008885,-119.87215259013212,40.0
89705,39.09003,-119.83689,Carson City,NV,Nevada,True,,5315.0,88.4,32005,Douglas,"{""32005"": 95.93, ""32510"": 4.07}",Douglas|Carson City,32005|32510,False,False,America/Los_Angeles,"(39.09003, -119.83689)",27.16185361222516,607989.0,603_0_no,39.48219924008885,-119.87215259013212,40.0
89706,39.22002,-119.69974,Carson City,NV,Nevada,True,,19447.0,217.6,32510,Carson City,"{""32510"": 52.62, ""32019"": 47.38}",Carson City|Lyon,32510|32019,False,False,America/Los_Angeles,"(39.22002, -119.69974)",20.322475704145052,607989.0,603_0_no,39.48219924008885,-119.87215259013212,40.0
95728,39.29673,-120.40358,Soda Springs,CA,California,True,,328.0,4.5,6061,Placer,"{""06061"": 76.85, ""06057"": 23.15}",Placer|Nevada,06061|06057,False,False,America/Los_Angeles,"(39.29673, -120.40358)",31.136820873379797,607989.0,603_0_no,39.48219924008885,-119.87215259013212,40.0
96105,39.82478,-120.1821,Chilcoot,CA,California,True,,351.0,0.5,6063,Plumas,"{""06063"": 59.92, ""06091"": 26.19, ""06035"": 13.89}",Plumas|Sierra|Lassen,06063|06091|06035,False,False,America/Los_Angeles,"(39.82478, -120.1821)",28.846581408631017,607989.0,603_0_no,39.48219924008885,-119.87215259013212,40.0
96106,39.73552,-120.54388,Clio,CA,California,True,,465.0,8.1,6063,Plumas,"{""06063"": 100}",Plumas,06063,False,False,America/Los_Angeles,"(39.73552, -120.54388)",39.81028443757624,607989.0,603_0_no,39.48219924008885,-119.87215259013212,40.0
96109,39.99747,-120.09521,Doyle,CA,California,True,,914.0,1.6,6035,Lassen,"{""06035"": 100}",Lassen,06035,False,False,America/Los_Angeles,"(39.99747, -120.09521)",37.52242427113678,607989.0,603_0_no,39.48219924008885,-119.87215259013212,40.0
96111,39.41571,-120.01648,Floriston,CA,California,True,,111.0,9.0,6057,Nevada,"{""06057"": 100}",Nevada,06057,False,False,America/Los_Angeles,"(39.41571, -120.01648)",8.96659579125936,607989.0,603_0_no,39.48219924008885,-119.87215259013212,40.0
96118,39.64823,-120.25392,Loyalton,CA,California,True,,1671.0,3.8,6091,Sierra,"{""06091"": 82.59, ""06063"": 17.41}",Sierra|Plumas,06091|06063,False,False,America/Los_Angeles,"(39.64823, -120.25392)",23.347141270034335,607989.0,603_0_no,39.48219924008885,-119.87215259013212,40.0
96122,39.82082,-120.47652,Portola,CA,California,True,,3594.0,21.7,6063,Plumas,"{""06063"": 100}",Plumas,06063,False,False,America/Los_Angeles,"(39.82082, -120.47652)",39.76265271915166,607989.0,603_0_no,39.48219924008885,-119.87215259013212,40.0
96124,39.63918,-120.46194,Calpine,CA,California,True,,367.0,2.7,6091,Sierra,"{""06091"": 100}",Sierra,06091,False,False,America/Los_Angeles,"(39.63918, -120.46194)",33.236091844256244,607989.0,603_0_no,39.48219924008885,-119.87215259013212,40.0
96125,39.61526,-120.60493,Sierra City,CA,California,True,,84.0,0.3,6091,Sierra,"{""06091"": 100}",Sierra,06091,False,False,America/Los_Angeles,"(39.61526, -120.60493)",40.10779980004156,607989.0,603_0_no,39.48219924008885,-119.87215259013212,40.0
96126,39.54764,-120.38999,Sierraville,CA,California,True,,166.0,2.2,6091,Sierra,"{""06091"": 100}",Sierra,06091,False,False,America/Los_Angeles,"(39.54764, -120.38999)",27.969993451572755,607989.0,603_0_no,39.48219924008885,-119.87215259013212,40.0
96129,39.81848,-120.35346,Beckwourth,CA,California,True,,301.0,1.0,6063,Plumas,"{""06063"": 100}",Plumas,06063,False,False,America/Los_Angeles,"(39.81848, -120.35346)",34.57542282781877,607989.0,603_0_no,39.48219924008885,-119.87215259013212,40.0
96135,39.81303,-120.20927,Vinton,CA,California,True,,280.0,3.1,6063,Plumas,"{""06063"": 100}",Plumas,06063,False,False,America/Los_Angeles,"(39.81303, -120.20927)",29.054369799046476,607989.0,603_0_no,39.48219924008885,-119.87215259013212,40.0
96140,39.23244,-120.10364,Carnelian Bay,CA,California,True,,1345.0,50.2,6061,Placer,"{""06061"": 100}",Placer,06061,False,False,America/Los_Angeles,"(39.23244, -120.10364)",21.23046729736213,607989.0,603_0_no,39.48219924008885,-119.87215259013212,40.0
96141,39.10297,-120.19872,Homewood,CA,California,True,,463.0,6.2,6061,Placer,"{""06061"": 100}",Placer,06061,False,False,America/Los_Angeles,"(39.10297, -120.19872)",31.487988439789575,607989.0,603_0_no,39.48219924008885,-119.87215259013212,40.0
96142,39.0138,-120.09592,Tahoma,CA,California,True,,934.0,22.6,6017,El Dorado,"{""06017"": 99.15, ""06061"": 0.85}",El Dorado|Placer,06017|06061,False,False,America/Los_Angeles,"(39.0138, -120.09592)",34.50705002140268,607989.0,603_0_no,39.48219924008885,-119.87215259013212,40.0
96143,39.26174,-120.02817,Kings Beach,CA,California,True,,3356.0,140.4,6061,Placer,"{""06061"": 100}",Placer,06061,False,False,America/Los_Angeles,"(39.26174, -120.02817)",17.362749528491996,607989.0,603_0_no,39.48219924008885,-119.87215259013212,40.0
96145,39.18203,-120.15143,Tahoe City,CA,California,True,,2664.0,58.1,6061,Placer,"{""06061"": 100}",Placer,06061,False,False,America/Los_Angeles,"(39.18203, -120.15143)",25.551912053423507,607989.0,603_0_no,39.48219924008885,-119.87215259013212,40.0
96146,39.22556,-120.23681,Olympic Valley,CA,California,True,,1096.0,10.5,6061,Placer,"{""06061"": 100}",Placer,06061,False,False,America/Los_Angeles,"(39.22556, -120.23681)",26.343522690257956,607989.0,603_0_no,39.48219924008885,-119.87215259013212,40.0
96148,39.24978,-120.05767,Tahoe Vista,CA,California,True,,679.0,125.5,6061,Placer,"{""06061"": 100}",Placer,06061,False,False,America/Los_Angeles,"(39.24978, -120.05767)",18.870152364292764,607989.0,603_0_no,39.48219924008885,-119.87215259013212,40.0
96161,39.34848,-120.22603,Truckee,CA,California,True,,18782.0,27.6,6057,Nevada,"{""06057"": 70.01, ""06061"": 29.99}",Nevada|Placer,06057|06061,False,False,America/Los_Angeles,"(39.34848, -120.22603)",21.02805340496134,607989.0,603_0_no,39.48219924008885,-119.87215259013212,40.0
