zip,lat,lng,city,state_id,state_name,zcta,parent_zcta,population,density,county_fips,county_name,county_weights,county_names_all,county_fips_all,imprecise,military,timezone,Coord,distance_miles,market_total_population,market_id,market_center_lat,market_center_lng,radius_miles
43408,41.57179,-83.36352,Clay Center,OH,Ohio,True,,398.0,233.7,39123,Ottawa,"{""39123"": 100}",Ottawa,39123,False,False,America/New_York,"(41.57179, -83.36352)",45.92489621327417,4147062.0,657_0_yes,42.124134517036765,-82.8671534112414,40.0
43412,41.62933,-83.31961,Curtice,OH,Ohio,True,,4218.0,58.9,39095,Lucas,"{""39095"": 61.62, ""39123"": 38.38}",Lucas|Ottawa,39095|39123,False,False,America/New_York,"(41.62933, -83.31961)",41.35947405842861,4147062.0,657_0_yes,42.124134517036765,-82.8671534112414,40.0
43432,41.56115,-83.24934,Graytown,OH,Ohio,True,,1359.0,24.1,39123,Ottawa,"{""39123"": 100}",Ottawa,39123,False,False,America/New_York,"(41.56115, -83.24934)",43.58997560810381,4147062.0,657_0_yes,42.124134517036765,-82.8671534112414,40.0
43434,41.69319,-83.44474,Harbor View,OH,Ohio,True,,156.0,2576.9,39095,Lucas,"{""39095"": 100}",Lucas,39095,False,False,America/New_York,"(41.69319, -83.44474)",42.054975342260725,4147062.0,657_0_yes,42.124134517036765,-82.8671534112414,40.0
43438,41.60343,-82.70268,Kelleys Island,OH,Ohio,True,,283.0,25.1,39043,Erie,"{""39043"": 100}",Erie,39043,False,False,America/New_York,"(41.60343, -82.70268)",36.95925493563247,4147062.0,657_0_yes,42.124134517036765,-82.8671534112414,40.0
43445,41.58644,-83.29488,Martin,OH,Ohio,True,,959.0,18.2,39123,Ottawa,"{""39123"": 82.02, ""39095"": 17.98}",Ottawa|Lucas,39123|39095,False,False,America/New_York,"(41.58644, -83.29488)",43.182493064196585,4147062.0,657_0_yes,42.124134517036765,-82.8671534112414,40.0
43446,41.68483,-82.80863,Middle Bass,OH,Ohio,True,,74.0,22.7,39123,Ottawa,"{""39123"": 100}",Ottawa,39123,False,False,America/New_York,"(41.68483, -82.80863)",30.501876826801293,4147062.0,657_0_yes,42.124134517036765,-82.8671534112414,40.0
43447,41.56654,-83.43429,Millbury,OH,Ohio,True,,3229.0,71.9,39173,Wood,"{""39173"": 69.97, ""39123"": 30.03}",Wood|Ottawa,39173|39123,False,False,America/New_York,"(41.56654, -83.43429)",48.33586447786389,4147062.0,657_0_yes,42.124134517036765,-82.8671534112414,40.0
43456,41.64934,-82.82497,Put In Bay,OH,Ohio,True,,445.0,67.9,39123,Ottawa,"{""39123"": 100}",Ottawa,39123,False,False,America/New_York,"(41.64934, -82.82497)",32.87685543551394,4147062.0,657_0_yes,42.124134517036765,-82.8671534112414,40.0
43460,41.60392,-83.56328,Rossford,OH,Ohio,True,,6483.0,963.0,39173,Wood,"{""39173"": 100}",Wood,39173,False,False,America/New_York,"(41.60392, -83.56328)",50.74401334338757,4147062.0,657_0_yes,42.124134517036765,-82.8671534112414,40.0
43465,41.56593,-83.50489,Walbridge,OH,Ohio,True,,5259.0,165.6,39173,Wood,"{""39173"": 100}",Wood,39173,False,False,America/New_York,"(41.56593, -83.50489)",50.645480931323945,4147062.0,657_0_yes,42.124134517036765,-82.8671534112414,40.0
43468,41.59974,-83.34661,Williston,OH,Ohio,True,,426.0,100.1,39123,Ottawa,"{""39123"": 100}",Ottawa,39123,False,False,America/New_York,"(41.59974, -83.34661)",43.83435568678647,4147062.0,657_0_yes,42.124134517036765,-82.8671534112414,40.0
43604,41.65217,-83.53977,Toledo,OH,Ohio,True,,9386.0,1286.4,39095,Lucas,"{""39095"": 100}",Lucas,39095,False,False,America/New_York,"(41.65217, -83.53977)",47.542803671736266,4147062.0,657_0_yes,42.124134517036765,-82.8671534112414,40.0
43605,41.64734,-83.50722,Toledo,OH,Ohio,True,,25843.0,1391.2,39095,Lucas,"{""39095"": 98.65, ""39173"": 1.35}",Lucas|Wood,39095|39173,False,False,America/New_York,"(41.64734, -83.50722)",46.575030754006,4147062.0,657_0_yes,42.124134517036765,-82.8671534112414,40.0
43606,41.67178,-83.61085,Toledo,OH,Ohio,True,,25582.0,1531.2,39095,Lucas,"{""39095"": 100}",Lucas,39095,False,False,America/New_York,"(41.67178, -83.61085)",49.39312368569987,4147062.0,657_0_yes,42.124134517036765,-82.8671534112414,40.0
43607,41.64761,-83.60582,Toledo,OH,Ohio,True,,19920.0,1061.6,39095,Lucas,"{""39095"": 100}",Lucas,39095,False,False,America/New_York,"(41.64761, -83.60582)",50.27606102465307,4147062.0,657_0_yes,42.124134517036765,-82.8671534112414,40.0
43608,41.68008,-83.53062,Toledo,OH,Ohio,True,,14326.0,1666.9,39095,Lucas,"{""39095"": 100}",Lucas,39095,False,False,America/New_York,"(41.68008, -83.53062)",45.88484007110473,4147062.0,657_0_yes,42.124134517036765,-82.8671534112414,40.0
43609,41.62849,-83.57824,Toledo,OH,Ohio,True,,21296.0,1705.8,39095,Lucas,"{""39095"": 100}",Lucas,39095,False,False,America/New_York,"(41.62849, -83.57824)",50.11013848432009,4147062.0,657_0_yes,42.124134517036765,-82.8671534112414,40.0
43610,41.67775,-83.5614,Toledo,OH,Ohio,True,,4277.0,1330.0,39095,Lucas,"{""39095"": 100}",Lucas,39095,False,False,America/New_York,"(41.67775, -83.5614)",47.179272574607154,4147062.0,657_0_yes,42.124134517036765,-82.8671534112414,40.0
43611,41.70241,-83.49154,Toledo,OH,Ohio,True,,19018.0,1004.2,39095,Lucas,"{""39095"": 100}",Lucas,39095,False,False,America/New_York,"(41.70241, -83.49154)",43.35517329025938,4147062.0,657_0_yes,42.124134517036765,-82.8671534112414,40.0
43612,41.70946,-83.54899,Toledo,OH,Ohio,True,,29445.0,986.6,39095,Lucas,"{""39095"": 100}",Lucas,39095,False,False,America/New_York,"(41.70946, -83.54899)",45.27434712762377,4147062.0,657_0_yes,42.124134517036765,-82.8671534112414,40.0
43613,41.70628,-83.60374,Toledo,OH,Ohio,True,,32811.0,2068.2,39095,Lucas,"{""39095"": 100}",Lucas,39095,False,False,America/New_York,"(41.70628, -83.60374)",47.620896100455475,4147062.0,657_0_yes,42.124134517036765,-82.8671534112414,40.0
43614,41.60336,-83.62715,Toledo,OH,Ohio,True,,29983.0,1288.8,39095,Lucas,"{""39095"": 100}",Lucas,39095,False,False,America/New_York,"(41.60336, -83.62715)",53.14120016175611,4147062.0,657_0_yes,42.124134517036765,-82.8671534112414,40.0
43616,41.65727,-83.40931,Oregon,OH,Ohio,True,,20455.0,205.4,39095,Lucas,"{""39095"": 100}",Lucas,39095,False,False,America/New_York,"(41.65727, -83.40931)",42.639400691763676,4147062.0,657_0_yes,42.124134517036765,-82.8671534112414,40.0
43619,41.60424,-83.47348,Northwood,OH,Ohio,True,,7379.0,244.7,39173,Wood,"{""39173"": 100}",Wood,39173,False,False,America/New_York,"(41.60424, -83.47348)",47.57828684242676,4147062.0,657_0_yes,42.124134517036765,-82.8671534112414,40.0
43620,41.66519,-83.5547,Toledo,OH,Ohio,True,,5386.0,1937.3,39095,Lucas,"{""39095"": 100}",Lucas,39095,False,False,America/New_York,"(41.66519, -83.5547)",47.49661578411095,4147062.0,657_0_yes,42.124134517036765,-82.8671534112414,40.0
48001,42.63732,-82.57949,Algonac,MI,Michigan,True,,11901.0,241.5,26147,St. Clair,"{""26147"": 100}",St. Clair,26147,False,False,America/Detroit,"(42.63732, -82.57949)",38.37708815487622,4147062.0,657_0_yes,42.124134517036765,-82.8671534112414,40.0
48009,42.54381,-83.21765,Birmingham,MI,Michigan,True,,21277.0,1654.8,26125,Oakland,"{""26125"": 100}",Oakland,26125,False,False,America/Detroit,"(42.54381, -83.21765)",34.07771756396741,4147062.0,657_0_yes,42.124134517036765,-82.8671534112414,40.0
48015,42.48055,-83.02743,Center Line,MI,Michigan,True,,8212.0,1809.2,26099,Macomb,"{""26099"": 100}",Macomb,26099,False,False,America/Detroit,"(42.48055, -83.02743)",25.9522677700692,4147062.0,657_0_yes,42.124134517036765,-82.8671534112414,40.0
48017,42.53669,-83.15039,Clawson,MI,Michigan,True,,11852.0,2083.7,26125,Oakland,"{""26125"": 100}",Oakland,26125,False,False,America/Detroit,"(42.53669, -83.15039)",31.96608628364048,4147062.0,657_0_yes,42.124134517036765,-82.8671534112414,40.0
48021,42.46567,-82.94598,Eastpointe,MI,Michigan,True,,32149.0,2410.6,26099,Macomb,"{""26099"": 100}",Macomb,26099,False,False,America/Detroit,"(42.46567, -82.94598)",23.93926880313157,4147062.0,657_0_yes,42.124134517036765,-82.8671534112414,40.0
48023,42.70102,-82.6593,Fair Haven,MI,Michigan,True,,5089.0,115.3,26147,St. Clair,"{""26147"": 100}",St. Clair,26147,False,False,America/Detroit,"(42.70102, -82.6593)",41.245126996348844,4147062.0,657_0_yes,42.124134517036765,-82.8671534112414,40.0
48025,42.52032,-83.26744,Franklin,MI,Michigan,True,,14777.0,709.5,26125,Oakland,"{""26125"": 100}",Oakland,26125,False,False,America/Detroit,"(42.52032, -83.26744)",34.16834132911867,4147062.0,657_0_yes,42.124134517036765,-82.8671534112414,40.0
48026,42.53879,-82.94964,Fraser,MI,Michigan,True,,14503.0,1352.2,26099,Macomb,"{""26099"": 100}",Macomb,26099,False,False,America/Detroit,"(42.53879, -82.94964)",28.958103667589427,4147062.0,657_0_yes,42.124134517036765,-82.8671534112414,40.0
48028,42.58947,-82.61948,Harsens Island,MI,Michigan,True,,1026.0,22.3,26147,St. Clair,"{""26147"": 100}",St. Clair,26147,False,False,America/Detroit,"(42.58947, -82.61948)",34.54901411116187,4147062.0,657_0_yes,42.124134517036765,-82.8671534112414,40.0
48030,42.46193,-83.09769,Hazel Park,MI,Michigan,True,,16452.0,2254.1,26125,Oakland,"{""26125"": 100}",Oakland,26125,False,False,America/Detroit,"(42.46193, -83.09769)",26.14492270898499,4147062.0,657_0_yes,42.124134517036765,-82.8671534112414,40.0
48033,42.46478,-83.28812,Southfield,MI,Michigan,True,,17247.0,729.6,26125,Oakland,"{""26125"": 100}",Oakland,26125,False,False,America/Detroit,"(42.46478, -83.28812)",31.887960749536084,4147062.0,657_0_yes,42.124134517036765,-82.8671534112414,40.0
48034,42.49689,-83.29102,Southfield,MI,Michigan,True,,14213.0,1276.4,26125,Oakland,"{""26125"": 100}",Oakland,26125,False,False,America/Detroit,"(42.49689, -83.29102)",33.65053440752898,4147062.0,657_0_yes,42.124134517036765,-82.8671534112414,40.0
48035,42.55615,-82.90948,Clinton Township,MI,Michigan,True,,35279.0,1549.5,26099,Macomb,"{""26099"": 100}",Macomb,26099,False,False,America/Detroit,"(42.55615, -82.90948)",29.927595786145606,4147062.0,657_0_yes,42.124134517036765,-82.8671534112414,40.0
48036,42.59227,-82.89971,Clinton Township,MI,Michigan,True,,20752.0,959.9,26099,Macomb,"{""26099"": 100}",Macomb,26099,False,False,America/Detroit,"(42.59227, -82.89971)",32.387763056594586,4147062.0,657_0_yes,42.124134517036765,-82.8671534112414,40.0
48038,42.6054,-82.94152,Clinton Township,MI,Michigan,True,,44322.0,1569.2,26099,Macomb,"{""26099"": 100}",Macomb,26099,False,False,America/Detroit,"(42.6054, -82.94152)",33.468298787943006,4147062.0,657_0_yes,42.124134517036765,-82.8671534112414,40.0
48039,42.69664,-82.55052,Marine City,MI,Michigan,True,,7556.0,126.8,26147,St. Clair,"{""26147"": 100}",St. Clair,26147,False,False,America/Detroit,"(42.69664, -82.55052)",42.727137430940815,4147062.0,657_0_yes,42.124134517036765,-82.8671534112414,40.0
48042,42.68673,-82.90857,Macomb,MI,Michigan,True,,31558.0,535.5,26099,Macomb,"{""26099"": 100}",Macomb,26099,False,False,America/Detroit,"(42.68673, -82.90857)",38.92903059540745,4147062.0,657_0_yes,42.124134517036765,-82.8671534112414,40.0
48043,42.59763,-82.88208,Mount Clemens,MI,Michigan,True,,16212.0,1535.3,26099,Macomb,"{""26099"": 100}",Macomb,26099,False,False,America/Detroit,"(42.59763, -82.88208)",32.72429609084514,4147062.0,657_0_yes,42.124134517036765,-82.8671534112414,40.0
48044,42.64988,-82.9296,Macomb,MI,Michigan,True,,58675.0,1678.6,26099,Macomb,"{""26099"": 100}",Macomb,26099,False,False,America/Detroit,"(42.64988, -82.9296)",36.46507180806525,4147062.0,657_0_yes,42.124134517036765,-82.8671534112414,40.0
48045,42.59121,-82.83017,Harrison Township,MI,Michigan,True,,24949.0,675.9,26099,Macomb,"{""26099"": 100}",Macomb,26099,False,False,America/Detroit,"(42.59121, -82.83017)",32.327035536192575,4147062.0,657_0_yes,42.124134517036765,-82.8671534112414,40.0
48047,42.67754,-82.77744,New Baltimore,MI,Michigan,True,,41119.0,881.5,26099,Macomb,"{""26099"": 100}",Macomb,26099,False,False,America/Detroit,"(42.67754, -82.77744)",38.509672348395405,4147062.0,657_0_yes,42.124134517036765,-82.8671534112414,40.0
48051,42.69067,-82.82582,New Baltimore,MI,Michigan,True,,18620.0,506.7,26099,Macomb,"{""26099"": 100}",Macomb,26099,False,False,America/Detroit,"(42.69067, -82.82582)",39.20062807677087,4147062.0,657_0_yes,42.124134517036765,-82.8671534112414,40.0
48066,42.50735,-82.93697,Roseville,MI,Michigan,True,,47232.0,1849.5,26099,Macomb,"{""26099"": 100}",Macomb,26099,False,False,America/Detroit,"(42.50735, -82.93697)",26.716851399698157,4147062.0,657_0_yes,42.124134517036765,-82.8671534112414,40.0
48067,42.49053,-83.13786,Royal Oak,MI,Michigan,True,,24685.0,2091.0,26125,Oakland,"{""26125"": 100}",Oakland,26125,False,False,America/Detroit,"(42.49053, -83.13786)",28.848058648105727,4147062.0,657_0_yes,42.124134517036765,-82.8671534112414,40.0
48069,42.47151,-83.14447,Pleasant Ridge,MI,Michigan,True,,2432.0,1643.3,26125,Oakland,"{""26125"": 100}",Oakland,26125,False,False,America/Detroit,"(42.47151, -83.14447)",27.873271007739593,4147062.0,657_0_yes,42.124134517036765,-82.8671534112414,40.0
48070,42.48161,-83.16852,Huntington Woods,MI,Michigan,True,,6303.0,1634.1,26125,Oakland,"{""26125"": 100}",Oakland,26125,False,False,America/Detroit,"(42.48161, -83.16852)",29.106953162293454,4147062.0,657_0_yes,42.124134517036765,-82.8671534112414,40.0
48071,42.50726,-83.10337,Madison Heights,MI,Michigan,True,,30000.0,1632.5,26125,Oakland,"{""26125"": 100}",Oakland,26125,False,False,America/Detroit,"(42.50726, -83.10337)",29.092692902795857,4147062.0,657_0_yes,42.124134517036765,-82.8671534112414,40.0
48072,42.49789,-83.18586,Berkley,MI,Michigan,True,,15352.0,2472.7,26125,Oakland,"{""26125"": 100}",Oakland,26125,False,False,America/Detroit,"(42.49789, -83.18586)",30.52955026978918,4147062.0,657_0_yes,42.124134517036765,-82.8671534112414,40.0
48073,42.51919,-83.16437,Royal Oak,MI,Michigan,True,,34628.0,1808.2,26125,Oakland,"{""26125"": 100}",Oakland,26125,False,False,America/Detroit,"(42.51919, -83.16437)",31.23453372330196,4147062.0,657_0_yes,42.124134517036765,-82.8671534112414,40.0
48075,42.4618,-83.2299,Southfield,MI,Michigan,True,,21810.0,1161.3,26125,Oakland,"{""26125"": 100}",Oakland,26125,False,False,America/Detroit,"(42.4618, -83.2299)",29.799807568276165,4147062.0,657_0_yes,42.124134517036765,-82.8671534112414,40.0
48076,42.49754,-83.23067,Southfield,MI,Michigan,True,,23822.0,1296.6,26125,Oakland,"{""26125"": 100}",Oakland,26125,False,False,America/Detroit,"(42.49754, -83.23067)",31.79017140963467,4147062.0,657_0_yes,42.124134517036765,-82.8671534112414,40.0
48080,42.46418,-82.90031,Saint Clair Shores,MI,Michigan,True,,22486.0,1974.1,26099,Macomb,"{""26099"": 100}",Macomb,26099,False,False,America/Detroit,"(42.46418, -82.90031)",23.55593625880718,4147062.0,657_0_yes,42.124134517036765,-82.8671534112414,40.0
48081,42.4955,-82.89912,Saint Clair Shores,MI,Michigan,True,,20522.0,2026.3,26099,Macomb,"{""26099"": 100}",Macomb,26099,False,False,America/Detroit,"(42.4955, -82.89912)",25.710844463437883,4147062.0,657_0_yes,42.124134517036765,-82.8671534112414,40.0
48082,42.5271,-82.88711,Saint Clair Shores,MI,Michigan,True,,16136.0,1883.5,26099,Macomb,"{""26099"": 100}",Macomb,26099,False,False,America/Detroit,"(42.5271, -82.88711)",27.86091972367708,4147062.0,657_0_yes,42.124134517036765,-82.8671534112414,40.0
48083,42.557,-83.11676,Troy,MI,Michigan,True,,22984.0,1030.0,26125,Oakland,"{""26125"": 100}",Oakland,26125,False,False,America/Detroit,"(42.557, -83.11676)",32.51147330347748,4147062.0,657_0_yes,42.124134517036765,-82.8671534112414,40.0
48084,42.56065,-83.17559,Troy,MI,Michigan,True,,15438.0,964.0,26125,Oakland,"{""26125"": 100}",Oakland,26125,False,False,America/Detroit,"(42.56065, -83.17559)",34.025806455842776,4147062.0,657_0_yes,42.124134517036765,-82.8671534112414,40.0
48085,42.6006,-83.11982,Troy,MI,Michigan,True,,26061.0,1081.7,26125,Oakland,"{""26125"": 100}",Oakland,26125,False,False,America/Detroit,"(42.6006, -83.11982)",35.35758069406392,4147062.0,657_0_yes,42.124134517036765,-82.8671534112414,40.0
48088,42.51573,-82.98298,Warren,MI,Michigan,True,,22390.0,1955.5,26099,Macomb,"{""26099"": 100}",Macomb,26099,False,False,America/Detroit,"(42.51573, -82.98298)",27.696159132217986,4147062.0,657_0_yes,42.124134517036765,-82.8671534112414,40.0
48089,42.4702,-82.99549,Warren,MI,Michigan,True,,31411.0,1515.1,26099,Macomb,"{""26099"": 100}",Macomb,26099,False,False,America/Detroit,"(42.4702, -82.99549)",24.794062180604772,4147062.0,657_0_yes,42.124134517036765,-82.8671534112414,40.0
48091,42.4681,-83.05819,Warren,MI,Michigan,True,,29483.0,1439.2,26099,Macomb,"{""26099"": 100}",Macomb,26099,False,False,America/Detroit,"(42.4681, -83.05819)",25.693020097834705,4147062.0,657_0_yes,42.124134517036765,-82.8671534112414,40.0
48092,42.51308,-83.05968,Warren,MI,Michigan,True,,26573.0,1259.0,26099,Macomb,"{""26099"": 100}",Macomb,26099,False,False,America/Detroit,"(42.51308, -83.05968)",28.616997812461406,4147062.0,657_0_yes,42.124134517036765,-82.8671534112414,40.0
48093,42.51483,-83.01554,Warren,MI,Michigan,True,,24331.0,1594.2,26099,Macomb,"{""26099"": 100}",Macomb,26099,False,False,America/Detroit,"(42.51483, -83.01554)",28.03871013521758,4147062.0,657_0_yes,42.124134517036765,-82.8671534112414,40.0
48098,42.59903,-83.1789,Troy,MI,Michigan,True,,19563.0,803.7,26125,Oakland,"{""26125"": 100}",Oakland,26125,False,False,America/Detroit,"(42.59903, -83.1789)",36.46840489578677,4147062.0,657_0_yes,42.124134517036765,-82.8671534112414,40.0
48101,42.25976,-83.21067,Allen Park,MI,Michigan,True,,27089.0,1484.8,26163,Wayne,"{""26163"": 100}",Wayne,26163,False,False,America/Detroit,"(42.25976, -83.21067)",19.925993083710573,4147062.0,657_0_yes,42.124134517036765,-82.8671534112414,40.0
48111,42.17976,-83.48762,Belleville,MI,Michigan,True,,41081.0,237.1,26163,Wayne,"{""26163"": 97.27, ""26161"": 2.11, ""26115"": 0.62}",Wayne|Washtenaw|Monroe,26163|26161|26115,False,False,America/Detroit,"(42.17976, -83.48762)",32.01401488477228,4147062.0,657_0_yes,42.124134517036765,-82.8671534112414,40.0
48117,42.04984,-83.40997,Carleton,MI,Michigan,True,,10238.0,73.1,26115,Monroe,"{""26115"": 99.35, ""26163"": 0.65}",Monroe|Wayne,26115|26163,False,False,America/Detroit,"(42.04984, -83.40997)",28.30289964169065,4147062.0,657_0_yes,42.124134517036765,-82.8671534112414,40.0
48120,42.30524,-83.1718,Dearborn,MI,Michigan,True,,7737.0,635.5,26163,Wayne,"{""26163"": 100}",Wayne,26163,False,False,America/Detroit,"(42.30524, -83.1718)",19.990387230321687,4147062.0,657_0_yes,42.124134517036765,-82.8671534112414,40.0
48122,42.28018,-83.17819,Melvindale,MI,Michigan,True,,10300.0,1461.9,26163,Wayne,"{""26163"": 100}",Wayne,26163,False,False,America/Detroit,"(42.28018, -83.17819)",19.227165758837945,4147062.0,657_0_yes,42.124134517036765,-82.8671534112414,40.0
48124,42.29828,-83.24796,Dearborn,MI,Michigan,True,,28086.0,1229.1,26163,Wayne,"{""26163"": 100}",Wayne,26163,False,False,America/Detroit,"(42.29828, -83.24796)",22.90322612872882,4147062.0,657_0_yes,42.124134517036765,-82.8671534112414,40.0
48125,42.27793,-83.26536,Dearborn Heights,MI,Michigan,True,,20189.0,1924.7,26163,Wayne,"{""26163"": 100}",Wayne,26163,False,False,America/Detroit,"(42.27793, -83.26536)",22.985470668070352,4147062.0,657_0_yes,42.124134517036765,-82.8671534112414,40.0
48126,42.32999,-83.18678,Dearborn,MI,Michigan,True,,47692.0,2199.1,26163,Wayne,"{""26163"": 100}",Wayne,26163,False,False,America/Detroit,"(42.32999, -83.18678)",21.673026140615292,4147062.0,657_0_yes,42.124134517036765,-82.8671534112414,40.0
48127,42.33663,-83.28292,Dearborn Heights,MI,Michigan,True,,35441.0,1780.0,26163,Wayne,"{""26163"": 100}",Wayne,26163,False,False,America/Detroit,"(42.33663, -83.28292)",25.845708591640683,4147062.0,657_0_yes,42.124134517036765,-82.8671534112414,40.0
48128,42.32054,-83.25952,Dearborn,MI,Michigan,True,,10813.0,1807.6,26163,Wayne,"{""26163"": 100}",Wayne,26163,False,False,America/Detroit,"(42.32054, -83.25952)",24.232218638838162,4147062.0,657_0_yes,42.124134517036765,-82.8671534112414,40.0
48133,41.78428,-83.48816,Erie,MI,Michigan,True,,5201.0,73.9,26115,Monroe,"{""26115"": 100}",Monroe,26115,False,False,America/Detroit,"(41.78428, -83.48816)",39.617998809426105,4147062.0,657_0_yes,42.124134517036765,-82.8671534112414,40.0
48134,42.10813,-83.29556,Flat Rock,MI,Michigan,True,,22623.0,471.3,26163,Wayne,"{""26163"": 84.97, ""26115"": 15.03}",Wayne|Monroe,26163|26115,False,False,America/Detroit,"(42.10813, -83.29556)",21.98475761108799,4147062.0,657_0_yes,42.124134517036765,-82.8671534112414,40.0
48135,42.32438,-83.34122,Garden City,MI,Michigan,True,,26565.0,1749.5,26163,Wayne,"{""26163"": 100}",Wayne,26163,False,False,America/Detroit,"(42.32438, -83.34122)",27.92414750453161,4147062.0,657_0_yes,42.124134517036765,-82.8671534112414,40.0
48138,42.13156,-83.1586,Grosse Ile,MI,Michigan,True,,10153.0,454.6,26163,Wayne,"{""26163"": 100}",Wayne,26163,False,False,America/Detroit,"(42.13156, -83.1586)",14.943437417204562,4147062.0,657_0_yes,42.124134517036765,-82.8671534112414,40.0
48140,41.88141,-83.58274,Ida,MI,Michigan,True,,3374.0,49.4,26115,Monroe,"{""26115"": 100}",Monroe,26115,False,False,America/Detroit,"(41.88141, -83.58274)",40.38758135506406,4147062.0,657_0_yes,42.124134517036765,-82.8671534112414,40.0
48141,42.29349,-83.31483,Inkster,MI,Michigan,True,,24398.0,1506.6,26163,Wayne,"{""26163"": 100}",Wayne,26163,False,False,America/Detroit,"(42.29349, -83.31483)",25.726119846244796,4147062.0,657_0_yes,42.124134517036765,-82.8671534112414,40.0
48144,41.75325,-83.62803,Lambertville,MI,Michigan,True,,9374.0,456.4,26115,Monroe,"{""26115"": 100}",Monroe,26115,False,False,America/Detroit,"(41.75325, -83.62803)",46.75381158449225,4147062.0,657_0_yes,42.124134517036765,-82.8671534112414,40.0
48145,41.85122,-83.46331,La Salle,MI,Michigan,True,,3489.0,79.4,26115,Monroe,"{""26115"": 100}",Monroe,26115,False,False,America/Detroit,"(41.85122, -83.46331)",35.957298051761555,4147062.0,657_0_yes,42.124134517036765,-82.8671534112414,40.0
48146,42.24322,-83.18114,Lincoln Park,MI,Michigan,True,,36525.0,2416.3,26163,Wayne,"{""26163"": 100}",Wayne,26163,False,False,America/Detroit,"(42.24322, -83.18114)",18.05880389879562,4147062.0,657_0_yes,42.124134517036765,-82.8671534112414,40.0
48150,42.36859,-83.37261,Livonia,MI,Michigan,True,,26311.0,838.4,26163,Wayne,"{""26163"": 100}",Wayne,26163,False,False,America/Detroit,"(42.36859, -83.37261)",30.88099454651979,4147062.0,657_0_yes,42.124134517036765,-82.8671534112414,40.0
48152,42.42597,-83.37433,Livonia,MI,Michigan,True,,30590.0,982.8,26163,Wayne,"{""26163"": 100}",Wayne,26163,False,False,America/Detroit,"(42.42597, -83.37433)",33.27494203752164,4147062.0,657_0_yes,42.124134517036765,-82.8671534112414,40.0
48154,42.39737,-83.37315,Livonia,MI,Michigan,True,,37069.0,1236.2,26163,Wayne,"{""26163"": 100}",Wayne,26163,False,False,America/Detroit,"(42.39737, -83.37315)",32.029443269001995,4147062.0,657_0_yes,42.124134517036765,-82.8671534112414,40.0
48157,41.81495,-83.43776,Luna Pier,MI,Michigan,True,,1134.0,465.4,26115,Monroe,"{""26115"": 100}",Monroe,26115,False,False,America/Detroit,"(41.81495, -83.43776)",36.27093730037372,4147062.0,657_0_yes,42.124134517036765,-82.8671534112414,40.0
48159,42.02562,-83.55598,Maybee,MI,Michigan,True,,2489.0,29.9,26115,Monroe,"{""26115"": 100}",Monroe,26115,False,False,America/Detroit,"(42.02562, -83.55598)",35.97679023649582,4147062.0,657_0_yes,42.124134517036765,-82.8671534112414,40.0
48161,41.90818,-83.47263,Monroe,MI,Michigan,True,,26483.0,228.1,26115,Monroe,"{""26115"": 100}",Monroe,26115,False,False,America/Detroit,"(41.90818, -83.47263)",34.477061226556785,4147062.0,657_0_yes,42.124134517036765,-82.8671534112414,40.0
48162,41.96045,-83.43503,Monroe,MI,Michigan,True,,27414.0,184.2,26115,Monroe,"{""26115"": 100}",Monroe,26115,False,False,America/Detroit,"(41.96045, -83.43503)",31.25674163881748,4147062.0,657_0_yes,42.124134517036765,-82.8671534112414,40.0
48164,42.1264,-83.39391,New Boston,MI,Michigan,True,,8803.0,112.2,26163,Wayne,"{""26163"": 96.28, ""26115"": 3.72}",Wayne|Monroe,26163|26115,False,False,America/Detroit,"(42.1264, -83.39391)",26.99416558975045,4147062.0,657_0_yes,42.124134517036765,-82.8671534112414,40.0
48165,42.49968,-83.61623,New Hudson,MI,Michigan,True,,8032.0,313.1,26125,Oakland,"{""26125"": 100}",Oakland,26125,False,False,America/Detroit,"(42.49968, -83.61623)",46.239616237782435,4147062.0,657_0_yes,42.124134517036765,-82.8671534112414,40.0
48166,41.98677,-83.29375,Newport,MI,Michigan,True,,11680.0,169.5,26115,Monroe,"{""26115"": 100}",Monroe,26115,False,False,America/Detroit,"(41.98677, -83.29375)",23.854453401309588,4147062.0,657_0_yes,42.124134517036765,-82.8671534112414,40.0
48167,42.43455,-83.5313,Northville,MI,Michigan,True,,22648.0,450.1,26125,Oakland,"{""26125"": 45.41, ""26163"": 30.32, ""26161"": 24.27}",Oakland|Wayne|Washtenaw,26125|26163|26161,False,False,America/Detroit,"(42.43455, -83.5313)",40.158276246521936,4147062.0,657_0_yes,42.124134517036765,-82.8671534112414,40.0
48168,42.40559,-83.54051,Northville,MI,Michigan,True,,23345.0,460.1,26163,Wayne,"{""26163"": 55.14, ""26161"": 44.86}",Wayne|Washtenaw,26163|26161,False,False,America/Detroit,"(42.40559, -83.54051)",39.54234547971065,4147062.0,657_0_yes,42.124134517036765,-82.8671534112414,40.0
48170,42.36758,-83.53271,Plymouth,MI,Michigan,True,,39578.0,443.1,26163,Wayne,"{""26163"": 54.66, ""26161"": 45.34}",Wayne|Washtenaw,26163|26161,False,False,America/Detroit,"(42.36758, -83.53271)",37.970341806620105,4147062.0,657_0_yes,42.124134517036765,-82.8671534112414,40.0
48173,42.07638,-83.21521,Rockwood,MI,Michigan,True,,12553.0,406.5,26163,Wayne,"{""26163"": 100}",Wayne,26163,False,False,America/Detroit,"(42.07638, -83.21521)",18.145764694305804,4147062.0,657_0_yes,42.124134517036765,-82.8671534112414,40.0
48174,42.20862,-83.35413,Romulus,MI,Michigan,True,,30933.0,292.7,26163,Wayne,"{""26163"": 100}",Wayne,26163,False,False,America/Detroit,"(42.20862, -83.35413)",25.61303938812544,4147062.0,657_0_yes,42.124134517036765,-82.8671534112414,40.0
48177,41.8048,-83.58157,Samaria,MI,Michigan,True,,142.0,77.5,26115,Monroe,"{""26115"": 100}",Monroe,26115,False,False,America/Detroit,"(41.8048, -83.58157)",42.824315987255176,4147062.0,657_0_yes,42.124134517036765,-82.8671534112414,40.0
48179,42.03882,-83.26061,South Rockwood,MI,Michigan,True,,3877.0,73.6,26115,Monroe,"{""26115"": 100}",Monroe,26115,False,False,America/Detroit,"(42.03882, -83.26061)",21.020116858674758,4147062.0,657_0_yes,42.124134517036765,-82.8671534112414,40.0
48180,42.22605,-83.26881,Taylor,MI,Michigan,True,,61164.0,1000.0,26163,Wayne,"{""26163"": 100}",Wayne,26163,False,False,America/Detroit,"(42.22605, -83.26881)",21.73883110934917,4147062.0,657_0_yes,42.124134517036765,-82.8671534112414,40.0
48182,41.7919,-83.57831,Temperance,MI,Michigan,True,,22638.0,222.8,26115,Monroe,"{""26115"": 100}",Monroe,26115,False,False,America/Detroit,"(41.7919, -83.57831)",43.151490206326294,4147062.0,657_0_yes,42.124134517036765,-82.8671534112414,40.0
48183,42.1361,-83.22045,Trenton,MI,Michigan,True,,41681.0,892.0,26163,Wayne,"{""26163"": 100}",Wayne,26163,False,False,America/Detroit,"(42.1361, -83.22045)",18.12222818042971,4147062.0,657_0_yes,42.124134517036765,-82.8671534112414,40.0
48184,42.27403,-83.39494,Wayne,MI,Michigan,True,,17040.0,913.8,26163,Wayne,"{""26163"": 100}",Wayne,26163,False,False,America/Detroit,"(42.27403, -83.39494)",28.93215701639757,4147062.0,657_0_yes,42.124134517036765,-82.8671534112414,40.0
48185,42.33579,-83.38458,Westland,MI,Michigan,True,,47066.0,1492.9,26163,Wayne,"{""26163"": 100}",Wayne,26163,False,False,America/Detroit,"(42.33579, -83.38458)",30.242541753679568,4147062.0,657_0_yes,42.124134517036765,-82.8671534112414,40.0
48186,42.29481,-83.37461,Westland,MI,Michigan,True,,34647.0,1619.7,26163,Wayne,"{""26163"": 100}",Wayne,26163,False,False,America/Detroit,"(42.29481, -83.37461)",28.52206623959395,4147062.0,657_0_yes,42.124134517036765,-82.8671534112414,40.0
48187,42.3292,-83.48784,Canton,MI,Michigan,True,,49919.0,1066.3,26163,Wayne,"{""26163"": 100}",Wayne,26163,False,False,America/Detroit,"(42.3292, -83.48784)",34.7735990853475,4147062.0,657_0_yes,42.124134517036765,-82.8671534112414,40.0
48188,42.28579,-83.48638,Canton,MI,Michigan,True,,42910.0,926.6,26163,Wayne,"{""26163"": 100}",Wayne,26163,False,False,America/Detroit,"(42.28579, -83.48638)",33.60295694927051,4147062.0,657_0_yes,42.124134517036765,-82.8671534112414,40.0
48190,42.13162,-83.60327,Whittaker,MI,Michigan,True,,185.0,85.1,26161,Washtenaw,"{""26161"": 100}",Washtenaw,26161,False,False,America/Detroit,"(42.13162, -83.60327)",37.72432732381372,4147062.0,657_0_yes,42.124134517036765,-82.8671534112414,40.0
48191,42.12022,-83.56492,Willis,MI,Michigan,True,,4408.0,105.6,26161,Washtenaw,"{""26161"": 87.7, ""26115"": 12.3}",Washtenaw|Monroe,26161|26115,False,False,America/Detroit,"(42.12022, -83.56492)",35.75986607019019,4147062.0,657_0_yes,42.124134517036765,-82.8671534112414,40.0
48192,42.21156,-83.15654,Wyandotte,MI,Michigan,True,,24944.0,1819.8,26163,Wayne,"{""26163"": 100}",Wayne,26163,False,False,America/Detroit,"(42.21156, -83.15654)",16.00347783027679,4147062.0,657_0_yes,42.124134517036765,-82.8671534112414,40.0
48193,42.17341,-83.21042,Riverview,MI,Michigan,True,,16094.0,868.7,26163,Wayne,"{""26163"": 100}",Wayne,26163,False,False,America/Detroit,"(42.17341, -83.21042)",17.910792098478527,4147062.0,657_0_yes,42.124134517036765,-82.8671534112414,40.0
48195,42.20472,-83.20568,Southgate,MI,Michigan,True,,29129.0,1636.0,26163,Wayne,"{""26163"": 100}",Wayne,26163,False,False,America/Detroit,"(42.20472, -83.20568)",18.2092748704325,4147062.0,657_0_yes,42.124134517036765,-82.8671534112414,40.0
48197,42.1973,-83.62903,Ypsilanti,MI,Michigan,True,,67335.0,630.5,26161,Washtenaw,"{""26161"": 100}",Washtenaw,26161,False,False,America/Detroit,"(42.1973, -83.62903)",39.34663761323368,4147062.0,657_0_yes,42.124134517036765,-82.8671534112414,40.0
48198,42.27519,-83.58822,Ypsilanti,MI,Michigan,True,,38818.0,449.3,26161,Washtenaw,"{""26161"": 100}",Washtenaw,26161,False,False,America/Detroit,"(42.27519, -83.58822)",38.354971751919635,4147062.0,657_0_yes,42.124134517036765,-82.8671534112414,40.0
48201,42.34706,-83.06009,Detroit,MI,Michigan,True,,16040.0,3267.8,26163,Wayne,"{""26163"": 100}",Wayne,26163,False,False,America/Detroit,"(42.34706, -83.06009)",18.29360411157181,4147062.0,657_0_yes,42.124134517036765,-82.8671534112414,40.0
48202,42.37463,-83.07764,Detroit,MI,Michigan,True,,15611.0,1798.4,26163,Wayne,"{""26163"": 100}",Wayne,26163,False,False,America/Detroit,"(42.37463, -83.07764)",20.382420627045356,4147062.0,657_0_yes,42.124134517036765,-82.8671534112414,40.0
48203,42.42176,-83.1031,Highland Park,MI,Michigan,True,,22901.0,1076.8,26163,Wayne,"{""26163"": 100}",Wayne,26163,False,False,America/Detroit,"(42.42176, -83.1031)",23.84091188377034,4147062.0,657_0_yes,42.124134517036765,-82.8671534112414,40.0
48204,42.36582,-83.14286,Detroit,MI,Michigan,True,,23528.0,1807.4,26163,Wayne,"{""26163"": 100}",Wayne,26163,False,False,America/Detroit,"(42.36582, -83.14286)",21.856699391530697,4147062.0,657_0_yes,42.124134517036765,-82.8671534112414,40.0
48205,42.43317,-82.98131,Detroit,MI,Michigan,True,,33606.0,2042.8,26163,Wayne,"{""26163"": 100}",Wayne,26163,False,False,America/Detroit,"(42.43317, -82.98131)",22.13543983567459,4147062.0,657_0_yes,42.124134517036765,-82.8671534112414,40.0
48206,42.3751,-83.10782,Detroit,MI,Michigan,True,,16535.0,2063.1,26163,Wayne,"{""26163"": 100}",Wayne,26163,False,False,America/Detroit,"(42.3751, -83.10782)",21.264590208387045,4147062.0,657_0_yes,42.124134517036765,-82.8671534112414,40.0
48207,42.34753,-83.01104,Detroit,MI,Michigan,True,,21282.0,1304.8,26163,Wayne,"{""26163"": 100}",Wayne,26163,False,False,America/Detroit,"(42.34753, -83.01104)",17.10036634725356,4147062.0,657_0_yes,42.124134517036765,-82.8671534112414,40.0
48208,42.34844,-83.09173,Detroit,MI,Michigan,True,,9134.0,1099.0,26163,Wayne,"{""26163"": 100}",Wayne,26163,False,False,America/Detroit,"(42.34844, -83.09173)",19.291684512306094,4147062.0,657_0_yes,42.124134517036765,-82.8671534112414,40.0
48209,42.30524,-83.11649,Detroit,MI,Michigan,True,,30607.0,1737.1,26163,Wayne,"{""26163"": 100}",Wayne,26163,False,False,America/Detroit,"(42.30524, -83.11649)",17.871154381711516,4147062.0,657_0_yes,42.124134517036765,-82.8671534112414,40.0
48210,42.33644,-83.12875,Detroit,MI,Michigan,True,,29663.0,2317.5,26163,Wayne,"{""26163"": 100}",Wayne,26163,False,False,America/Detroit,"(42.33644, -83.12875)",19.856727129515342,4147062.0,657_0_yes,42.124134517036765,-82.8671534112414,40.0
48211,42.38175,-83.04616,Detroit,MI,Michigan,True,,6086.0,553.7,26163,Wayne,"{""26163"": 100}",Wayne,26163,False,False,America/Detroit,"(42.38175, -83.04616)",20.015789785626314,4147062.0,657_0_yes,42.124134517036765,-82.8671534112414,40.0
48212,42.41003,-83.05601,Hamtramck,MI,Michigan,True,,39186.0,2859.8,26163,Wayne,"{""26163"": 100}",Wayne,26163,False,False,America/Detroit,"(42.41003, -83.05601)",21.987362275228744,4147062.0,657_0_yes,42.124134517036765,-82.8671534112414,40.0
48213,42.39787,-82.9955,Detroit,MI,Michigan,True,,22030.0,1303.6,26163,Wayne,"{""26163"": 100}",Wayne,26163,False,False,America/Detroit,"(42.39787, -82.9955)",20.01966215924098,4147062.0,657_0_yes,42.124134517036765,-82.8671534112414,40.0
48214,42.36504,-82.98697,Detroit,MI,Michigan,True,,21317.0,1629.4,26163,Wayne,"{""26163"": 100}",Wayne,26163,False,False,America/Detroit,"(42.36504, -82.98697)",17.737338302516626,4147062.0,657_0_yes,42.124134517036765,-82.8671534112414,40.0
48215,42.37523,-82.95428,Detroit,MI,Michigan,True,,10855.0,1061.4,26163,Wayne,"{""26163"": 100}",Wayne,26163,False,False,America/Detroit,"(42.37523, -82.95428)",17.912162818810103,4147062.0,657_0_yes,42.124134517036765,-82.8671534112414,40.0
48216,42.32637,-83.07927,Detroit,MI,Michigan,True,,5426.0,923.6,26163,Wayne,"{""26163"": 100}",Wayne,26163,False,False,America/Detroit,"(42.32637, -83.07927)",17.692687956024162,4147062.0,657_0_yes,42.124134517036765,-82.8671534112414,40.0
48217,42.27803,-83.15409,Detroit,MI,Michigan,True,,6608.0,1105.5,26163,Wayne,"{""26163"": 100}",Wayne,26163,False,False,America/Detroit,"(42.27803, -83.15409)",18.13166732690063,4147062.0,657_0_yes,42.124134517036765,-82.8671534112414,40.0
48218,42.27049,-83.13076,River Rouge,MI,Michigan,True,,7465.0,1321.3,26163,Wayne,"{""26163"": 100}",Wayne,26163,False,False,America/Detroit,"(42.27049, -83.13076)",16.861870242444102,4147062.0,657_0_yes,42.124134517036765,-82.8671534112414,40.0
48219,42.42573,-83.25282,Detroit,MI,Michigan,True,,45503.0,2083.5,26163,Wayne,"{""26163"": 100}",Wayne,26163,False,False,America/Detroit,"(42.42573, -83.25282)",28.68766407728945,4147062.0,657_0_yes,42.124134517036765,-82.8671534112414,40.0
48220,42.45805,-83.13519,Ferndale,MI,Michigan,True,,22639.0,1976.3,26125,Oakland,"{""26125"": 100}",Oakland,26125,False,False,America/Detroit,"(42.45805, -83.13519)",26.832151191512548,4147062.0,657_0_yes,42.124134517036765,-82.8671534112414,40.0
48221,42.4272,-83.14949,Detroit,MI,Michigan,True,,40905.0,3040.4,26163,Wayne,"{""26163"": 100}",Wayne,26163,False,False,America/Detroit,"(42.4272, -83.14949)",25.432558490082442,4147062.0,657_0_yes,42.124134517036765,-82.8671534112414,40.0
48223,42.39341,-83.24619,Detroit,MI,Michigan,True,,26027.0,1660.7,26163,Wayne,"{""26163"": 100}",Wayne,26163,False,False,America/Detroit,"(42.39341, -83.24619)",26.86713777633453,4147062.0,657_0_yes,42.124134517036765,-82.8671534112414,40.0
48224,42.41074,-82.94147,Detroit,MI,Michigan,True,,42200.0,2824.1,26163,Wayne,"{""26163"": 100}",Wayne,26163,False,False,America/Detroit,"(42.41074, -82.94147)",20.163818024277198,4147062.0,657_0_yes,42.124134517036765,-82.8671534112414,40.0
48225,42.43893,-82.92965,Harper Woods,MI,Michigan,True,,14049.0,2028.9,26163,Wayne,"{""26163"": 100}",Wayne,26163,False,False,America/Detroit,"(42.43893, -82.92965)",21.983667966743162,4147062.0,657_0_yes,42.124134517036765,-82.8671534112414,40.0
48226,42.33182,-83.05034,Detroit,MI,Michigan,True,,7324.0,2326.0,26163,Wayne,"{""26163"": 100}",Wayne,26163,False,False,America/Detroit,"(42.33182, -83.05034)",17.13918601556382,4147062.0,657_0_yes,42.124134517036765,-82.8671534112414,40.0
48227,42.38732,-83.1926,Detroit,MI,Michigan,True,,40147.0,2065.8,26163,Wayne,"{""26163"": 100}",Wayne,26163,False,False,America/Detroit,"(42.38732, -83.1926)",24.650877143968756,4147062.0,657_0_yes,42.124134517036765,-82.8671534112414,40.0
48228,42.35562,-83.21791,Detroit,MI,Michigan,True,,57698.0,2501.5,26163,Wayne,"{""26163"": 100}",Wayne,26163,False,False,America/Detroit,"(42.35562, -83.21791)",24.035951379128715,4147062.0,657_0_yes,42.124134517036765,-82.8671534112414,40.0
48229,42.24889,-83.1399,Ecorse,MI,Michigan,True,,9456.0,1288.4,26163,Wayne,"{""26163"": 100}",Wayne,26163,False,False,America/Detroit,"(42.24889, -83.1399)",16.409686846040774,4147062.0,657_0_yes,42.124134517036765,-82.8671534112414,40.0
48230,42.38353,-82.92304,Grosse Pointe,MI,Michigan,True,,16284.0,1931.8,26163,Wayne,"{""26163"": 100}",Wayne,26163,False,False,America/Toronto,"(42.38353, -82.92304)",18.148979186657893,4147062.0,657_0_yes,42.124134517036765,-82.8671534112414,40.0
48234,42.4312,-83.03952,Detroit,MI,Michigan,True,,33969.0,1678.1,26163,Wayne,"{""26163"": 100}",Wayne,26163,False,False,America/Detroit,"(42.4312, -83.03952)",22.973297824840227,4147062.0,657_0_yes,42.124134517036765,-82.8671534112414,40.0
48235,42.42702,-83.1947,Detroit,MI,Michigan,True,,46426.0,2870.3,26163,Wayne,"{""26163"": 100}",Wayne,26163,False,False,America/Detroit,"(42.42702, -83.1947)",26.802215054131178,4147062.0,657_0_yes,42.124134517036765,-82.8671534112414,40.0
48236,42.42504,-82.89687,Grosse Pointe,MI,Michigan,True,,29592.0,1528.0,26163,Wayne,"{""26163"": 97.62, ""26099"": 2.38}",Wayne|Macomb,26163|26099,False,False,America/Detroit,"(42.42504, -82.89687)",20.84602221710843,4147062.0,657_0_yes,42.124134517036765,-82.8671534112414,40.0
48237,42.46494,-83.18241,Oak Park,MI,Michigan,True,,29603.0,2220.7,26125,Oakland,"{""26125"": 100}",Oakland,26125,False,False,America/Detroit,"(42.46494, -83.18241)",28.53207753857972,4147062.0,657_0_yes,42.124134517036765,-82.8671534112414,40.0
48238,42.39626,-83.14136,Detroit,MI,Michigan,True,,25259.0,1806.2,26163,Wayne,"{""26163"": 100}",Wayne,26163,False,False,America/Detroit,"(42.39626, -83.14136)",23.454805513168672,4147062.0,657_0_yes,42.124134517036765,-82.8671534112414,40.0
48239,42.37638,-83.28574,Redford,MI,Michigan,True,,36470.0,1486.8,26163,Wayne,"{""26163"": 100}",Wayne,26163,False,False,America/Detroit,"(42.37638, -83.28574)",27.60543046348817,4147062.0,657_0_yes,42.124134517036765,-82.8671534112414,40.0
48240,42.42447,-83.30128,Redford,MI,Michigan,True,,16871.0,1737.7,26163,Wayne,"{""26163"": 100}",Wayne,26163,False,False,America/Detroit,"(42.42447, -83.30128)",30.384262745698386,4147062.0,657_0_yes,42.124134517036765,-82.8671534112414,40.0
48301,42.54441,-83.28284,Bloomfield Hills,MI,Michigan,True,,15024.0,788.6,26125,Oakland,"{""26125"": 100}",Oakland,26125,False,False,America/Detroit,"(42.54441, -83.28284)",35.972088234574585,4147062.0,657_0_yes,42.124134517036765,-82.8671534112414,40.0
48302,42.5849,-83.29608,Bloomfield Hills,MI,Michigan,True,,15623.0,546.8,26125,Oakland,"{""26125"": 100}",Oakland,26125,False,False,America/Detroit,"(42.5849, -83.29608)",38.64134753562451,4147062.0,657_0_yes,42.124134517036765,-82.8671534112414,40.0
48304,42.58745,-83.23442,Bloomfield Hills,MI,Michigan,True,,16390.0,555.3,26125,Oakland,"{""26125"": 100}",Oakland,26125,False,False,America/Detroit,"(42.58745, -83.23442)",37.099898222522505,4147062.0,657_0_yes,42.124134517036765,-82.8671534112414,40.0
48307,42.65953,-83.12301,Rochester,MI,Michigan,True,,44041.0,1117.1,26125,Oakland,"{""26125"": 100}",Oakland,26125,False,False,America/Detroit,"(42.65953, -83.12301)",39.22866706782706,4147062.0,657_0_yes,42.124134517036765,-82.8671534112414,40.0
48309,42.65866,-83.18348,Rochester,MI,Michigan,True,,30165.0,748.4,26125,Oakland,"{""26125"": 100}",Oakland,26125,False,False,America/Detroit,"(42.65866, -83.18348)",40.305616356471354,4147062.0,657_0_yes,42.124134517036765,-82.8671534112414,40.0
48310,42.56511,-83.06694,Sterling Heights,MI,Michigan,True,,43437.0,1897.6,26099,Macomb,"{""26099"": 100}",Macomb,26099,False,False,America/Detroit,"(42.56511, -83.06694)",32.13130245876786,4147062.0,657_0_yes,42.124134517036765,-82.8671534112414,40.0
48312,42.55831,-83.00914,Sterling Heights,MI,Michigan,True,,34635.0,1200.0,26099,Macomb,"{""26099"": 100}",Macomb,26099,False,False,America/Detroit,"(42.55831, -83.00914)",30.862603256450196,4147062.0,657_0_yes,42.124134517036765,-82.8671534112414,40.0
48313,42.59985,-82.99984,Sterling Heights,MI,Michigan,True,,33600.0,1495.9,26099,Macomb,"{""26099"": 100}",Macomb,26099,False,False,America/Detroit,"(42.59985, -82.99984)",33.559588133787884,4147062.0,657_0_yes,42.124134517036765,-82.8671534112414,40.0
48314,42.60978,-83.05426,Sterling Heights,MI,Michigan,True,,20624.0,1022.4,26099,Macomb,"{""26099"": 100}",Macomb,26099,False,False,America/Detroit,"(42.60978, -83.05426)",34.8878763323223,4147062.0,657_0_yes,42.124134517036765,-82.8671534112414,40.0
48315,42.67254,-82.9963,Utica,MI,Michigan,True,,28188.0,845.1,26099,Macomb,"{""26099"": 100}",Macomb,26099,False,False,America/Detroit,"(42.67254, -82.9963)",38.45991033260571,4147062.0,657_0_yes,42.124134517036765,-82.8671534112414,40.0
48316,42.69059,-83.05671,Utica,MI,Michigan,True,,28203.0,968.0,26099,Macomb,"{""26099"": 100}",Macomb,26099,False,False,America/Detroit,"(42.69059, -83.05671)",40.31533150469549,4147062.0,657_0_yes,42.124134517036765,-82.8671534112414,40.0
48317,42.64673,-83.05334,Utica,MI,Michigan,True,,28474.0,913.2,26099,Macomb,"{""26099"": 100}",Macomb,26099,False,False,America/Detroit,"(42.64673, -83.05334)",37.337177250030685,4147062.0,657_0_yes,42.124134517036765,-82.8671534112414,40.0
48320,42.61274,-83.33824,Keego Harbor,MI,Michigan,True,,4964.0,1750.0,26125,Oakland,"{""26125"": 100}",Oakland,26125,False,False,America/Detroit,"(42.61274, -83.33824)",41.44869104901604,4147062.0,657_0_yes,42.124134517036765,-82.8671534112414,40.0
48322,42.54214,-83.38139,West Bloomfield,MI,Michigan,True,,32997.0,1086.7,26125,Oakland,"{""26125"": 100}",Oakland,26125,False,False,America/Detroit,"(42.54214, -83.38139)",39.03846894614668,4147062.0,657_0_yes,42.124134517036765,-82.8671534112414,40.0
48323,42.57036,-83.37651,West Bloomfield,MI,Michigan,True,,16467.0,739.9,26125,Oakland,"{""26125"": 100}",Oakland,26125,False,False,America/Detroit,"(42.57036, -83.37651)",40.337258682560055,4147062.0,657_0_yes,42.124134517036765,-82.8671534112414,40.0
48324,42.59702,-83.39151,West Bloomfield,MI,Michigan,True,,18017.0,810.9,26125,Oakland,"{""26125"": 100}",Oakland,26125,False,False,America/Detroit,"(42.59702, -83.39151)",42.239776672303506,4147062.0,657_0_yes,42.124134517036765,-82.8671534112414,40.0
48326,42.67536,-83.2531,Auburn Hills,MI,Michigan,True,,22856.0,520.6,26125,Oakland,"{""26125"": 100}",Oakland,26125,False,False,America/Detroit,"(42.67536, -83.2531)",42.87553222074012,4147062.0,657_0_yes,42.124134517036765,-82.8671534112414,40.0
48327,42.6443,-83.41417,Waterford,MI,Michigan,True,,21659.0,739.1,26125,Oakland,"{""26125"": 100}",Oakland,26125,False,False,America/Detroit,"(42.6443, -83.41417)",45.508555763928385,4147062.0,657_0_yes,42.124134517036765,-82.8671534112414,40.0
48328,42.64597,-83.35603,Waterford,MI,Michigan,True,,27410.0,1185.1,26125,Oakland,"{""26125"": 100}",Oakland,26125,False,False,America/Detroit,"(42.64597, -83.35603)",43.84583767809921,4147062.0,657_0_yes,42.124134517036765,-82.8671534112414,40.0
48329,42.68826,-83.38854,Waterford,MI,Michigan,True,,23658.0,887.3,26125,Oakland,"{""26125"": 100}",Oakland,26125,False,False,America/Detroit,"(42.68826, -83.38854)",47.188557659242775,4147062.0,657_0_yes,42.124134517036765,-82.8671534112414,40.0
48331,42.50389,-83.40863,Farmington,MI,Michigan,True,,21336.0,884.8,26125,Oakland,"{""26125"": 100}",Oakland,26125,False,False,America/Detroit,"(42.50389, -83.40863)",38.12897855555427,4147062.0,657_0_yes,42.124134517036765,-82.8671534112414,40.0
48334,42.50662,-83.34964,Farmington,MI,Michigan,True,,19043.0,810.6,26125,Oakland,"{""26125"": 100}",Oakland,26125,False,False,America/Detroit,"(42.50662, -83.34964)",36.139325867824866,4147062.0,657_0_yes,42.124134517036765,-82.8671534112414,40.0
48335,42.46229,-83.40271,Farmington,MI,Michigan,True,,23574.0,1260.8,26125,Oakland,"{""26125"": 100}",Oakland,26125,False,False,America/Detroit,"(42.46229, -83.40271)",35.98748475301063,4147062.0,657_0_yes,42.124134517036765,-82.8671534112414,40.0
48336,42.46333,-83.34803,Farmington,MI,Michigan,True,,25040.0,1038.0,26125,Oakland,"{""26125"": 100}",Oakland,26125,False,False,America/Detroit,"(42.46333, -83.34803)",33.95990350383653,4147062.0,657_0_yes,42.124134517036765,-82.8671534112414,40.0
48340,42.67065,-83.29019,Pontiac,MI,Michigan,True,,25190.0,1270.0,26125,Oakland,"{""26125"": 100}",Oakland,26125,False,False,America/Detroit,"(42.67065, -83.29019)",43.49452794651547,4147062.0,657_0_yes,42.124134517036765,-82.8671534112414,40.0
48341,42.6275,-83.29433,Pontiac,MI,Michigan,True,,17823.0,1021.7,26125,Oakland,"{""26125"": 100}",Oakland,26125,False,False,America/Detroit,"(42.6275, -83.29433)",41.04871871319069,4147062.0,657_0_yes,42.124134517036765,-82.8671534112414,40.0
48342,42.64389,-83.27591,Pontiac,MI,Michigan,True,,16767.0,1238.0,26125,Oakland,"{""26125"": 100}",Oakland,26125,False,False,America/Detroit,"(42.64389, -83.27591)",41.530969463123824,4147062.0,657_0_yes,42.124134517036765,-82.8671534112414,40.0
48356,42.65532,-83.58904,Highland,MI,Michigan,True,,8630.0,237.9,26125,Oakland,"{""26125"": 100}",Oakland,26125,False,False,America/Detroit,"(42.65532, -83.58904)",52.00020424439528,4147062.0,657_0_yes,42.124134517036765,-82.8671534112414,40.0
48357,42.65358,-83.6432,Highland,MI,Michigan,True,,8091.0,238.5,26125,Oakland,"{""26125"": 100}",Oakland,26125,False,False,America/Detroit,"(42.65358, -83.6432)",53.91210804206668,4147062.0,657_0_yes,42.124134517036765,-82.8671534112414,40.0
48374,42.47083,-83.52384,Novi,MI,Michigan,True,,16653.0,708.6,26125,Oakland,"{""26125"": 100}",Oakland,26125,False,False,America/Detroit,"(42.47083, -83.52384)",41.232223034139636,4147062.0,657_0_yes,42.124134517036765,-82.8671534112414,40.0
48375,42.46537,-83.46385,Novi,MI,Michigan,True,,22018.0,1014.8,26125,Oakland,"{""26125"": 100}",Oakland,26125,False,False,America/Detroit,"(42.46537, -83.46385)",38.546958353221804,4147062.0,657_0_yes,42.124134517036765,-82.8671534112414,40.0
48377,42.50646,-83.4727,Novi,MI,Michigan,True,,17129.0,688.6,26125,Oakland,"{""26125"": 100}",Oakland,26125,False,False,America/Detroit,"(42.50646, -83.4727)",40.6812601041089,4147062.0,657_0_yes,42.124134517036765,-82.8671534112414,40.0
48381,42.5628,-83.59336,Milford,MI,Michigan,True,,13434.0,266.0,26125,Oakland,"{""26125"": 100}",Oakland,26125,False,False,America/Detroit,"(42.5628, -83.59336)",47.89552792077761,4147062.0,657_0_yes,42.124134517036765,-82.8671534112414,40.0
48382,42.59006,-83.507,Commerce Township,MI,Michigan,True,,23723.0,550.3,26125,Oakland,"{""26125"": 100}",Oakland,26125,False,False,America/Detroit,"(42.59006, -83.507)",45.8647588408027,4147062.0,657_0_yes,42.124134517036765,-82.8671534112414,40.0
48383,42.65533,-83.53485,White Lake,MI,Michigan,True,,12802.0,296.5,26125,Oakland,"{""26125"": 100}",Oakland,26125,False,False,America/Detroit,"(42.65533, -83.53485)",50.0797697279628,4147062.0,657_0_yes,42.124134517036765,-82.8671534112414,40.0
48386,42.65826,-83.47549,White Lake,MI,Michigan,True,,18631.0,428.0,26125,Oakland,"{""26125"": 100}",Oakland,26125,False,False,America/Detroit,"(42.65826, -83.47549)",48.224421433436774,4147062.0,657_0_yes,42.124134517036765,-82.8671534112414,40.0
48390,42.55197,-83.4752,Walled Lake,MI,Michigan,True,,24457.0,756.9,26125,Oakland,"{""26125"": 100}",Oakland,26125,False,False,America/Detroit,"(42.55197, -83.4752)",42.874223782486766,4147062.0,657_0_yes,42.124134517036765,-82.8671534112414,40.0
48393,42.52123,-83.54532,Wixom,MI,Michigan,True,,16782.0,477.3,26125,Oakland,"{""26125"": 100}",Oakland,26125,False,False,America/Detroit,"(42.52123, -83.54532)",44.1924850433896,4147062.0,657_0_yes,42.124134517036765,-82.8671534112414,40.0
