zip,lat,lng,city,state_id,state_name,zcta,parent_zcta,population,density,county_fips,county_name,county_weights,county_names_all,county_fips_all,imprecise,military,timezone,Coord,distance_miles,market_total_population,market_id,market_center_lat,market_center_lng,radius_miles
96104,41.48248,-120.12725,Cedarville,CA,California,True,,920.0,1.5,6049,Modoc,"{""06049"": 100}",Modoc,06049,False,False,America/Los_Angeles,"(41.48248, -120.12725)",30.53012607168895,6758.0,680_0_no,41.79853191971997,-119.71404160176496,40.0
96108,41.77687,-120.42351,Davis Creek,CA,California,True,,158.0,0.3,6049,Modoc,"{""06049"": 100}",Modoc,06049,False,False,America/Los_Angeles,"(41.77687, -120.42351)",36.580473214931466,6758.0,680_0_no,41.79853191971997,-119.71404160176496,40.0
96110,41.26637,-120.10763,Eagleville,CA,California,True,,87.0,0.3,6049,Modoc,"{""06049"": 96.22, ""06035"": 3.78}",Modoc|Lassen,06049|06035,False,False,America/Los_Angeles,"(41.26637, -120.10763)",42.02802177301176,6758.0,680_0_no,41.79853191971997,-119.71404160176496,40.0
96112,41.8372,-120.09403,Fort Bidwell,CA,California,True,,210.0,0.6,6049,Modoc,"{""06049"": 100}",Modoc,06049,False,False,America/Los_Angeles,"(41.8372, -120.09403)",19.748331642890747,6758.0,680_0_no,41.79853191971997,-119.71404160176496,40.0
96115,41.70753,-120.14047,Lake City,CA,California,True,,167.0,0.6,6049,Modoc,"{""06049"": 100}",Modoc,06049,False,False,America/Los_Angeles,"(41.70753, -120.14047)",22.861946868235922,6758.0,680_0_no,41.79853191971997,-119.71404160176496,40.0
96116,41.2603,-120.44841,Likely,CA,California,True,,149.0,0.3,6049,Modoc,"{""06049"": 100}",Modoc,06049,False,False,America/Los_Angeles,"(41.2603, -120.44841)",53.157939208992346,6758.0,680_0_no,41.79853191971997,-119.71404160176496,40.0
97620,42.223,-119.89677,Adel,OR,Oregon,True,,106.0,0.1,41037,Lake,"{""41037"": 100}",Lake,41037,False,False,America/Los_Angeles,"(42.223, -119.89677)",30.791684614419964,6758.0,680_0_no,41.79853191971997,-119.71404160176496,40.0
97630,42.29832,-120.39166,Lakeview,OR,Oregon,True,,4797.0,1.8,41037,Lake,"{""41037"": 100}",Lake,41037,False,False,America/Los_Angeles,"(42.29832, -120.39166)",49.001636638010616,6758.0,680_0_no,41.79853191971997,-119.71404160176496,40.0
97635,41.93173,-120.29974,New Pine Creek,OR,Oregon,True,,164.0,1.2,6049,Modoc,"{""06049"": 92.79, ""41037"": 7.21}",Modoc|Lake,06049|41037,False,False,America/Los_Angeles,"(41.93173, -120.29974)",31.510972389685822,6758.0,680_0_no,41.79853191971997,-119.71404160176496,40.0
