zip,lat,lng,city,state_id,state_name,zcta,parent_zcta,population,density,county_fips,county_name,county_weights,county_names_all,county_fips_all,imprecise,military,timezone,Coord,distance_miles,market_total_population,market_id,market_center_lat,market_center_lng,radius_miles
01201,42.45614,-73.28114,Pittsfield,MA,Massachusetts,True,,43941.0,281.0,25003,Berkshire,"{""25003"": 100}",Berkshire,25003,False,False,America/New_York,"(42.45614, -73.28114)",38.232841167330335,1210023.0,689_0_no,42.64263156697916,-73.9883248620825,40.0
01229,42.29411,-73.35227,Glendale,MA,Massachusetts,True,,59.0,9.2,25003,Berkshire,"{""25003"": 100}",Berkshire,25003,False,False,America/New_York,"(42.29411, -73.35227)",40.382685958324394,1210023.0,689_0_no,42.64263156697916,-73.9883248620825,40.0
01230,42.18197,-73.34244,Great Barrington,MA,Massachusetts,True,,8354.0,33.3,25003,Berkshire,"{""25003"": 100}",Berkshire,25003,False,False,America/New_York,"(42.18197, -73.34244)",45.81068740909863,1210023.0,689_0_no,42.64263156697916,-73.9883248620825,40.0
01236,42.26923,-73.37999,Housatonic,MA,Massachusetts,True,,1577.0,92.0,25003,Berkshire,"{""25003"": 100}",Berkshire,25003,False,False,America/New_York,"(42.26923, -73.37999)",40.339639601130685,1210023.0,689_0_no,42.64263156697916,-73.9883248620825,40.0
01237,42.5529,-73.25373,Lanesborough,MA,Massachusetts,True,,2522.0,19.7,25003,Berkshire,"{""25003"": 100}",Berkshire,25003,False,False,America/New_York,"(42.5529, -73.25373)",37.87321606335042,1210023.0,689_0_no,42.64263156697916,-73.9883248620825,40.0
01238,42.30072,-73.22553,Lee,MA,Massachusetts,True,,5980.0,83.6,25003,Berkshire,"{""25003"": 100}",Berkshire,25003,False,False,America/New_York,"(42.30072, -73.22553)",45.48995832345435,1210023.0,689_0_no,42.64263156697916,-73.9883248620825,40.0
01240,42.37567,-73.26466,Lenox,MA,Massachusetts,True,,4666.0,75.3,25003,Berkshire,"{""25003"": 100}",Berkshire,25003,False,False,America/New_York,"(42.37567, -73.26466)",41.21631594666176,1210023.0,689_0_no,42.64263156697916,-73.9883248620825,40.0
01242,42.3334,-73.24967,Lenox Dale,MA,Massachusetts,True,,337.0,283.2,25003,Berkshire,"{""25003"": 100}",Berkshire,25003,False,False,America/New_York,"(42.3334, -73.24967)",43.27672843064008,1210023.0,689_0_no,42.64263156697916,-73.9883248620825,40.0
01244,42.10924,-73.27475,Mill River,MA,Massachusetts,True,,120.0,8.0,25003,Berkshire,"{""25003"": 100}",Berkshire,25003,False,False,America/New_York,"(42.10924, -73.27475)",51.81453585698299,1210023.0,689_0_no,42.64263156697916,-73.9883248620825,40.0
01245,42.19043,-73.21579,Monterey,MA,Massachusetts,True,,774.0,11.6,25003,Berkshire,"{""25003"": 100}",Berkshire,25003,False,False,America/New_York,"(42.19043, -73.21579)",50.289230503748115,1210023.0,689_0_no,42.64263156697916,-73.9883248620825,40.0
01254,42.37972,-73.36608,Richmond,MA,Massachusetts,True,,961.0,25.7,25003,Berkshire,"{""25003"": 100}",Berkshire,25003,False,False,America/New_York,"(42.37972, -73.36608)",36.52894005061891,1210023.0,689_0_no,42.64263156697916,-73.9883248620825,40.0
01257,42.0976,-73.37241,Sheffield,MA,Massachusetts,True,,1858.0,21.2,25003,Berkshire,"{""25003"": 100}",Berkshire,25003,False,False,America/New_York,"(42.0976, -73.37241)",49.05712671047049,1210023.0,689_0_no,42.64263156697916,-73.9883248620825,40.0
01258,42.09396,-73.46616,South Egremont,MA,Massachusetts,True,,604.0,10.5,25003,Berkshire,"{""25003"": 100}",Berkshire,25003,False,False,America/New_York,"(42.09396, -73.46616)",46.34258554548509,1210023.0,689_0_no,42.64263156697916,-73.9883248620825,40.0
01259,42.07316,-73.23282,Southfield,MA,Massachusetts,True,,617.0,10.4,25003,Berkshire,"{""25003"": 100}",Berkshire,25003,False,False,America/New_York,"(42.07316, -73.23282)",55.10018517600901,1210023.0,689_0_no,42.64263156697916,-73.9883248620825,40.0
01262,42.30433,-73.32013,Stockbridge,MA,Massachusetts,True,,1136.0,22.2,25003,Berkshire,"{""25003"": 100}",Berkshire,25003,False,False,America/New_York,"(42.30433, -73.32013)",41.30313623979706,1210023.0,689_0_no,42.64263156697916,-73.9883248620825,40.0
01266,42.30264,-73.39846,West Stockbridge,MA,Massachusetts,True,,1281.0,24.5,25003,Berkshire,"{""25003"": 100}",Berkshire,25003,False,False,America/New_York,"(42.30264, -73.39846)",38.15119832512539,1210023.0,689_0_no,42.64263156697916,-73.9883248620825,40.0
01267,42.66593,-73.24209,Williamstown,MA,Massachusetts,True,,7796.0,50.8,25003,Berkshire,"{""25003"": 100}",Berkshire,25003,False,False,America/New_York,"(42.66593, -73.24209)",37.95405465664742,1210023.0,689_0_no,42.64263156697916,-73.9883248620825,40.0
05257,42.96538,-73.25156,North Bennington,VT,Vermont,True,,2750.0,60.4,50003,Bennington,"{""50003"": 100}",Bennington,50003,False,False,America/New_York,"(42.96538, -73.25156)",43.49910778771444,1210023.0,689_0_no,42.64263156697916,-73.9883248620825,40.0
05260,42.81594,-73.26173,North Pownal,VT,Vermont,True,,593.0,39.6,50003,Bennington,"{""50003"": 100}",Bennington,50003,False,False,America/New_York,"(42.81594, -73.26173)",38.772703551871984,1210023.0,689_0_no,42.64263156697916,-73.9883248620825,40.0
05261,42.77516,-73.21273,Pownal,VT,Vermont,True,,2441.0,32.5,50003,Bennington,"{""50003"": 100}",Bennington,50003,False,False,America/New_York,"(42.77516, -73.21273)",40.427817284002266,1210023.0,689_0_no,42.64263156697916,-73.9883248620825,40.0
12007,42.48889,-73.93159,Alcove,NY,New York,True,,10.0,0.8,36001,Albany,"{""36001"": 100}",Albany,36001,False,False,America/New_York,"(42.48889, -73.93159)",11.007880078229629,1210023.0,689_0_no,42.64263156697916,-73.9883248620825,40.0
12008,42.85367,-73.9063,Alplaus,NY,New York,True,,542.0,312.7,36093,Schenectady,"{""36093"": 100}",Schenectady,36093,False,False,America/New_York,"(42.85367, -73.9063)",15.163668111267667,1210023.0,689_0_no,42.64263156697916,-73.9883248620825,40.0
12009,42.69824,-74.03398,Altamont,NY,New York,True,,7690.0,56.4,36001,Albany,"{""36001"": 99.62, ""36093"": 0.38}",Albany|Schenectady,36001|36093,False,False,America/New_York,"(42.69824, -74.03398)",4.487961046838994,1210023.0,689_0_no,42.64263156697916,-73.9883248620825,40.0
12010,42.93752,-74.17287,Amsterdam,NY,New York,True,,27556.0,82.9,36057,Montgomery,"{""36057"": 64.3, ""36035"": 18.26, ""36091"": 11.56, ""36093"": 5.88}",Montgomery|Fulton|Saratoga|Schenectady,36057|36035|36091|36093,False,False,America/New_York,"(42.93752, -74.17287)",22.42076421025101,1210023.0,689_0_no,42.64263156697916,-73.9883248620825,40.0
12015,42.28315,-73.82543,Athens,NY,New York,True,,3347.0,85.5,36039,Greene,"{""36039"": 100}",Greene,36039,False,False,America/New_York,"(42.28315, -73.82543)",26.18883408224602,1210023.0,689_0_no,42.64263156697916,-73.9883248620825,40.0
12017,42.31453,-73.45682,Austerlitz,NY,New York,True,,445.0,11.7,36021,Columbia,"{""36021"": 100}",Columbia,36021,False,False,America/New_York,"(42.31453, -73.45682)",35.319729095916486,1210023.0,689_0_no,42.64263156697916,-73.9883248620825,40.0
12018,42.62926,-73.52662,Averill Park,NY,New York,True,,7112.0,59.4,36083,Rensselaer,"{""36083"": 100}",Rensselaer,36083,False,False,America/New_York,"(42.62926, -73.52662)",23.48665968229063,1210023.0,689_0_no,42.64263156697916,-73.9883248620825,40.0
12019,42.92993,-73.88245,Ballston Lake,NY,New York,True,,14244.0,193.2,36091,Saratoga,"{""36091"": 97.82, ""36093"": 2.18}",Saratoga|Schenectady,36091|36093,False,False,America/New_York,"(42.92993, -73.88245)",20.563593692346167,1210023.0,689_0_no,42.64263156697916,-73.9883248620825,40.0
12020,43.00208,-73.87401,Ballston Spa,NY,New York,True,,33235.0,169.8,36091,Saratoga,"{""36091"": 100}",Saratoga,36091,False,False,America/New_York,"(43.00208, -73.87401)",25.502233077389544,1210023.0,689_0_no,42.64263156697916,-73.9883248620825,40.0
12022,42.66653,-73.33401,Berlin,NY,New York,True,,652.0,10.6,36083,Rensselaer,"{""36083"": 100}",Rensselaer,36083,False,False,America/New_York,"(42.66653, -73.33401)",33.2898306199426,1210023.0,689_0_no,42.64263156697916,-73.9883248620825,40.0
12023,42.60656,-74.16573,Berne,NY,New York,True,,2376.0,15.5,36001,Albany,"{""36001"": 75.79, ""36095"": 24.21}",Albany|Schoharie,36001|36095,False,False,America/New_York,"(42.60656, -74.16573)",9.357186956458975,1210023.0,689_0_no,42.64263156697916,-73.9883248620825,40.0
12025,43.09142,-74.11924,Broadalbin,NY,New York,True,,5331.0,49.1,36035,Fulton,"{""36035"": 61.44, ""36091"": 38.56}",Fulton|Saratoga,36035|36091,False,False,America/New_York,"(43.09142, -74.11924)",31.709115930840184,1210023.0,689_0_no,42.64263156697916,-73.9883248620825,40.0
12027,42.92122,-73.90872,Burnt Hills,NY,New York,True,,3996.0,206.8,36091,Saratoga,"{""36091"": 88.0, ""36093"": 12.0}",Saratoga|Schenectady,36091|36093,False,False,America/New_York,"(42.92122, -73.90872)",19.667370117608392,1210023.0,689_0_no,42.64263156697916,-73.9883248620825,40.0
12028,42.94545,-73.44213,Buskirk,NY,New York,True,,707.0,11.5,36115,Washington,"{""36115"": 52.78, ""36083"": 47.22}",Washington|Rensselaer,36115|36083,False,False,America/New_York,"(42.94545, -73.44213)",34.70775059229676,1210023.0,689_0_no,42.64263156697916,-73.9883248620825,40.0
12029,42.40397,-73.42466,Canaan,NY,New York,True,,1082.0,20.1,36021,Columbia,"{""36021"": 100}",Columbia,36021,False,False,America/New_York,"(42.40397, -73.42466)",33.10242726036958,1210023.0,689_0_no,42.64263156697916,-73.9883248620825,40.0
12031,42.76579,-74.46617,Carlisle,NY,New York,True,,174.0,19.1,36095,Schoharie,"{""36095"": 100}",Schoharie,36095,False,False,America/New_York,"(42.76579, -74.46617)",25.711193329164093,1210023.0,689_0_no,42.64263156697916,-73.9883248620825,40.0
12033,42.53665,-73.70558,Castleton On Hudson,NY,New York,True,,8152.0,110.4,36083,Rensselaer,"{""36083"": 100}",Rensselaer,36083,False,False,America/New_York,"(42.53665, -73.70558)",16.139420897957194,1210023.0,689_0_no,42.64263156697916,-73.9883248620825,40.0
12035,42.73453,-74.37534,Central Bridge,NY,New York,True,,579.0,23.2,36095,Schoharie,"{""36095"": 100}",Schoharie,36095,False,False,America/New_York,"(42.73453, -74.37534)",20.65550721157085,1210023.0,689_0_no,42.64263156697916,-73.9883248620825,40.0
12036,42.53564,-74.68468,Charlotteville,NY,New York,True,,252.0,13.8,36095,Schoharie,"{""36095"": 78.2, ""36077"": 21.8}",Schoharie|Otsego,36095|36077,False,False,America/New_York,"(42.53564, -74.68468)",36.18546019847781,1210023.0,689_0_no,42.64263156697916,-73.9883248620825,40.0
12037,42.33506,-73.55714,Chatham,NY,New York,True,,4489.0,47.9,36021,Columbia,"{""36021"": 100}",Columbia,36021,False,False,America/New_York,"(42.33506, -73.55714)",30.565343365992685,1210023.0,689_0_no,42.64263156697916,-73.9883248620825,40.0
12040,42.63047,-73.35916,Cherry Plain,NY,New York,True,,87.0,562.2,36083,Rensselaer,"{""36083"": 100}",Rensselaer,36083,False,False,America/New_York,"(42.63047, -73.35916)",31.99117404284053,1210023.0,689_0_no,42.64263156697916,-73.9883248620825,40.0
12041,42.55893,-73.97028,Clarksville,NY,New York,True,,681.0,134.1,36001,Albany,"{""36001"": 100}",Albany,36001,False,False,America/New_York,"(42.55893, -73.97028)",5.8555927727279435,1210023.0,689_0_no,42.64263156697916,-73.9883248620825,40.0
12042,42.38185,-73.89162,Climax,NY,New York,True,,233.0,18.0,36039,Greene,"{""36039"": 100}",Greene,36039,False,False,America/New_York,"(42.38185, -73.89162)",18.67932012905964,1210023.0,689_0_no,42.64263156697916,-73.9883248620825,40.0
12043,42.70357,-74.5267,Cobleskill,NY,New York,True,,8202.0,49.8,36095,Schoharie,"{""36095"": 97.2, ""36077"": 2.8}",Schoharie|Otsego,36095|36077,False,False,America/New_York,"(42.70357, -74.5267)",27.671476950426133,1210023.0,689_0_no,42.64263156697916,-73.9883248620825,40.0
12045,42.47974,-73.79682,Coeymans,NY,New York,True,,449.0,140.4,36001,Albany,"{""36001"": 100}",Albany,36001,False,False,America/New_York,"(42.47974, -73.79682)",14.887960315651686,1210023.0,689_0_no,42.64263156697916,-73.9883248620825,40.0
12046,42.48864,-73.92119,Coeymans Hollow,NY,New York,True,,1103.0,28.7,36001,Albany,"{""36001"": 96.76, ""36039"": 3.24}",Albany|Greene,36001|36039,False,False,America/New_York,"(42.48864, -73.92119)",11.174823558494467,1210023.0,689_0_no,42.64263156697916,-73.9883248620825,40.0
12047,42.78396,-73.72655,Cohoes,NY,New York,True,,21453.0,936.9,36001,Albany,"{""36001"": 100}",Albany,36001,False,False,America/New_York,"(42.78396, -73.72655)",16.491294598728597,1210023.0,689_0_no,42.64263156697916,-73.9883248620825,40.0
12051,42.34493,-73.83938,Coxsackie,NY,New York,True,,6769.0,145.9,36039,Greene,"{""36039"": 100}",Greene,36039,False,False,America/New_York,"(42.34493, -73.83938)",21.924242856923023,1210023.0,689_0_no,42.64263156697916,-73.9883248620825,40.0
12052,42.75767,-73.47847,Cropseyville,NY,New York,True,,1921.0,24.6,36083,Rensselaer,"{""36083"": 100}",Rensselaer,36083,False,False,America/New_York,"(42.75767, -73.47847)",27.081843163571072,1210023.0,689_0_no,42.64263156697916,-73.9883248620825,40.0
12053,42.75283,-74.18791,Delanson,NY,New York,True,,4611.0,31.6,36093,Schenectady,"{""36093"": 68.36, ""36001"": 16.77, ""36095"": 12.56, ""36057"": 2.31}",Schenectady|Albany|Schoharie|Montgomery,36093|36001|36095|36057,False,False,America/New_York,"(42.75283, -74.18791)",12.676275355589173,1210023.0,689_0_no,42.64263156697916,-73.9883248620825,40.0
12054,42.60764,-73.86864,Delmar,NY,New York,True,,16948.0,423.4,36001,Albany,"{""36001"": 100}",Albany,36001,False,False,America/New_York,"(42.60764, -73.86864)",6.547380234307681,1210023.0,689_0_no,42.64263156697916,-73.9883248620825,40.0
12056,42.76761,-74.0905,Duanesburg,NY,New York,True,,2543.0,52.3,36093,Schenectady,"{""36093"": 100}",Schenectady,36093,False,False,America/New_York,"(42.76761, -74.0905)",10.073711054846882,1210023.0,689_0_no,42.64263156697916,-73.9883248620825,40.0
12057,42.97316,-73.34335,Eagle Bridge,NY,New York,True,,2176.0,22.0,36115,Washington,"{""36115"": 81.74, ""36083"": 18.26}",Washington|Rensselaer,36115|36083,False,False,America/New_York,"(42.97316, -73.34335)",39.87966173476006,1210023.0,689_0_no,42.64263156697916,-73.9883248620825,40.0
12058,42.3498,-73.923,Earlton,NY,New York,True,,971.0,18.8,36039,Greene,"{""36039"": 100}",Greene,36039,False,False,America/New_York,"(42.3498, -73.923)",20.50459632598732,1210023.0,689_0_no,42.64263156697916,-73.9883248620825,40.0
12059,42.61403,-74.05811,East Berne,NY,New York,True,,1719.0,29.1,36001,Albany,"{""36001"": 100}",Albany,36001,False,False,America/New_York,"(42.61403, -74.05811)",4.060898589325724,1210023.0,689_0_no,42.64263156697916,-73.9883248620825,40.0
12060,42.41325,-73.49284,East Chatham,NY,New York,True,,1687.0,18.1,36021,Columbia,"{""36021"": 100}",Columbia,36021,False,False,America/New_York,"(42.41325, -73.49284)",29.79415616118802,1210023.0,689_0_no,42.64263156697916,-73.9883248620825,40.0
12061,42.59915,-73.65658,East Greenbush,NY,New York,True,,9725.0,186.9,36083,Rensselaer,"{""36083"": 100}",Rensselaer,36083,False,False,America/New_York,"(42.59915, -73.65658)",17.13216809301025,1210023.0,689_0_no,42.64263156697916,-73.9883248620825,40.0
12062,42.52871,-73.501,East Nassau,NY,New York,True,,1601.0,18.6,36083,Rensselaer,"{""36083"": 90.47, ""36021"": 9.53}",Rensselaer|Columbia,36083|36021,False,False,America/New_York,"(42.52871, -73.501)",26.010318344641664,1210023.0,689_0_no,42.64263156697916,-73.9883248620825,40.0
12063,42.56442,-73.63826,East Schodack,NY,New York,True,,770.0,232.4,36083,Rensselaer,"{""36083"": 100}",Rensselaer,36083,False,False,America/New_York,"(42.56442, -73.63826)",18.605162395710735,1210023.0,689_0_no,42.64263156697916,-73.9883248620825,40.0
12064,42.60711,-74.65887,East Worcester,NY,New York,True,,307.0,13.1,36077,Otsego,"{""36077"": 62.24, ""36095"": 37.76}",Otsego|Schoharie,36077|36095,False,False,America/New_York,"(42.60711, -74.65887)",34.17809461982114,1210023.0,689_0_no,42.64263156697916,-73.9883248620825,40.0
12065,42.85402,-73.78654,Clifton Park,NY,New York,True,,42432.0,466.5,36091,Saratoga,"{""36091"": 100}",Saratoga,36091,False,False,America/New_York,"(42.85402, -73.78654)",17.836548269033617,1210023.0,689_0_no,42.64263156697916,-73.9883248620825,40.0
12066,42.78011,-74.30291,Esperance,NY,New York,True,,1837.0,21.7,36057,Montgomery,"{""36057"": 46.85, ""36095"": 30.31, ""36093"": 22.84}",Montgomery|Schoharie|Schenectady,36057|36095|36093,False,False,America/New_York,"(42.78011, -74.30291)",18.582262315513525,1210023.0,689_0_no,42.64263156697916,-73.9883248620825,40.0
12067,42.56083,-73.91663,Feura Bush,NY,New York,True,,1554.0,30.7,36001,Albany,"{""36001"": 100}",Albany,36001,False,False,America/New_York,"(42.56083, -73.91663)",6.72605000274338,1210023.0,689_0_no,42.64263156697916,-73.9883248620825,40.0
12068,42.95701,-74.40467,Fonda,NY,New York,True,,3029.0,39.9,36057,Montgomery,"{""36057"": 95.16, ""36035"": 4.84}",Montgomery|Fulton,36057|36035,False,False,America/New_York,"(42.95701, -74.40467)",30.28738329499562,1210023.0,689_0_no,42.64263156697916,-73.9883248620825,40.0
12069,42.94336,-74.28193,Fort Hunter,NY,New York,True,,294.0,304.6,36057,Montgomery,"{""36057"": 100}",Montgomery,36057,False,False,America/New_York,"(42.94336, -74.28193)",25.560493897114572,1210023.0,689_0_no,42.64263156697916,-73.9883248620825,40.0
12070,42.98513,-74.25441,Fort Johnson,NY,New York,True,,1974.0,60.6,36057,Montgomery,"{""36057"": 50.8, ""36035"": 49.2}",Montgomery|Fulton,36057|36035,False,False,America/New_York,"(42.98513, -74.25441)",27.237550388651115,1210023.0,689_0_no,42.64263156697916,-73.9883248620825,40.0
12071,42.56971,-74.41521,Fultonham,NY,New York,True,,319.0,8.9,36095,Schoharie,"{""36095"": 100}",Schoharie,36095,False,False,America/New_York,"(42.56971, -74.41521)",22.285979903430928,1210023.0,689_0_no,42.64263156697916,-73.9883248620825,40.0
12072,42.88102,-74.36164,Fultonville,NY,New York,True,,3065.0,22.7,36057,Montgomery,"{""36057"": 100}",Montgomery,36057,False,False,America/New_York,"(42.88102, -74.36164)",25.09805011423398,1210023.0,689_0_no,42.64263156697916,-73.9883248620825,40.0
12074,43.05219,-74.04709,Galway,NY,New York,True,,2957.0,33.3,36091,Saratoga,"{""36091"": 100}",Saratoga,36091,False,False,America/New_York,"(43.05219, -74.04709)",28.453939328304955,1210023.0,689_0_no,42.64263156697916,-73.9883248620825,40.0
12075,42.30145,-73.64046,Ghent,NY,New York,True,,2530.0,26.9,36021,Columbia,"{""36021"": 100}",Columbia,36021,False,False,America/New_York,"(42.30145, -73.64046)",29.495789320869388,1210023.0,689_0_no,42.64263156697916,-73.9883248620825,40.0
12076,42.40868,-74.38506,Gilboa,NY,New York,True,,1188.0,6.7,36095,Schoharie,"{""36095"": 100}",Schoharie,36095,False,False,America/New_York,"(42.40868, -74.38506)",25.87279026281674,1210023.0,689_0_no,42.64263156697916,-73.9883248620825,40.0
12077,42.59426,-73.7841,Glenmont,NY,New York,True,,6488.0,247.6,36001,Albany,"{""36001"": 100}",Albany,36001,False,False,America/New_York,"(42.59426, -73.7841)",10.908299187250284,1210023.0,689_0_no,42.64263156697916,-73.9883248620825,40.0
12078,43.12338,-74.36255,Gloversville,NY,New York,True,,22956.0,80.0,36035,Fulton,"{""36035"": 100}",Fulton,36035,False,False,America/New_York,"(43.12338, -74.36255)",38.23990260806045,1210023.0,689_0_no,42.64263156697916,-73.9883248620825,40.0
12083,42.43151,-74.03155,Greenville,NY,New York,True,,3830.0,33.8,36039,Greene,"{""36039"": 51.88, ""36001"": 48.12}",Greene|Albany,36039|36001,False,False,America/New_York,"(42.43151, -74.03155)",14.752170715284876,1210023.0,689_0_no,42.64263156697916,-73.9883248620825,40.0
12084,42.70411,-73.90182,Guilderland,NY,New York,True,,4806.0,487.0,36001,Albany,"{""36001"": 100}",Albany,36001,False,False,America/New_York,"(42.70411, -73.90182)",6.111810320125242,1210023.0,689_0_no,42.64263156697916,-73.9883248620825,40.0
12085,42.70043,-73.96659,Guilderland Center,NY,New York,True,,430.0,248.0,36001,Albany,"{""36001"": 100}",Albany,36001,False,False,America/New_York,"(42.70043, -73.96659)",4.143323285541588,1210023.0,689_0_no,42.64263156697916,-73.9883248620825,40.0
12086,42.99684,-74.10508,Hagaman,NY,New York,True,,1379.0,87.2,36091,Saratoga,"{""36091"": 57.52, ""36057"": 25.39, ""36035"": 17.09}",Saratoga|Montgomery|Fulton,36091|36057|36035,False,False,America/New_York,"(42.99684, -74.10508)",25.17861610753154,1210023.0,689_0_no,42.64263156697916,-73.9883248620825,40.0
12087,42.42794,-73.8931,Hannacroix,NY,New York,True,,1069.0,20.6,36039,Greene,"{""36039"": 91.96, ""36001"": 8.04}",Greene|Albany,36039|36001,False,False,America/New_York,"(42.42794, -73.8931)",15.605927003571358,1210023.0,689_0_no,42.64263156697916,-73.9883248620825,40.0
12090,42.88073,-73.35624,Hoosick Falls,NY,New York,True,,5931.0,39.6,36083,Rensselaer,"{""36083"": 100}",Rensselaer,36083,False,False,America/New_York,"(42.88073, -73.35624)",36.037806492562694,1210023.0,689_0_no,42.64263156697916,-73.9883248620825,40.0
12092,42.70396,-74.38456,Howes Cave,NY,New York,True,,1008.0,25.2,36095,Schoharie,"{""36095"": 100}",Schoharie,36095,False,False,America/New_York,"(42.70396, -74.38456)",20.56974774674995,1210023.0,689_0_no,42.64263156697916,-73.9883248620825,40.0
12093,42.49599,-74.6262,Jefferson,NY,New York,True,,1602.0,9.5,36095,Schoharie,"{""36095"": 73.95, ""36025"": 26.05}",Schoharie|Delaware,36095|36025,False,False,America/New_York,"(42.49599, -74.6262)",34.00248595220908,1210023.0,689_0_no,42.64263156697916,-73.9883248620825,40.0
12094,42.89091,-73.48737,Johnsonville,NY,New York,True,,2260.0,27.5,36083,Rensselaer,"{""36083"": 85.42, ""36115"": 14.58}",Rensselaer|Washington,36083|36115,False,False,America/New_York,"(42.89091, -73.48737)",30.65837532752805,1210023.0,689_0_no,42.64263156697916,-73.9883248620825,40.0
12095,43.03151,-74.41553,Johnstown,NY,New York,True,,11986.0,71.0,36035,Fulton,"{""36035"": 91.64, ""36057"": 8.36}",Fulton|Montgomery,36035|36057,False,False,America/New_York,"(43.03151, -74.41553)",34.50246318419567,1210023.0,689_0_no,42.64263156697916,-73.9883248620825,40.0
12106,42.38871,-73.71228,Kinderhook,NY,New York,True,,2299.0,62.0,36021,Columbia,"{""36021"": 100}",Columbia,36021,False,False,America/New_York,"(42.38871, -73.71228)",22.48204455180795,1210023.0,689_0_no,42.64263156697916,-73.9883248620825,40.0
12110,42.75349,-73.77671,Latham,NY,New York,True,,21223.0,571.2,36001,Albany,"{""36001"": 100}",Albany,36001,False,False,America/New_York,"(42.75349, -73.77671)",13.196151419826727,1210023.0,689_0_no,42.64263156697916,-73.9883248620825,40.0
12115,42.46747,-73.59338,Malden Bridge,NY,New York,True,,59.0,6.3,36021,Columbia,"{""36021"": 100}",Columbia,36021,False,False,America/New_York,"(42.46747, -73.59338)",23.463288683067397,1210023.0,689_0_no,42.64263156697916,-73.9883248620825,40.0
12117,43.16894,-74.25557,Mayfield,NY,New York,True,,3163.0,27.8,36035,Fulton,"{""36035"": 100}",Fulton,36035,False,False,America/New_York,"(43.16894, -74.25557)",38.798135206842225,1210023.0,689_0_no,42.64263156697916,-73.9883248620825,40.0
12118,42.92096,-73.72049,Mechanicville,NY,New York,True,,16467.0,180.0,36091,Saratoga,"{""36091"": 96.6, ""36083"": 3.4}",Saratoga|Rensselaer,36091|36083,False,False,America/New_York,"(42.92096, -73.72049)",23.543386935965653,1210023.0,689_0_no,42.64263156697916,-73.9883248620825,40.0
12120,42.45781,-74.1409,Medusa,NY,New York,True,,733.0,19.2,36001,Albany,"{""36001"": 94.6, ""36039"": 5.4}",Albany|Greene,36001|36039,False,False,America/New_York,"(42.45781, -74.1409)",14.946023573549361,1210023.0,689_0_no,42.64263156697916,-73.9883248620825,40.0
12121,42.84368,-73.60398,Melrose,NY,New York,True,,2110.0,42.2,36083,Rensselaer,"{""36083"": 100}",Rensselaer,36083,False,False,America/New_York,"(42.84368, -73.60398)",23.9439501077235,1210023.0,689_0_no,42.64263156697916,-73.9883248620825,40.0
12122,42.54341,-74.31138,Middleburgh,NY,New York,True,,4137.0,15.6,36095,Schoharie,"{""36095"": 91.47, ""36001"": 8.53}",Schoharie|Albany,36095|36001,False,False,America/New_York,"(42.54341, -74.31138)",17.804970960383134,1210023.0,689_0_no,42.64263156697916,-73.9883248620825,40.0
12123,42.52239,-73.60636,Nassau,NY,New York,True,,5120.0,62.2,36083,Rensselaer,"{""36083"": 98.08, ""36021"": 1.92}",Rensselaer|Columbia,36083|36021,False,False,America/New_York,"(42.52239, -73.60636)",21.13343186692482,1210023.0,689_0_no,42.64263156697916,-73.9883248620825,40.0
12124,42.44652,-73.78494,New Baltimore,NY,New York,True,,545.0,135.1,36039,Greene,"{""36039"": 100}",Greene,36039,False,False,America/New_York,"(42.44652, -73.78494)",17.052630117813255,1210023.0,689_0_no,42.64263156697916,-73.9883248620825,40.0
12125,42.47633,-73.40394,New Lebanon,NY,New York,True,,1084.0,26.2,36021,Columbia,"{""36021"": 100}",Columbia,36021,False,False,America/New_York,"(42.47633, -73.40394)",31.883205090306163,1210023.0,689_0_no,42.64263156697916,-73.9883248620825,40.0
12130,42.44156,-73.65835,Niverville,NY,New York,True,,892.0,631.5,36021,Columbia,"{""36021"": 100}",Columbia,36021,False,False,America/New_York,"(42.44156, -73.65835)",21.79855212338965,1210023.0,689_0_no,42.64263156697916,-73.9883248620825,40.0
12131,42.46573,-74.46249,North Blenheim,NY,New York,True,,98.0,3.3,36095,Schoharie,"{""36095"": 100}",Schoharie,36095,False,False,America/New_York,"(42.46573, -74.46249)",27.052142783996853,1210023.0,689_0_no,42.64263156697916,-73.9883248620825,40.0
12132,42.47102,-73.63362,North Chatham,NY,New York,True,,352.0,270.4,36021,Columbia,"{""36021"": 100}",Columbia,36021,False,False,America/New_York,"(42.47102, -73.63362)",21.598350107067116,1210023.0,689_0_no,42.64263156697916,-73.9883248620825,40.0
12136,42.43249,-73.56016,Old Chatham,NY,New York,True,,658.0,12.4,36021,Columbia,"{""36021"": 100}",Columbia,36021,False,False,America/New_York,"(42.43249, -73.56016)",26.190929966372174,1210023.0,689_0_no,42.64263156697916,-73.9883248620825,40.0
12137,42.85727,-74.12922,Pattersonville,NY,New York,True,,1993.0,33.0,36093,Schenectady,"{""36093"": 82.07, ""36057"": 17.93}",Schenectady|Montgomery,36093|36057,False,False,America/New_York,"(42.85727, -74.12922)",16.463108873675782,1210023.0,689_0_no,42.64263156697916,-73.9883248620825,40.0
12138,42.73735,-73.37128,Petersburg,NY,New York,True,,3156.0,13.6,36083,Rensselaer,"{""36083"": 100}",Rensselaer,36083,False,False,America/New_York,"(42.73735, -73.37128)",32.01319814968268,1210023.0,689_0_no,42.64263156697916,-73.9883248620825,40.0
12140,42.689,-73.56689,Poestenkill,NY,New York,True,,1681.0,90.7,36083,Rensselaer,"{""36083"": 100}",Rensselaer,36083,False,False,America/New_York,"(42.689, -73.56689)",21.64963354542269,1210023.0,689_0_no,42.64263156697916,-73.9883248620825,40.0
12143,42.48525,-73.85218,Ravena,NY,New York,True,,5032.0,101.8,36001,Albany,"{""36001"": 88.43, ""36039"": 11.57}",Albany|Greene,36001|36039,False,False,America/New_York,"(42.48525, -73.85218)",12.893611534612736,1210023.0,689_0_no,42.64263156697916,-73.9883248620825,40.0
12144,42.63106,-73.71801,Rensselaer,NY,New York,True,,20604.0,434.3,36083,Rensselaer,"{""36083"": 100}",Rensselaer,36083,False,False,America/New_York,"(42.63106, -73.71801)",13.763172664145053,1210023.0,689_0_no,42.64263156697916,-73.9883248620825,40.0
12147,42.51365,-74.15147,Rensselaerville,NY,New York,True,,495.0,10.0,36001,Albany,"{""36001"": 100}",Albany,36001,False,False,America/New_York,"(42.51365, -74.15147)",12.178507250913125,1210023.0,689_0_no,42.64263156697916,-73.9883248620825,40.0
12148,42.83361,-73.84652,Rexford,NY,New York,True,,4143.0,102.4,36091,Saratoga,"{""36091"": 100}",Saratoga,36091,False,False,America/New_York,"(42.83361, -73.84652)",15.030009012893734,1210023.0,689_0_no,42.64263156697916,-73.9883248620825,40.0
12149,42.62011,-74.56692,Richmondville,NY,New York,True,,2358.0,20.5,36095,Schoharie,"{""36095"": 94.82, ""36077"": 5.18}",Schoharie|Otsego,36095|36077,False,False,America/New_York,"(42.62011, -74.56692)",29.453295568121785,1210023.0,689_0_no,42.64263156697916,-73.9883248620825,40.0
12150,42.87613,-74.04923,Rotterdam Junction,NY,New York,True,,849.0,275.5,36093,Schenectady,"{""36093"": 100}",Schenectady,36093,False,False,America/New_York,"(42.87613, -74.04923)",16.426390417818325,1210023.0,689_0_no,42.64263156697916,-73.9883248620825,40.0
12151,42.92553,-73.78874,Round Lake,NY,New York,True,,1302.0,193.0,36091,Saratoga,"{""36091"": 100}",Saratoga,36091,False,False,America/New_York,"(42.92553, -73.78874)",22.01115811397448,1210023.0,689_0_no,42.64263156697916,-73.9883248620825,40.0
12153,42.63606,-73.46692,Sand Lake,NY,New York,True,,809.0,18.4,36083,Rensselaer,"{""36083"": 100}",Rensselaer,36083,False,False,America/New_York,"(42.63606, -73.46692)",26.505467707657978,1210023.0,689_0_no,42.64263156697916,-73.9883248620825,40.0
12154,42.93713,-73.60124,Schaghticoke,NY,New York,True,,3249.0,29.4,36083,Rensselaer,"{""36083"": 55.53, ""36115"": 44.47}",Rensselaer|Washington,36083|36115,False,False,America/New_York,"(42.93713, -73.60124)",28.270935488551007,1210023.0,689_0_no,42.64263156697916,-73.9883248620825,40.0
12156,42.47764,-73.74354,Schodack Landing,NY,New York,True,,752.0,20.0,36083,Rensselaer,"{""36083"": 72.48, ""36021"": 27.52}",Rensselaer|Columbia,36083|36021,False,False,America/New_York,"(42.47764, -73.74354)",16.886302036073992,1210023.0,689_0_no,42.64263156697916,-73.9883248620825,40.0
12157,42.66742,-74.29892,Schoharie,NY,New York,True,,4597.0,35.4,36095,Schoharie,"{""36095"": 98.53, ""36093"": 0.83, ""36001"": 0.64}",Schoharie|Schenectady|Albany,36095|36093|36001,False,False,America/New_York,"(42.66742, -74.29892)",15.875394181918747,1210023.0,689_0_no,42.64263156697916,-73.9883248620825,40.0
12158,42.53927,-73.81903,Selkirk,NY,New York,True,,6550.0,86.1,36001,Albany,"{""36001"": 100}",Albany,36001,False,False,America/New_York,"(42.53927, -73.81903)",11.187505657858246,1210023.0,689_0_no,42.64263156697916,-73.9883248620825,40.0
12159,42.64328,-73.88503,Slingerlands,NY,New York,True,,7971.0,203.7,36001,Albany,"{""36001"": 100}",Albany,36001,False,False,America/New_York,"(42.64328, -73.88503)",5.250088939720331,1210023.0,689_0_no,42.64263156697916,-73.9883248620825,40.0
12160,42.76325,-74.36619,Sloansville,NY,New York,True,,841.0,21.0,36095,Schoharie,"{""36095"": 91.02, ""36057"": 8.98}",Schoharie|Montgomery,36095|36057,False,False,America/New_York,"(42.76325, -74.36619)",20.918058195684672,1210023.0,689_0_no,42.64263156697916,-73.9883248620825,40.0
12161,42.53369,-73.84606,South Bethlehem,NY,New York,True,,183.0,716.1,36001,Albany,"{""36001"": 100}",Albany,36001,False,False,America/New_York,"(42.53369, -73.84606)",10.44176308378241,1210023.0,689_0_no,42.64263156697916,-73.9883248620825,40.0
12165,42.31518,-73.50756,Spencertown,NY,New York,True,,200.0,45.7,36021,Columbia,"{""36021"": 100}",Columbia,36021,False,False,America/New_York,"(42.31518, -73.50756)",33.34769007837896,1210023.0,689_0_no,42.64263156697916,-73.9883248620825,40.0
12166,42.83846,-74.45644,Sprakers,NY,New York,True,,1145.0,10.1,36057,Montgomery,"{""36057"": 97.86, ""36095"": 2.14}",Montgomery|Schoharie,36057|36095,False,False,America/New_York,"(42.83846, -74.45644)",27.337467685068106,1210023.0,689_0_no,42.64263156697916,-73.9883248620825,40.0
12167,42.42101,-74.59011,Stamford,NY,New York,True,,2663.0,19.2,36095,Schoharie,"{""36095"": 54.35, ""36025"": 45.65}",Schoharie|Delaware,36095|36025,False,False,America/New_York,"(42.42101, -74.59011)",34.253075988037544,1210023.0,689_0_no,42.64263156697916,-73.9883248620825,40.0
12168,42.5614,-73.3751,Stephentown,NY,New York,True,,1993.0,25.0,36083,Rensselaer,"{""36083"": 100}",Rensselaer,36083,False,False,America/New_York,"(42.5614, -73.3751)",31.688206796064165,1210023.0,689_0_no,42.64263156697916,-73.9883248620825,40.0
12169,42.58249,-73.43559,Stephentown,NY,New York,True,,353.0,11.8,36083,Rensselaer,"{""36083"": 100}",Rensselaer,36083,False,False,America/New_York,"(42.58249, -73.43559)",28.411596071619893,1210023.0,689_0_no,42.64263156697916,-73.9883248620825,40.0
12170,42.99936,-73.66234,Stillwater,NY,New York,True,,5034.0,61.6,36091,Saratoga,"{""36091"": 100}",Saratoga,36091,False,False,America/New_York,"(42.99936, -73.66234)",29.671983431975864,1210023.0,689_0_no,42.64263156697916,-73.9883248620825,40.0
12172,42.28915,-73.73895,Stottville,NY,New York,True,,187.0,135.0,36021,Columbia,"{""36021"": 100}",Columbia,36021,False,False,America/New_York,"(42.28915, -73.73895)",27.532632466890185,1210023.0,689_0_no,42.64263156697916,-73.9883248620825,40.0
12173,42.39042,-73.76196,Stuyvesant,NY,New York,True,,2139.0,50.6,36021,Columbia,"{""36021"": 100}",Columbia,36021,False,False,America/New_York,"(42.39042, -73.76196)",20.89425173383304,1210023.0,689_0_no,42.64263156697916,-73.9883248620825,40.0
12174,42.35314,-73.72802,Stuyvesant Falls,NY,New York,True,,526.0,185.3,36021,Columbia,"{""36021"": 100}",Columbia,36021,False,False,America/New_York,"(42.35314, -73.72802)",23.99836757288112,1210023.0,689_0_no,42.64263156697916,-73.9883248620825,40.0
12175,42.55489,-74.56161,Summit,NY,New York,True,,639.0,9.2,36095,Schoharie,"{""36095"": 100}",Schoharie,36095,False,False,America/New_York,"(42.55489, -74.56161)",29.78105844999461,1210023.0,689_0_no,42.64263156697916,-73.9883248620825,40.0
12176,42.38839,-73.96787,Surprise,NY,New York,True,,373.0,27.9,36039,Greene,"{""36039"": 100}",Greene,36039,False,False,America/New_York,"(42.38839, -73.96787)",17.59728051268656,1210023.0,689_0_no,42.64263156697916,-73.9883248620825,40.0
12177,42.95184,-74.28459,Tribes Hill,NY,New York,True,,547.0,439.8,36057,Montgomery,"{""36057"": 100}",Montgomery,36057,False,False,America/New_York,"(42.95184, -74.28459)",26.115764644124898,1210023.0,689_0_no,42.64263156697916,-73.9883248620825,40.0
12180,42.7516,-73.59997,Troy,NY,New York,True,,53181.0,365.2,36083,Rensselaer,"{""36083"": 100}",Rensselaer,36083,False,False,America/New_York,"(42.7516, -73.59997)",21.109027430431315,1210023.0,689_0_no,42.64263156697916,-73.9883248620825,40.0
12182,42.80044,-73.63519,Troy,NY,New York,True,,13886.0,392.6,36083,Rensselaer,"{""36083"": 100}",Rensselaer,36083,False,False,America/New_York,"(42.80044, -73.63519)",20.98088729107045,1210023.0,689_0_no,42.64263156697916,-73.9883248620825,40.0
12183,42.74742,-73.69259,Troy,NY,New York,True,,2647.0,1363.6,36001,Albany,"{""36001"": 100}",Albany,36001,False,False,America/New_York,"(42.74742, -73.69259)",16.67210120687087,1210023.0,689_0_no,42.64263156697916,-73.9883248620825,40.0
12184,42.42272,-73.65387,Valatie,NY,New York,True,,6762.0,66.3,36021,Columbia,"{""36021"": 98.36, ""36083"": 1.64}",Columbia|Rensselaer,36021|36083,False,False,America/New_York,"(42.42272, -73.65387)",22.821949752653914,1210023.0,689_0_no,42.64263156697916,-73.9883248620825,40.0
12185,42.90102,-73.53507,Valley Falls,NY,New York,True,,2007.0,34.0,36083,Rensselaer,"{""36083"": 75.86, ""36115"": 24.14}",Rensselaer|Washington,36083|36115,False,False,America/New_York,"(42.90102, -73.53507)",29.10669893151038,1210023.0,689_0_no,42.64263156697916,-73.9883248620825,40.0
12186,42.62502,-73.9737,Voorheesville,NY,New York,True,,6190.0,72.2,36001,Albany,"{""36001"": 100}",Albany,36001,False,False,America/New_York,"(42.62502, -73.9737)",1.4259608412787466,1210023.0,689_0_no,42.64263156697916,-73.9883248620825,40.0
12187,42.62632,-74.46537,Warnerville,NY,New York,True,,519.0,10.3,36095,Schoharie,"{""36095"": 100}",Schoharie,36095,False,False,America/New_York,"(42.62632, -74.46537)",24.27497537770806,1210023.0,689_0_no,42.64263156697916,-73.9883248620825,40.0
12188,42.8199,-73.69589,Waterford,NY,New York,True,,11774.0,349.8,36091,Saratoga,"{""36091"": 100}",Saratoga,36091,False,False,America/New_York,"(42.8199, -73.69589)",19.242946137732403,1210023.0,689_0_no,42.64263156697916,-73.9883248620825,40.0
12189,42.73618,-73.71688,Watervliet,NY,New York,True,,17945.0,1114.0,36001,Albany,"{""36001"": 100}",Albany,36001,False,False,America/New_York,"(42.73618, -73.71688)",15.225750614729003,1210023.0,689_0_no,42.64263156697916,-73.9883248620825,40.0
12192,42.40428,-73.82136,West Coxsackie,NY,New York,True,,1778.0,42.5,36039,Greene,"{""36039"": 100}",Greene,36039,False,False,America/New_York,"(42.40428, -73.82136)",18.533719824355327,1210023.0,689_0_no,42.64263156697916,-73.9883248620825,40.0
12193,42.51713,-74.04327,Westerlo,NY,New York,True,,1888.0,19.2,36001,Albany,"{""36001"": 100}",Albany,36001,False,False,America/New_York,"(42.51713, -74.04327)",9.110771450464398,1210023.0,689_0_no,42.64263156697916,-73.9883248620825,40.0
12194,42.53839,-74.45431,West Fulton,NY,New York,True,,122.0,2.9,36095,Schoharie,"{""36095"": 100}",Schoharie,36095,False,False,America/New_York,"(42.53839, -74.45431)",24.773415862958956,1210023.0,689_0_no,42.64263156697916,-73.9883248620825,40.0
12195,42.47876,-73.46505,West Lebanon,NY,New York,True,,245.0,120.7,36021,Columbia,"{""36021"": 100}",Columbia,36021,False,False,America/New_York,"(42.47876, -73.46505)",28.93725327476637,1210023.0,689_0_no,42.64263156697916,-73.9883248620825,40.0
12196,42.63149,-73.61708,West Sand Lake,NY,New York,True,,4072.0,175.6,36083,Rensselaer,"{""36083"": 100}",Rensselaer,36083,False,False,America/New_York,"(42.63149, -73.61708)",18.88576093596496,1210023.0,689_0_no,42.64263156697916,-73.9883248620825,40.0
12197,42.6094,-74.72587,Worcester,NY,New York,True,,2139.0,12.7,36077,Otsego,"{""36077"": 100}",Otsego,36077,False,False,America/New_York,"(42.6094, -74.72587)",37.56560039604723,1210023.0,689_0_no,42.64263156697916,-73.9883248620825,40.0
12198,42.67819,-73.63285,Wynantskill,NY,New York,True,,7119.0,207.5,36083,Rensselaer,"{""36083"": 100}",Rensselaer,36083,False,False,America/New_York,"(42.67819, -73.63285)",18.22803971873651,1210023.0,689_0_no,42.64263156697916,-73.9883248620825,40.0
12202,42.63355,-73.763,Albany,NY,New York,True,,7753.0,1491.8,36001,Albany,"{""36001"": 100}",Albany,36001,False,False,America/New_York,"(42.63355, -73.763)",11.470066233382548,1210023.0,689_0_no,42.64263156697916,-73.9883248620825,40.0
12203,42.68138,-73.85099,Albany,NY,New York,True,,30837.0,1141.2,36001,Albany,"{""36001"": 100}",Albany,36001,False,False,America/New_York,"(42.68138, -73.85099)",7.473802353279384,1210023.0,689_0_no,42.64263156697916,-73.9883248620825,40.0
12204,42.68723,-73.72869,Albany,NY,New York,True,,7497.0,699.5,36001,Albany,"{""36001"": 100}",Albany,36001,False,False,America/New_York,"(42.68723, -73.72869)",13.546250018315567,1210023.0,689_0_no,42.64263156697916,-73.9883248620825,40.0
12205,42.71719,-73.83006,Albany,NY,New York,True,,26039.0,654.2,36001,Albany,"{""36001"": 100}",Albany,36001,False,False,America/New_York,"(42.71719, -73.83006)",9.547897605241177,1210023.0,689_0_no,42.64263156697916,-73.9883248620825,40.0
12206,42.67415,-73.78196,Albany,NY,New York,True,,15537.0,2894.2,36001,Albany,"{""36001"": 100}",Albany,36001,False,False,America/New_York,"(42.67415, -73.78196)",10.709512457496754,1210023.0,689_0_no,42.64263156697916,-73.9883248620825,40.0
12207,42.65657,-73.74749,Albany,NY,New York,True,,2264.0,886.7,36001,Albany,"{""36001"": 100}",Albany,36001,False,False,America/New_York,"(42.65657, -73.74749)",12.276804361262597,1210023.0,689_0_no,42.64263156697916,-73.9883248620825,40.0
12208,42.65293,-73.80835,Albany,NY,New York,True,,20517.0,1799.0,36001,Albany,"{""36001"": 100}",Albany,36001,False,False,America/New_York,"(42.65293, -73.80835)",9.17403723297639,1210023.0,689_0_no,42.64263156697916,-73.9883248620825,40.0
12209,42.6382,-73.78976,Albany,NY,New York,True,,10237.0,1785.2,36001,Albany,"{""36001"": 100}",Albany,36001,False,False,America/New_York,"(42.6382, -73.78976)",10.096990893871164,1210023.0,689_0_no,42.64263156697916,-73.9883248620825,40.0
12210,42.66399,-73.75985,Albany,NY,New York,True,,11057.0,3772.6,36001,Albany,"{""36001"": 100}",Albany,36001,False,False,America/New_York,"(42.66399, -73.75985)",11.70356977749837,1210023.0,689_0_no,42.64263156697916,-73.9883248620825,40.0
12211,42.7083,-73.76393,Albany,NY,New York,True,,11227.0,534.1,36001,Albany,"{""36001"": 100}",Albany,36001,False,False,America/New_York,"(42.7083, -73.76393)",12.268599380408848,1210023.0,689_0_no,42.64263156697916,-73.9883248620825,40.0
12222,42.68637,-73.82656,Albany,NY,New York,True,,6151.0,3543.2,36001,Albany,"{""36001"": 100}",Albany,36001,False,False,America/New_York,"(42.68637, -73.82656)",8.756744282458492,1210023.0,689_0_no,42.64263156697916,-73.9883248620825,40.0
12302,42.88188,-73.98323,Schenectady,NY,New York,True,,27665.0,246.5,36093,Schenectady,"{""36093"": 91.26, ""36091"": 8.74}",Schenectady|Saratoga,36093|36091,False,False,America/New_York,"(42.88188, -73.98323)",16.532512429898574,1210023.0,689_0_no,42.64263156697916,-73.9883248620825,40.0
12303,42.74938,-73.92562,Schenectady,NY,New York,True,,29416.0,729.5,36001,Albany,"{""36001"": 71.05, ""36093"": 28.95}",Albany|Schenectady,36001|36093,False,False,America/New_York,"(42.74938, -73.92562)",8.033611541345568,1210023.0,689_0_no,42.64263156697916,-73.9883248620825,40.0
12304,42.77375,-73.89742,Schenectady,NY,New York,True,,20929.0,1212.5,36093,Schenectady,"{""36093"": 66.25, ""36001"": 33.75}",Schenectady|Albany,36093|36001,False,False,America/New_York,"(42.77375, -73.89742)",10.167320274844522,1210023.0,689_0_no,42.64263156697916,-73.9883248620825,40.0
12305,42.81219,-73.95036,Schenectady,NY,New York,True,,6246.0,1609.2,36093,Schenectady,"{""36093"": 100}",Schenectady,36093,False,False,America/New_York,"(42.81219, -73.95036)",11.87278175728005,1210023.0,689_0_no,42.64263156697916,-73.9883248620825,40.0
12306,42.80686,-74.03344,Schenectady,NY,New York,True,,26934.0,236.9,36093,Schenectady,"{""36093"": 95.72, ""36001"": 4.28}",Schenectady|Albany,36093|36001,False,False,America/New_York,"(42.80686, -74.03344)",11.57586047425142,1210023.0,689_0_no,42.64263156697916,-73.9883248620825,40.0
12307,42.80507,-73.93341,Schenectady,NY,New York,True,,7219.0,3908.9,36093,Schenectady,"{""36093"": 100}",Schenectady,36093,False,False,America/New_York,"(42.80507, -73.93341)",11.564375867962584,1210023.0,689_0_no,42.64263156697916,-73.9883248620825,40.0
12308,42.82152,-73.92006,Schenectady,NY,New York,True,,14038.0,2372.8,36093,Schenectady,"{""36093"": 100}",Schenectady,36093,False,False,America/New_York,"(42.82152, -73.92006)",12.836392563947296,1210023.0,689_0_no,42.64263156697916,-73.9883248620825,40.0
12309,42.79693,-73.86785,Schenectady,NY,New York,True,,30992.0,681.2,36093,Schenectady,"{""36093"": 82.34, ""36001"": 17.66}",Schenectady|Albany,36093|36001,False,False,America/New_York,"(42.79693, -73.86785)",12.290493999275078,1210023.0,689_0_no,42.64263156697916,-73.9883248620825,40.0
12405,42.31585,-74.0989,Acra,NY,New York,True,,579.0,20.6,36039,Greene,"{""36039"": 100}",Greene,36039,False,False,America/New_York,"(42.31585, -74.0989)",23.27092531524147,1210023.0,689_0_no,42.64263156697916,-73.9883248620825,40.0
12406,42.09647,-74.56502,Arkville,NY,New York,True,,695.0,5.5,36111,Ulster,"{""36111"": 69.16, ""36025"": 30.84}",Ulster|Delaware,36111|36025,False,False,America/New_York,"(42.09647, -74.56502)",47.86048685524684,1210023.0,689_0_no,42.64263156697916,-73.9883248620825,40.0
12407,42.30075,-74.35343,Ashland,NY,New York,True,,129.0,57.0,36039,Greene,"{""36039"": 100}",Greene,36039,False,False,America/New_York,"(42.30075, -74.35343)",30.07013822739308,1210023.0,689_0_no,42.64263156697916,-73.9883248620825,40.0
12410,42.0706,-74.45212,Big Indian,NY,New York,True,,366.0,2.8,36111,Ulster,"{""36111"": 100}",Ulster,36111,False,False,America/New_York,"(42.0706, -74.45212)",46.07445195322087,1210023.0,689_0_no,42.64263156697916,-73.9883248620825,40.0
12413,42.31338,-74.02628,Cairo,NY,New York,True,,3290.0,76.3,36039,Greene,"{""36039"": 100}",Greene,36039,False,False,America/New_York,"(42.31338, -74.02628)",22.831189458090655,1210023.0,689_0_no,42.64263156697916,-73.9883248620825,40.0
12414,42.2211,-73.92356,Catskill,NY,New York,True,,9726.0,60.4,36039,Greene,"{""36039"": 100}",Greene,36039,False,False,America/New_York,"(42.2211, -73.92356)",29.31172359294829,1210023.0,689_0_no,42.64263156697916,-73.9883248620825,40.0
12416,42.09554,-74.28592,Chichester,NY,New York,True,,439.0,31.8,36111,Ulster,"{""36111"": 100}",Ulster,36111,False,False,America/New_York,"(42.09554, -74.28592)",40.73877170133956,1210023.0,689_0_no,42.64263156697916,-73.9883248620825,40.0
12418,42.35863,-74.1609,Cornwallville,NY,New York,True,,313.0,8.7,36039,Greene,"{""36039"": 100}",Greene,36039,False,False,America/New_York,"(42.35863, -74.1609)",21.50186468725676,1210023.0,689_0_no,42.64263156697916,-73.9883248620825,40.0
12421,42.2512,-74.5336,Denver,NY,New York,True,,207.0,4.6,36025,Delaware,"{""36025"": 100}",Delaware,36025,False,False,America/New_York,"(42.2512, -74.5336)",38.78532977498803,1210023.0,689_0_no,42.64263156697916,-73.9883248620825,40.0
12422,42.39205,-74.20232,Durham,NY,New York,True,,272.0,10.5,36039,Greene,"{""36039"": 100}",Greene,36039,False,False,America/New_York,"(42.39205, -74.20232)",20.457921117052532,1210023.0,689_0_no,42.64263156697916,-73.9883248620825,40.0
12423,42.37968,-74.11136,East Durham,NY,New York,True,,1320.0,47.6,36039,Greene,"{""36039"": 100}",Greene,36039,False,False,America/New_York,"(42.37968, -74.11136)",19.218533774318185,1210023.0,689_0_no,42.64263156697916,-73.9883248620825,40.0
12424,42.24689,-74.14358,East Jewett,NY,New York,True,,185.0,3.5,36039,Greene,"{""36039"": 100}",Greene,36039,False,False,America/New_York,"(42.24689, -74.14358)",28.465887942605033,1210023.0,689_0_no,42.64263156697916,-73.9883248620825,40.0
12427,42.14771,-74.11921,Elka Park,NY,New York,True,,962.0,9.6,36039,Greene,"{""36039"": 100}",Greene,36039,False,False,America/New_York,"(42.14771, -74.11921)",34.84188408547114,1210023.0,689_0_no,42.64263156697916,-73.9883248620825,40.0
12430,42.20306,-74.49933,Fleischmanns,NY,New York,True,,1570.0,15.1,36039,Greene,"{""36039"": 58.57, ""36025"": 41.43}",Greene|Delaware,36039|36025,False,False,America/New_York,"(42.20306, -74.49933)",40.02131489946244,1210023.0,689_0_no,42.64263156697916,-73.9883248620825,40.0
12431,42.35877,-74.01843,Freehold,NY,New York,True,,1125.0,24.8,36039,Greene,"{""36039"": 100}",Greene,36039,False,False,America/New_York,"(42.35877, -74.01843)",19.6728304866123,1210023.0,689_0_no,42.64263156697916,-73.9883248620825,40.0
12434,42.36491,-74.50793,Grand Gorge,NY,New York,True,,813.0,28.9,36025,Delaware,"{""36025"": 100}",Delaware,36025,False,False,America/New_York,"(42.36491, -74.50793)",32.69151410848998,1210023.0,689_0_no,42.64263156697916,-73.9883248620825,40.0
12436,42.20447,-74.0746,Haines Falls,NY,New York,True,,182.0,6.3,36039,Greene,"{""36039"": 100}",Greene,36039,False,False,America/New_York,"(42.20447, -74.0746)",30.592194770293943,1210023.0,689_0_no,42.64263156697916,-73.9883248620825,40.0
12439,42.29674,-74.18789,Hensonville,NY,New York,True,,380.0,14.5,36039,Greene,"{""36039"": 100}",Greene,36039,False,False,America/New_York,"(42.29674, -74.18789)",25.973096639522275,1210023.0,689_0_no,42.64263156697916,-73.9883248620825,40.0
12441,42.1502,-74.50625,Highmount,NY,New York,True,,125.0,16.1,36025,Delaware,"{""36025"": 70.95, ""36111"": 29.05}",Delaware|Ulster,36025|36111,False,False,America/New_York,"(42.1502, -74.50625)",43.081345896711746,1210023.0,689_0_no,42.64263156697916,-73.9883248620825,40.0
12442,42.22275,-74.23545,Hunter,NY,New York,True,,901.0,18.5,36039,Greene,"{""36039"": 100}",Greene,36039,False,False,America/New_York,"(42.22275, -74.23545)",31.630013509133235,1210023.0,689_0_no,42.64263156697916,-73.9883248620825,40.0
12444,42.24942,-74.28993,Jewett,NY,New York,True,,555.0,10.9,36039,Greene,"{""36039"": 100}",Greene,36039,False,False,America/New_York,"(42.24942, -74.28993)",31.218214303082195,1210023.0,689_0_no,42.64263156697916,-73.9883248620825,40.0
12448,42.07955,-74.20067,Lake Hill,NY,New York,True,,387.0,17.4,36111,Ulster,"{""36111"": 100}",Ulster,36111,False,False,America/New_York,"(42.07955, -74.20067)",40.38740543839106,1210023.0,689_0_no,42.64263156697916,-73.9883248620825,40.0
12450,42.13804,-74.22176,Lanesville,NY,New York,True,,139.0,2.5,36039,Greene,"{""36039"": 100}",Greene,36039,False,False,America/New_York,"(42.13804, -74.22176)",36.8428285590558,1210023.0,689_0_no,42.64263156697916,-73.9883248620825,40.0
12451,42.30337,-73.94802,Leeds,NY,New York,True,,1425.0,49.4,36039,Greene,"{""36039"": 100}",Greene,36039,False,False,America/New_York,"(42.30337, -73.94802)",23.530564640865087,1210023.0,689_0_no,42.64263156697916,-73.9883248620825,40.0
12452,42.23891,-74.34986,Lexington,NY,New York,True,,253.0,296.4,36039,Greene,"{""36039"": 100}",Greene,36039,False,False,America/New_York,"(42.23891, -74.34986)",33.43538588336841,1210023.0,689_0_no,42.64263156697916,-73.9883248620825,40.0
12453,42.0929,-73.93629,Malden On Hudson,NY,New York,True,,345.0,312.4,36111,Ulster,"{""36111"": 100}",Ulster,36111,False,False,America/New_York,"(42.0929, -73.93629)",38.07560135318136,1210023.0,689_0_no,42.64263156697916,-73.9883248620825,40.0
12454,42.2869,-74.15038,Maplecrest,NY,New York,True,,380.0,13.4,36039,Greene,"{""36039"": 100}",Greene,36039,False,False,America/New_York,"(42.2869, -74.15038)",25.929485188833553,1210023.0,689_0_no,42.64263156697916,-73.9883248620825,40.0
12455,42.14871,-74.66334,Margaretville,NY,New York,True,,1553.0,8.4,36025,Delaware,"{""36025"": 94.64, ""36111"": 5.36}",Delaware|Ulster,36025|36111,False,False,America/New_York,"(42.14871, -74.66334)",48.48649989984649,1210023.0,689_0_no,42.64263156697916,-73.9883248620825,40.0
12459,42.23976,-74.6805,New Kingston,NY,New York,True,,174.0,10.7,36025,Delaware,"{""36025"": 100}",Delaware,36025,False,False,America/New_York,"(42.23976, -74.6805)",44.949065349962424,1210023.0,689_0_no,42.64263156697916,-73.9883248620825,40.0
12460,42.42357,-74.16676,Oak Hill,NY,New York,True,,340.0,21.9,36001,Albany,"{""36001"": 64.56, ""36039"": 35.44}",Albany|Greene,36001|36039,False,False,America/New_York,"(42.42357, -74.16676)",17.652874198525613,1210023.0,689_0_no,42.64263156697916,-73.9883248620825,40.0
12463,42.1895,-74.01573,Palenville,NY,New York,True,,1700.0,88.1,36039,Greene,"{""36039"": 99.89, ""36111"": 0.11}",Greene|Ulster,36039|36111,False,False,America/New_York,"(42.1895, -74.01573)",31.339601566346243,1210023.0,689_0_no,42.64263156697916,-73.9883248620825,40.0
12465,42.15278,-74.46725,Pine Hill,NY,New York,True,,301.0,40.0,36111,Ulster,"{""36111"": 77.74, ""36025"": 22.26}",Ulster|Delaware,36111|36025,False,False,America/New_York,"(42.15278, -74.46725)",41.74520736766134,1210023.0,689_0_no,42.64263156697916,-73.9883248620825,40.0
12468,42.29998,-74.41375,Prattsville,NY,New York,True,,955.0,6.3,36039,Greene,"{""36039"": 83.75, ""36025"": 16.25}",Greene|Delaware,36039|36025,False,False,America/New_York,"(42.29998, -74.41375)",32.10275593573853,1210023.0,689_0_no,42.64263156697916,-73.9883248620825,40.0
12469,42.44521,-74.2421,Preston Hollow,NY,New York,True,,642.0,7.5,36001,Albany,"{""36001"": 59.7, ""36095"": 35.38, ""36039"": 4.92}",Albany|Schoharie|Greene,36001|36095|36039,False,False,America/New_York,"(42.44521, -74.2421)",18.78697557216508,1210023.0,689_0_no,42.64263156697916,-73.9883248620825,40.0
12470,42.26932,-74.05515,Purling,NY,New York,True,,564.0,18.2,36039,Greene,"{""36039"": 100}",Greene,36039,False,False,America/New_York,"(42.26932, -74.05515)",26.017348206348167,1210023.0,689_0_no,42.64263156697916,-73.9883248620825,40.0
12473,42.26157,-74.02827,Round Top,NY,New York,True,,573.0,25.2,36039,Greene,"{""36039"": 100}",Greene,36039,False,False,America/New_York,"(42.26157, -74.02827)",26.407480856818786,1210023.0,689_0_no,42.64263156697916,-73.9883248620825,40.0
12474,42.29378,-74.58117,Roxbury,NY,New York,True,,934.0,7.6,36025,Delaware,"{""36025"": 100}",Delaware,36025,False,False,America/New_York,"(42.29378, -74.58117)",38.65143133873793,1210023.0,689_0_no,42.64263156697916,-73.9883248620825,40.0
12477,42.08528,-74.00028,Saugerties,NY,New York,True,,17870.0,103.4,36111,Ulster,"{""36111"": 100}",Ulster,36111,False,False,America/New_York,"(42.08528, -74.00028)",38.514161431048485,1210023.0,689_0_no,42.64263156697916,-73.9883248620825,40.0
12480,42.13803,-74.37683,Shandaken,NY,New York,True,,407.0,5.0,36039,Greene,"{""36039"": 52.6, ""36111"": 47.4}",Greene|Ulster,36039|36111,False,False,America/New_York,"(42.13803, -74.37683)",40.10717309220506,1210023.0,689_0_no,42.64263156697916,-73.9883248620825,40.0
12482,42.26841,-73.95587,South Cairo,NY,New York,True,,612.0,101.8,36039,Greene,"{""36039"": 100}",Greene,36039,False,False,America/New_York,"(42.26841, -73.95587)",25.909124580713556,1210023.0,689_0_no,42.64263156697916,-73.9883248620825,40.0
12485,42.20507,-74.15288,Tannersville,NY,New York,True,,650.0,27.0,36039,Greene,"{""36039"": 100}",Greene,36039,False,False,America/New_York,"(42.20507, -74.15288)",31.375939443335707,1210023.0,689_0_no,42.64263156697916,-73.9883248620825,40.0
12490,42.12355,-73.9251,West Camp,NY,New York,True,,39.0,29.3,36111,Ulster,"{""36111"": 100}",Ulster,36111,False,False,America/New_York,"(42.12355, -73.9251)",36.009978285286536,1210023.0,689_0_no,42.64263156697916,-73.9883248620825,40.0
12492,42.18758,-74.33453,West Kill,NY,New York,True,,90.0,0.8,36039,Greene,"{""36039"": 100}",Greene,36039,False,False,America/New_York,"(42.18758, -74.33453)",36.061184038117155,1210023.0,689_0_no,42.64263156697916,-73.9883248620825,40.0
12495,42.08264,-74.24563,Willow,NY,New York,True,,85.0,4.3,36111,Ulster,"{""36111"": 100}",Ulster,36111,False,False,America/New_York,"(42.08264, -74.24563)",40.86078077254825,1210023.0,689_0_no,42.64263156697916,-73.9883248620825,40.0
12496,42.32669,-74.27256,Windham,NY,New York,True,,1516.0,13.5,36039,Greene,"{""36039"": 100}",Greene,36039,False,False,America/New_York,"(42.32669, -74.27256)",26.196852819205326,1210023.0,689_0_no,42.64263156697916,-73.9883248620825,40.0
12502,42.08324,-73.65409,Ancram,NY,New York,True,,1224.0,14.8,36021,Columbia,"{""36021"": 100}",Columbia,36021,False,False,America/New_York,"(42.08324, -73.65409)",42.249256006766664,1210023.0,689_0_no,42.64263156697916,-73.9883248620825,40.0
12513,42.21661,-73.71639,Claverack,NY,New York,True,,431.0,57.2,36021,Columbia,"{""36021"": 100}",Columbia,36021,False,False,America/New_York,"(42.21661, -73.71639)",32.53859737588275,1210023.0,689_0_no,42.64263156697916,-73.9883248620825,40.0
12516,42.10722,-73.55343,Copake,NY,New York,True,,1882.0,35.5,36021,Columbia,"{""36021"": 100}",Columbia,36021,False,False,America/New_York,"(42.10722, -73.55343)",43.14233809799148,1210023.0,689_0_no,42.64263156697916,-73.9883248620825,40.0
12517,42.13392,-73.51103,Copake Falls,NY,New York,True,,391.0,31.6,36021,Columbia,"{""36021"": 100}",Columbia,36021,False,False,America/New_York,"(42.13392, -73.51103)",42.76315631648018,1210023.0,689_0_no,42.64263156697916,-73.9883248620825,40.0
12521,42.17071,-73.65164,Craryville,NY,New York,True,,1522.0,18.3,36021,Columbia,"{""36021"": 100}",Columbia,36021,False,False,America/New_York,"(42.17071, -73.65164)",36.85411946552336,1210023.0,689_0_no,42.64263156697916,-73.9883248620825,40.0
12523,42.08627,-73.75311,Elizaville,NY,New York,True,,1810.0,31.3,36021,Columbia,"{""36021"": 100}",Columbia,36021,False,False,America/New_York,"(42.08627, -73.75311)",40.272734654009795,1210023.0,689_0_no,42.64263156697916,-73.9883248620825,40.0
12526,42.12236,-73.85938,Germantown,NY,New York,True,,3530.0,42.1,36021,Columbia,"{""36021"": 100}",Columbia,36021,False,False,America/New_York,"(42.12236, -73.85938)",36.54474932597217,1210023.0,689_0_no,42.64263156697916,-73.9883248620825,40.0
12529,42.21335,-73.53802,Hillsdale,NY,New York,True,,1919.0,10.9,36021,Columbia,"{""36021"": 100}",Columbia,36021,False,False,America/New_York,"(42.21335, -73.53802)",37.51194636168791,1210023.0,689_0_no,42.64263156697916,-73.9883248620825,40.0
12530,42.20692,-73.68413,Hollowville,NY,New York,True,,47.0,102.0,36021,Columbia,"{""36021"": 100}",Columbia,36021,False,False,America/New_York,"(42.20692, -73.68413)",33.86736347484639,1210023.0,689_0_no,42.64263156697916,-73.9883248620825,40.0
12534,42.22434,-73.75427,Hudson,NY,New York,True,,17814.0,77.6,36021,Columbia,"{""36021"": 100}",Columbia,36021,False,False,America/New_York,"(42.22434, -73.75427)",31.268784332438013,1210023.0,689_0_no,42.64263156697916,-73.9883248620825,40.0
12565,42.24849,-73.64584,Philmont,NY,New York,True,,997.0,271.9,36021,Columbia,"{""36021"": 100}",Columbia,36021,False,False,America/New_York,"(42.24849, -73.64584)",32.3499684973415,1210023.0,689_0_no,42.64263156697916,-73.9883248620825,40.0
12816,43.05085,-73.37829,Cambridge,NY,New York,True,,4642.0,29.9,36115,Washington,"{""36115"": 100}",Washington,36115,False,False,America/New_York,"(43.05085, -73.37829)",41.839026083837624,1210023.0,689_0_no,42.64263156697916,-73.9883248620825,40.0
12823,43.17945,-73.40628,Cossayuna,NY,New York,True,,527.0,52.6,36115,Washington,"{""36115"": 100}",Washington,36115,False,False,America/New_York,"(43.17945, -73.40628)",47.36288169677433,1210023.0,689_0_no,42.64263156697916,-73.9883248620825,40.0
12831,43.19533,-73.68791,Gansevoort,NY,New York,True,,17389.0,103.0,36091,Saratoga,"{""36091"": 100}",Saratoga,36091,False,False,America/New_York,"(43.19533, -73.68791)",41.10180005460886,1210023.0,689_0_no,42.64263156697916,-73.9883248620825,40.0
12833,43.13866,-73.84355,Greenfield Center,NY,New York,True,,4544.0,47.0,36091,Saratoga,"{""36091"": 100}",Saratoga,36091,False,False,America/New_York,"(43.13866, -73.84355)",35.04710619672656,1210023.0,689_0_no,42.64263156697916,-73.9883248620825,40.0
12834,43.09706,-73.50423,Greenwich,NY,New York,True,,6101.0,27.9,36115,Washington,"{""36115"": 100}",Washington,36115,False,False,America/New_York,"(43.09706, -73.50423)",39.83407954924755,1210023.0,689_0_no,42.64263156697916,-73.9883248620825,40.0
12850,43.09886,-73.97941,Middle Grove,NY,New York,True,,2866.0,27.2,36091,Saratoga,"{""36091"": 100}",Saratoga,36091,False,False,America/New_York,"(43.09886, -73.97941)",31.525614497451773,1210023.0,689_0_no,42.64263156697916,-73.9883248620825,40.0
12859,43.16587,-73.90569,Porter Corners,NY,New York,True,,2425.0,47.0,36091,Saratoga,"{""36091"": 100}",Saratoga,36091,False,False,America/New_York,"(43.16587, -73.90569)",36.39342457570135,1210023.0,689_0_no,42.64263156697916,-73.9883248620825,40.0
12863,43.06031,-73.93162,Rock City Falls,NY,New York,True,,880.0,89.3,36091,Saratoga,"{""36091"": 100}",Saratoga,36091,False,False,America/New_York,"(43.06031, -73.93162)",29.00141667046109,1210023.0,689_0_no,42.64263156697916,-73.9883248620825,40.0
12865,43.21225,-73.34191,Salem,NY,New York,True,,3470.0,18.5,36115,Washington,"{""36115"": 100}",Washington,36115,False,False,America/New_York,"(43.21225, -73.34191)",51.170442754730495,1210023.0,689_0_no,42.64263156697916,-73.9883248620825,40.0
12866,43.07537,-73.7401,Saratoga Springs,NY,New York,True,,38732.0,232.5,36091,Saratoga,"{""36091"": 100}",Saratoga,36091,False,False,America/New_York,"(43.07537, -73.7401)",32.434928903258815,1210023.0,689_0_no,42.64263156697916,-73.9883248620825,40.0
12871,43.09249,-73.61196,Schuylerville,NY,New York,True,,4361.0,60.3,36091,Saratoga,"{""36091"": 100}",Saratoga,36091,False,False,America/New_York,"(43.09249, -73.61196)",36.46034451336329,1210023.0,689_0_no,42.64263156697916,-73.9883248620825,40.0
12873,43.1185,-73.30682,Shushan,NY,New York,True,,875.0,16.0,36115,Washington,"{""36115"": 100}",Washington,36115,False,False,America/New_York,"(43.1185, -73.30682)",47.661114659602596,1210023.0,689_0_no,42.64263156697916,-73.9883248620825,40.0
12884,43.08855,-73.5921,Victory Mills,NY,New York,True,,593.0,516.5,36091,Saratoga,"{""36091"": 100}",Saratoga,36091,False,False,America/New_York,"(43.08855, -73.5921)",36.76793474077405,1210023.0,689_0_no,42.64263156697916,-73.9883248620825,40.0
13317,42.85638,-74.58844,Canajoharie,NY,New York,True,,3847.0,31.9,36057,Montgomery,"{""36057"": 94.3, ""36077"": 5.7}",Montgomery|Otsego,36057|36077,False,False,America/New_York,"(42.85638, -74.58844)",33.840755867760194,1210023.0,689_0_no,42.64263156697916,-73.9883248620825,40.0
13320,42.77353,-74.74325,Cherry Valley,NY,New York,True,,2119.0,10.4,36077,Otsego,"{""36077"": 100}",Otsego,36077,False,False,America/New_York,"(42.77353, -74.74325)",39.380879004754334,1210023.0,689_0_no,42.64263156697916,-73.9883248620825,40.0
13329,43.11094,-74.70017,Dolgeville,NY,New York,True,,4211.0,29.4,36035,Fulton,"{""36035"": 71.23, ""36043"": 28.77}",Fulton|Herkimer,36035|36043,False,False,America/New_York,"(43.11094, -74.70017)",48.4358168896387,1210023.0,689_0_no,42.64263156697916,-73.9883248620825,40.0
13339,42.93995,-74.66631,Fort Plain,NY,New York,True,,6382.0,23.4,36057,Montgomery,"{""36057"": 75.34, ""36043"": 18.38, ""36035"": 6.28}",Montgomery|Herkimer|Fulton,36057|36043|36035,False,False,America/New_York,"(42.93995, -74.66631)",40.0461191025707,1210023.0,689_0_no,42.64263156697916,-73.9883248620825,40.0
13410,42.92908,-74.60922,Nelliston,NY,New York,True,,350.0,273.8,36057,Montgomery,"{""36057"": 100}",Montgomery,36057,False,False,America/New_York,"(42.92908, -74.60922)",37.187956322673166,1210023.0,689_0_no,42.64263156697916,-73.9883248620825,40.0
13428,42.92096,-74.53311,Palatine Bridge,NY,New York,True,,1668.0,38.7,36057,Montgomery,"{""36057"": 100}",Montgomery,36057,False,False,America/New_York,"(42.92096, -74.53311)",33.660568760403144,1210023.0,689_0_no,42.64263156697916,-73.9883248620825,40.0
13452,43.03718,-74.63001,Saint Johnsville,NY,New York,True,,4671.0,23.8,36035,Fulton,"{""36035"": 75.51, ""36057"": 24.49}",Fulton|Montgomery,36035|36057,False,False,America/New_York,"(43.03718, -74.63001)",42.42657319142779,1210023.0,689_0_no,42.64263156697916,-73.9883248620825,40.0
13454,43.16885,-74.75719,Salisbury Center,NY,New York,True,,800.0,24.1,36043,Herkimer,"{""36043"": 100}",Herkimer,36043,False,False,America/New_York,"(43.16885, -74.75719)",53.25399039114285,1210023.0,689_0_no,42.64263156697916,-73.9883248620825,40.0
13459,42.77721,-74.59315,Sharon Springs,NY,New York,True,,2343.0,17.9,36095,Schoharie,"{""36095"": 89.59, ""36057"": 7.52, ""36077"": 2.89}",Schoharie|Montgomery|Otsego,36095|36057|36077,False,False,America/New_York,"(42.77721, -74.59315)",32.08366108891888,1210023.0,689_0_no,42.64263156697916,-73.9883248620825,40.0
13470,43.21075,-74.66825,Stratford,NY,New York,True,,665.0,2.9,36035,Fulton,"{""36035"": 70.43, ""36043"": 29.57}",Fulton|Herkimer,36035|36043,False,False,America/New_York,"(43.21075, -74.66825)",52.192436784428956,1210023.0,689_0_no,42.64263156697916,-73.9883248620825,40.0
13488,42.67447,-74.76796,Westford,NY,New York,True,,103.0,8.2,36077,Otsego,"{""36077"": 100}",Otsego,36077,False,False,America/New_York,"(42.67447, -74.76796)",39.67543459131689,1210023.0,689_0_no,42.64263156697916,-73.9883248620825,40.0
13740,42.27535,-74.74498,Bovina Center,NY,New York,True,,483.0,5.2,36025,Delaware,"{""36025"": 100}",Delaware,36025,False,False,America/New_York,"(42.27535, -74.74498)",46.169251599009485,1210023.0,689_0_no,42.64263156697916,-73.9883248620825,40.0
13786,42.4485,-74.69563,Harpersfield,NY,New York,True,,464.0,23.1,36025,Delaware,"{""36025"": 100}",Delaware,36025,False,False,America/New_York,"(42.4485, -74.69563)",38.42175878870193,1210023.0,689_0_no,42.64263156697916,-73.9883248620825,40.0
13788,42.34914,-74.65658,Hobart,NY,New York,True,,899.0,10.0,36025,Delaware,"{""36025"": 100}",Delaware,36025,False,False,America/New_York,"(42.34914, -74.65658)",39.62547842759014,1210023.0,689_0_no,42.64263156697916,-73.9883248620825,40.0
13842,42.37922,-74.72302,South Kortright,NY,New York,True,,627.0,17.6,36025,Delaware,"{""36025"": 100}",Delaware,36025,False,False,America/New_York,"(42.37922, -74.72302)",41.61066258497299,1210023.0,689_0_no,42.64263156697916,-73.9883248620825,40.0
