zip,lat,lng,city,state_id,state_name,zcta,parent_zcta,population,density,county_fips,county_name,county_weights,county_names_all,county_fips_all,imprecise,military,timezone,Coord,distance_miles,market_total_population,market_id,market_center_lat,market_center_lng,radius_miles
48614,43.25084,-84.30147,Brant,MI,Michigan,True,,1274.0,13.9,26145,Saginaw,"{""26145"": 94.94, ""26057"": 5.06}",Saginaw|Gratiot,26145|26057,False,False,America/Detroit,"(43.25084, -84.30147)",50.44072362719062,1826946.0,696_0_no,42.71802731181808,-84.9836907117622,40.0
48649,43.15695,-84.21709,Oakley,MI,Michigan,True,,1184.0,16.6,26145,Saginaw,"{""26145"": 94.21, ""26155"": 5.79}",Saginaw|Shiawassee,26145|26155,False,False,America/Detroit,"(43.15695, -84.21709)",49.22732355334191,1826946.0,696_0_no,42.71802731181808,-84.9836907117622,40.0
48806,43.18568,-84.49675,Ashley,MI,Michigan,True,,1780.0,10.7,26057,Gratiot,"{""26057"": 100}",Gratiot,26057,False,False,America/Detroit,"(43.18568, -84.49675)",40.62555225694285,1826946.0,696_0_no,42.71802731181808,-84.9836907117622,40.0
48807,43.15277,-84.40671,Bannister,MI,Michigan,True,,889.0,13.4,26057,Gratiot,"{""26057"": 79.72, ""26145"": 20.28}",Gratiot|Saginaw,26057|26145,False,False,America/Detroit,"(43.15277, -84.40671)",41.88203510997443,1826946.0,696_0_no,42.71802731181808,-84.9836907117622,40.0
48808,42.82591,-84.45081,Bath,MI,Michigan,True,,6957.0,111.5,26037,Clinton,"{""26037"": 100}",Clinton,26037,False,False,America/Detroit,"(42.82591, -84.45081)",28.036103658094717,1826946.0,696_0_no,42.71802731181808,-84.9836907117622,40.0
48809,43.0646,-85.25712,Belding,MI,Michigan,True,,11090.0,53.5,26067,Ionia,"{""26067"": 77.37, ""26081"": 20.73, ""26117"": 1.9}",Ionia|Kent|Montcalm,26067|26081|26117,False,False,America/Detroit,"(43.0646, -85.25712)",27.658348512355143,1826946.0,696_0_no,42.71802731181808,-84.9836907117622,40.0
48811,43.18226,-84.85518,Carson City,MI,Michigan,True,,5230.0,32.7,26117,Montcalm,"{""26117"": 63.13, ""26057"": 36.87}",Montcalm|Gratiot,26117|26057,False,False,America/Detroit,"(43.18226, -84.85518)",32.72721679760039,1826946.0,696_0_no,42.71802731181808,-84.9836907117622,40.0
48813,42.57862,-84.84524,Charlotte,MI,Michigan,True,,20688.0,47.5,26045,Eaton,"{""26045"": 99.86, ""26025"": 0.14}",Eaton|Calhoun,26045|26025,False,False,America/Detroit,"(42.57862, -84.84524)",11.928285953011454,1826946.0,696_0_no,42.71802731181808,-84.9836907117622,40.0
48815,42.84155,-85.25387,Clarksville,MI,Michigan,True,,2362.0,34.0,26067,Ionia,"{""26067"": 98.06, ""26081"": 1.94}",Ionia|Kent,26067|26081,False,False,America/Detroit,"(42.84155, -85.25387)",16.14214916132034,1826946.0,696_0_no,42.71802731181808,-84.9836907117622,40.0
48818,43.2759,-84.89661,Crystal,MI,Michigan,True,,2451.0,38.3,26117,Montcalm,"{""26117"": 100}",Montcalm,26117,False,False,America/Detroit,"(43.2759, -84.89661)",38.79570740813393,1826946.0,696_0_no,42.71802731181808,-84.9836907117622,40.0
48819,42.54721,-84.28521,Dansville,MI,Michigan,True,,2620.0,23.2,26065,Ingham,"{""26065"": 100}",Ingham,26065,False,False,America/Detroit,"(42.54721, -84.28521)",37.4158185856844,1826946.0,696_0_no,42.71802731181808,-84.9836907117622,40.0
48820,42.86277,-84.59374,Dewitt,MI,Michigan,True,,17845.0,104.8,26037,Clinton,"{""26037"": 100}",Clinton,26037,False,False,America/Detroit,"(42.86277, -84.59374)",22.157273455355288,1826946.0,696_0_no,42.71802731181808,-84.9836907117622,40.0
48821,42.63873,-84.64958,Dimondale,MI,Michigan,True,,5945.0,115.2,26045,Eaton,"{""26045"": 95.33, ""26065"": 4.67}",Eaton|Ingham,26045|26065,False,False,America/Detroit,"(42.63873, -84.64958)",17.833762932363516,1826946.0,696_0_no,42.71802731181808,-84.9836907117622,40.0
48822,42.83407,-84.76065,Eagle,MI,Michigan,True,,2532.0,29.6,26037,Clinton,"{""26037"": 100}",Clinton,26037,False,False,America/Detroit,"(42.83407, -84.76065)",13.864976132197247,1826946.0,696_0_no,42.71802731181808,-84.9836907117622,40.0
48823,42.76225,-84.45407,East Lansing,MI,Michigan,True,,50788.0,829.2,26065,Ingham,"{""26065"": 57.39, ""26037"": 42.61}",Ingham|Clinton,26065|26037,False,False,America/Detroit,"(42.76225, -84.45407)",27.048649605518456,1826946.0,696_0_no,42.71802731181808,-84.9836907117622,40.0
48825,42.72844,-84.48067,East Lansing,MI,Michigan,True,,12233.0,6870.6,26065,Ingham,"{""26065"": 100}",Ingham,26065,False,False,America/Detroit,"(42.72844, -84.48067)",25.542802556838584,1826946.0,696_0_no,42.71802731181808,-84.9836907117622,40.0
48827,42.509,-84.65971,Eaton Rapids,MI,Michigan,True,,15873.0,53.8,26045,Eaton,"{""26045"": 82.25, ""26065"": 15.85, ""26075"": 1.9}",Eaton|Ingham|Jackson,26045|26065|26075,False,False,America/Detroit,"(42.509, -84.65971)",21.90825443884479,1826946.0,696_0_no,42.71802731181808,-84.9836907117622,40.0
48831,43.10253,-84.3744,Elsie,MI,Michigan,True,,3415.0,18.1,26037,Clinton,"{""26037"": 44.67, ""26155"": 33.0, ""26145"": 20.44, ""26057"": 1.89}",Clinton|Shiawassee|Saginaw|Gratiot,26037|26155|26145|26057,False,False,America/Detroit,"(43.10253, -84.3744)",40.69973196639506,1826946.0,696_0_no,42.71802731181808,-84.9836907117622,40.0
48834,43.12981,-85.03108,Fenwick,MI,Michigan,True,,1926.0,15.4,26117,Montcalm,"{""26117"": 66.94, ""26067"": 33.06}",Montcalm|Ionia,26117|26067,False,False,America/Detroit,"(43.12981, -85.03108)",28.552318323570734,1826946.0,696_0_no,42.71802731181808,-84.9836907117622,40.0
48835,43.03008,-84.74655,Fowler,MI,Michigan,True,,3161.0,22.8,26037,Clinton,"{""26037"": 100}",Clinton,26037,False,False,America/Detroit,"(43.03008, -84.74655)",24.67894186021149,1826946.0,696_0_no,42.71802731181808,-84.9836907117622,40.0
48837,42.7453,-84.76701,Grand Ledge,MI,Michigan,True,,20551.0,101.2,26045,Eaton,"{""26045"": 71.21, ""26037"": 24.26, ""26067"": 4.53}",Eaton|Clinton|Ionia,26045|26037|26067,False,False,America/Detroit,"(42.7453, -84.76701)",11.157223674963209,1826946.0,696_0_no,42.71802731181808,-84.9836907117622,40.0
48838,43.18268,-85.25943,Greenville,MI,Michigan,True,,17573.0,72.9,26117,Montcalm,"{""26117"": 77.28, ""26081"": 21.26, ""26067"": 1.46}",Montcalm|Kent|Ionia,26117|26081|26067,False,False,America/Detroit,"(43.18268, -85.25943)",35.00213838634106,1826946.0,696_0_no,42.71802731181808,-84.9836907117622,40.0
48840,42.76685,-84.37071,Haslett,MI,Michigan,True,,12389.0,254.5,26065,Ingham,"{""26065"": 61.85, ""26155"": 19.97, ""26037"": 18.18}",Ingham|Shiawassee|Clinton,26065|26155|26037,False,False,America/Detroit,"(42.76685, -84.37071)",31.286820877848317,1826946.0,696_0_no,42.71802731181808,-84.9836907117622,40.0
48841,43.11372,-84.2392,Henderson,MI,Michigan,True,,729.0,12.1,26155,Shiawassee,"{""26155"": 79.6, ""26145"": 20.4}",Shiawassee|Saginaw,26155|26145,False,False,America/Detroit,"(43.11372, -84.2392)",46.54678135812971,1826946.0,696_0_no,42.71802731181808,-84.9836907117622,40.0
48842,42.63469,-84.53931,Holt,MI,Michigan,True,,21950.0,492.5,26065,Ingham,"{""26065"": 98.29, ""26045"": 1.71}",Ingham|Eaton,26065|26045,False,False,America/Detroit,"(42.63469, -84.53931)",23.296035541316154,1826946.0,696_0_no,42.71802731181808,-84.9836907117622,40.0
48845,43.10746,-84.854,Hubbardston,MI,Michigan,True,,853.0,14.2,26067,Ionia,"{""26067"": 43.57, ""26037"": 29.59, ""26117"": 18.28, ""26057"": 8.55}",Ionia|Clinton|Montcalm|Gratiot,26067|26037|26117|26057,False,False,America/Detroit,"(43.10746, -84.854)",27.6960108532262,1826946.0,696_0_no,42.71802731181808,-84.9836907117622,40.0
48846,42.98611,-85.05754,Ionia,MI,Michigan,True,,20142.0,70.3,26067,Ionia,"{""26067"": 100}",Ionia,26067,False,False,America/Detroit,"(42.98611, -85.05754)",18.896693517687186,1826946.0,696_0_no,42.71802731181808,-84.9836907117622,40.0
48847,43.2714,-84.5776,Ithaca,MI,Michigan,True,,5526.0,17.7,26057,Gratiot,"{""26057"": 100}",Gratiot,26057,False,False,America/Detroit,"(43.2714, -84.5776)",43.39377267800431,1826946.0,696_0_no,42.71802731181808,-84.9836907117622,40.0
48848,42.88584,-84.35673,Laingsburg,MI,Michigan,True,,7730.0,43.8,26155,Shiawassee,"{""26155"": 58.99, ""26037"": 41.01}",Shiawassee|Clinton,26155|26037,False,False,America/Detroit,"(42.88584, -84.35673)",33.83211811119285,1826946.0,696_0_no,42.71802731181808,-84.9836907117622,40.0
48849,42.7984,-85.13298,Lake Odessa,MI,Michigan,True,,5990.0,27.6,26067,Ionia,"{""26067"": 77.17, ""26015"": 17.89, ""26045"": 4.94}",Ionia|Barry|Eaton,26067|26015|26045,False,False,America/Detroit,"(42.7984, -85.13298)",9.39125208739263,1826946.0,696_0_no,42.71802731181808,-84.9836907117622,40.0
48851,42.95469,-84.9364,Lyons,MI,Michigan,True,,2043.0,23.9,26067,Ionia,"{""26067"": 100}",Ionia,26067,False,False,America/Detroit,"(42.95469, -84.9364)",16.52644680286856,1826946.0,696_0_no,42.71802731181808,-84.9836907117622,40.0
48853,43.10371,-84.68999,Maple Rapids,MI,Michigan,True,,640.0,390.4,26037,Clinton,"{""26037"": 100}",Clinton,26037,False,False,America/Detroit,"(43.10371, -84.68999)",30.512624138902257,1826946.0,696_0_no,42.71802731181808,-84.9836907117622,40.0
48854,42.58199,-84.45182,Mason,MI,Michigan,True,,19739.0,67.2,26065,Ingham,"{""26065"": 100}",Ingham,26065,False,False,America/Detroit,"(42.58199, -84.45182)",28.616540909010293,1826946.0,696_0_no,42.71802731181808,-84.9836907117622,40.0
48856,43.19994,-84.7372,Middleton,MI,Michigan,True,,876.0,12.1,26057,Gratiot,"{""26057"": 100}",Gratiot,26057,False,False,America/Detroit,"(43.19994, -84.7372)",35.55327857519061,1826946.0,696_0_no,42.71802731181808,-84.9836907117622,40.0
48860,43.05089,-84.90939,Muir,MI,Michigan,True,,1793.0,24.6,26067,Ionia,"{""26067"": 100}",Ionia,26067,False,False,America/Detroit,"(43.05089, -84.90939)",23.304206432828167,1826946.0,696_0_no,42.71802731181808,-84.9836907117622,40.0
48861,42.73002,-84.91741,Mulliken,MI,Michigan,True,,1738.0,25.6,26045,Eaton,"{""26045"": 91.49, ""26067"": 8.51}",Eaton|Ionia,26045|26067,False,False,America/Detroit,"(42.73002, -84.91741)",3.4648244518280236,1826946.0,696_0_no,42.71802731181808,-84.9836907117622,40.0
48864,42.70215,-84.40902,Okemos,MI,Michigan,True,,23882.0,459.1,26065,Ingham,"{""26065"": 100}",Ingham,26065,False,False,America/Detroit,"(42.70215, -84.40902)",29.196311163163582,1826946.0,696_0_no,42.71802731181808,-84.9836907117622,40.0
48865,43.08785,-85.10725,Orleans,MI,Michigan,True,,2090.0,37.8,26067,Ionia,"{""26067"": 100}",Ionia,26067,False,False,America/Detroit,"(43.08785, -85.10725)",26.30640127294655,1826946.0,696_0_no,42.71802731181808,-84.9836907117622,40.0
48866,42.99303,-84.37219,Ovid,MI,Michigan,True,,4555.0,35.5,26037,Clinton,"{""26037"": 55.38, ""26155"": 44.62}",Clinton|Shiawassee,26037|26155,False,False,America/Detroit,"(42.99303, -84.37219)",36.33639315482312,1826946.0,696_0_no,42.71802731181808,-84.9836907117622,40.0
48870,43.11027,-84.98483,Palo,MI,Michigan,True,,274.0,1692.5,26067,Ionia,"{""26067"": 100}",Ionia,26067,False,False,America/Detroit,"(43.11027, -84.98483)",27.10144971532921,1826946.0,696_0_no,42.71802731181808,-84.9836907117622,40.0
48871,43.15476,-84.67874,Perrinton,MI,Michigan,True,,2023.0,26.8,26057,Gratiot,"{""26057"": 100}",Gratiot,26057,False,False,America/Detroit,"(43.15476, -84.67874)",33.889491880301904,1826946.0,696_0_no,42.71802731181808,-84.9836907117622,40.0
48872,42.80065,-84.2189,Perry,MI,Michigan,True,,6438.0,44.8,26155,Shiawassee,"{""26155"": 80.28, ""26065"": 16.06, ""26093"": 3.66}",Shiawassee|Ingham|Livingston,26155|26065|26093,False,False,America/Detroit,"(42.80065, -84.2189)",39.214827033504875,1826946.0,696_0_no,42.71802731181808,-84.9836907117622,40.0
48873,43.00978,-84.83608,Pewamo,MI,Michigan,True,,1568.0,19.4,26067,Ionia,"{""26067"": 50.07, ""26037"": 49.93}",Ionia|Clinton,26067|26037,False,False,America/Detroit,"(43.00978, -84.83608)",21.499667051041424,1826946.0,696_0_no,42.71802731181808,-84.9836907117622,40.0
48874,43.18644,-84.59498,Pompeii,MI,Michigan,True,,186.0,124.7,26057,Gratiot,"{""26057"": 100}",Gratiot,26057,False,False,America/Detroit,"(43.18644, -84.59498)",37.86623852110285,1826946.0,696_0_no,42.71802731181808,-84.9836907117622,40.0
48875,42.8578,-84.93201,Portland,MI,Michigan,True,,10887.0,49.3,26067,Ionia,"{""26067"": 90.06, ""26037"": 9.94}",Ionia|Clinton,26067|26037,False,False,America/Detroit,"(42.8578, -84.93201)",10.00659398512243,1826946.0,696_0_no,42.71802731181808,-84.9836907117622,40.0
48876,42.64757,-84.73631,Potterville,MI,Michigan,True,,4223.0,120.9,26045,Eaton,"{""26045"": 100}",Eaton,26045,False,False,America/Detroit,"(42.64757, -84.73631)",13.475004354836454,1826946.0,696_0_no,42.71802731181808,-84.9836907117622,40.0
48879,43.00629,-84.57981,Saint Johns,MI,Michigan,True,,18599.0,37.5,26037,Clinton,"{""26037"": 96.12, ""26057"": 3.88}",Clinton|Gratiot,26037|26057,False,False,America/Detroit,"(43.00629, -84.57981)",28.549472143025017,1826946.0,696_0_no,42.71802731181808,-84.9836907117622,40.0
48881,42.934,-85.20214,Saranac,MI,Michigan,True,,5567.0,39.8,26067,Ionia,"{""26067"": 100}",Ionia,26067,False,False,America/Detroit,"(42.934, -85.20214)",18.579969518645786,1826946.0,696_0_no,42.71802731181808,-84.9836907117622,40.0
48884,43.20731,-85.04249,Sheridan,MI,Michigan,True,,4938.0,31.1,26117,Montcalm,"{""26117"": 100}",Montcalm,26117,False,False,America/Detroit,"(43.20731, -85.04249)",33.93668853682551,1826946.0,696_0_no,42.71802731181808,-84.9836907117622,40.0
48885,43.24908,-85.14356,Sidney,MI,Michigan,True,,964.0,21.2,26117,Montcalm,"{""26117"": 100}",Montcalm,26117,False,False,America/Detroit,"(43.24908, -85.14356)",37.571476402874154,1826946.0,696_0_no,42.71802731181808,-84.9836907117622,40.0
48889,43.29133,-84.79701,Sumner,MI,Michigan,True,,1248.0,15.5,26057,Gratiot,"{""26057"": 98.51, ""26117"": 1.49}",Gratiot|Montcalm,26057|26117,False,False,America/Detroit,"(43.29133, -84.79701)",40.71900371430577,1826946.0,696_0_no,42.71802731181808,-84.9836907117622,40.0
48890,42.76878,-84.97167,Sunfield,MI,Michigan,True,,1976.0,24.1,26045,Eaton,"{""26045"": 53.34, ""26067"": 46.66}",Eaton|Ionia,26045|26067,False,False,America/Detroit,"(42.76878, -84.97167)",3.5593300606832305,1826946.0,696_0_no,42.71802731181808,-84.9836907117622,40.0
48894,42.92841,-84.79489,Westphalia,MI,Michigan,True,,1801.0,20.2,26037,Clinton,"{""26037"": 86.3, ""26067"": 13.7}",Clinton|Ionia,26037|26067,False,False,America/Detroit,"(42.92841, -84.79489)",17.40229841328425,1826946.0,696_0_no,42.71802731181808,-84.9836907117622,40.0
48895,42.68946,-84.28061,Williamston,MI,Michigan,True,,11563.0,53.9,26065,Ingham,"{""26065"": 100}",Ingham,26065,False,False,America/Detroit,"(42.68946, -84.28061)",35.75313359898629,1826946.0,696_0_no,42.71802731181808,-84.9836907117622,40.0
48897,42.70498,-85.13193,Woodland,MI,Michigan,True,,1585.0,18.9,26015,Barry,"{""26015"": 97.38, ""26045"": 2.62}",Barry|Eaton,26015|26045,False,False,America/Detroit,"(42.70498, -85.13193)",7.579663207884205,1826946.0,696_0_no,42.71802731181808,-84.9836907117622,40.0
48906,42.78489,-84.58886,Lansing,MI,Michigan,True,,27253.0,323.5,26037,Clinton,"{""26037"": 77.23, ""26065"": 17.04, ""26045"": 5.73}",Clinton|Ingham|Eaton,26037|26065|26045,False,False,America/Detroit,"(42.78489, -84.58886)",20.557778852711362,1826946.0,696_0_no,42.71802731181808,-84.9836907117622,40.0
48910,42.6969,-84.52541,Lansing,MI,Michigan,True,,34989.0,950.4,26065,Ingham,"{""26065"": 100}",Ingham,26065,False,False,America/Detroit,"(42.6969, -84.52541)",23.313388455205967,1826946.0,696_0_no,42.71802731181808,-84.9836907117622,40.0
48911,42.67351,-84.57285,Lansing,MI,Michigan,True,,40924.0,911.4,26065,Ingham,"{""26065"": 79.92, ""26045"": 20.08}",Ingham|Eaton,26065|26045,False,False,America/Detroit,"(42.67351, -84.57285)",21.08849060842144,1826946.0,696_0_no,42.71802731181808,-84.9836907117622,40.0
48912,42.73896,-84.52319,Lansing,MI,Michigan,True,,17259.0,1270.8,26065,Ingham,"{""26065"": 100}",Ingham,26065,False,False,America/Detroit,"(42.73896, -84.52319)",23.41713950681199,1826946.0,696_0_no,42.71802731181808,-84.9836907117622,40.0
48915,42.73885,-84.57076,Lansing,MI,Michigan,True,,10600.0,2271.8,26065,Ingham,"{""26065"": 100}",Ingham,26065,False,False,America/Detroit,"(42.73885, -84.57076)",21.00739360469447,1826946.0,696_0_no,42.71802731181808,-84.9836907117622,40.0
48917,42.72509,-84.63897,Lansing,MI,Michigan,True,,32191.0,518.4,26045,Eaton,"{""26045"": 86.34, ""26065"": 13.66}",Eaton|Ingham,26045|26065,False,False,America/Detroit,"(42.72509, -84.63897)",17.504858342631277,1826946.0,696_0_no,42.71802731181808,-84.9836907117622,40.0
48933,42.72956,-84.55595,Lansing,MI,Michigan,True,,2596.0,959.5,26065,Ingham,"{""26065"": 100}",Ingham,26065,False,False,America/Detroit,"(42.72956, -84.55595)",21.72598514776005,1826946.0,696_0_no,42.71802731181808,-84.9836907117622,40.0
49001,42.2647,-85.56265,Kalamazoo,MI,Michigan,True,,21808.0,1097.3,26077,Kalamazoo,"{""26077"": 100}",Kalamazoo,26077,False,False,America/Detroit,"(42.2647, -85.56265)",43.02450556745152,1826946.0,696_0_no,42.71802731181808,-84.9836907117622,40.0
49002,42.19867,-85.55906,Portage,MI,Michigan,True,,20619.0,460.4,26077,Kalamazoo,"{""26077"": 100}",Kalamazoo,26077,False,False,America/Detroit,"(42.19867, -85.55906)",46.345055310740165,1826946.0,696_0_no,42.71802731181808,-84.9836907117622,40.0
49004,42.34903,-85.55954,Kalamazoo,MI,Michigan,True,,17005.0,297.8,26077,Kalamazoo,"{""26077"": 100}",Kalamazoo,26077,False,False,America/Detroit,"(42.34903, -85.55954)",38.853272116984684,1826946.0,696_0_no,42.71802731181808,-84.9836907117622,40.0
49006,42.29539,-85.6291,Kalamazoo,MI,Michigan,True,,27793.0,1797.0,26077,Kalamazoo,"{""26077"": 100}",Kalamazoo,26077,False,False,America/Detroit,"(42.29539, -85.6291)",43.970678200557025,1826946.0,696_0_no,42.71802731181808,-84.9836907117622,40.0
49007,42.30252,-85.5883,Kalamazoo,MI,Michigan,True,,10900.0,1205.0,26077,Kalamazoo,"{""26077"": 100}",Kalamazoo,26077,False,False,America/Detroit,"(42.30252, -85.5883)",42.100707894290125,1826946.0,696_0_no,42.71802731181808,-84.9836907117622,40.0
49008,42.26337,-85.61528,Kalamazoo,MI,Michigan,True,,16466.0,946.0,26077,Kalamazoo,"{""26077"": 100}",Kalamazoo,26077,False,False,America/Detroit,"(42.26337, -85.61528)",44.96961100322108,1826946.0,696_0_no,42.71802731181808,-84.9836907117622,40.0
49009,42.30913,-85.69278,Kalamazoo,MI,Michigan,True,,46734.0,176.6,26077,Kalamazoo,"{""26077"": 95.9, ""26159"": 4.1}",Kalamazoo|Van Buren,26077|26159,False,False,America/Detroit,"(42.30913, -85.69278)",45.851577734074176,1826946.0,696_0_no,42.71802731181808,-84.9836907117622,40.0
49012,42.34626,-85.34116,Augusta,MI,Michigan,True,,3256.0,29.8,26077,Kalamazoo,"{""26077"": 98.31, ""26025"": 1.69}",Kalamazoo|Calhoun,26077|26025,False,False,America/Detroit,"(42.34626, -85.34116)",31.48107774573236,1826946.0,696_0_no,42.71802731181808,-84.9836907117622,40.0
49014,42.30996,-85.10711,Battle Creek,MI,Michigan,True,,21694.0,115.5,26025,Calhoun,"{""26025"": 100}",Calhoun,26025,False,False,America/Detroit,"(42.30996, -85.10711)",28.886920867342894,1826946.0,696_0_no,42.71802731181808,-84.9836907117622,40.0
49015,42.27467,-85.23115,Battle Creek,MI,Michigan,True,,27287.0,387.4,26025,Calhoun,"{""26025"": 99.89, ""26077"": 0.11}",Calhoun|Kalamazoo,26025|26077,False,False,America/Detroit,"(42.27467, -85.23115)",33.12563434025883,1826946.0,696_0_no,42.71802731181808,-84.9836907117622,40.0
49017,42.3979,-85.2111,Battle Creek,MI,Michigan,True,,20710.0,140.9,26025,Calhoun,"{""26025"": 76.49, ""26015"": 23.51}",Calhoun|Barry,26025|26015,False,False,America/Detroit,"(42.3979, -85.2111)",24.96369410833173,1826946.0,696_0_no,42.71802731181808,-84.9836907117622,40.0
49021,42.4588,-85.06435,Bellevue,MI,Michigan,True,,6277.0,25.8,26045,Eaton,"{""26045"": 45.63, ""26015"": 39.02, ""26025"": 15.35}",Eaton|Barry|Calhoun,26045|26015|26025,False,False,America/Detroit,"(42.4588, -85.06435)",18.3748553323937,1826946.0,696_0_no,42.71802731181808,-84.9836907117622,40.0
49024,42.20207,-85.61917,Portage,MI,Michigan,True,,29822.0,667.7,26077,Kalamazoo,"{""26077"": 100}",Kalamazoo,26077,False,False,America/Detroit,"(42.20207, -85.61917)",48.16764776175004,1826946.0,696_0_no,42.71802731181808,-84.9836907117622,40.0
49029,42.1423,-85.09107,Burlington,MI,Michigan,True,,1442.0,14.8,26025,Calhoun,"{""26025"": 100}",Calhoun,26025,False,False,America/Detroit,"(42.1423, -85.09107)",40.154118982733564,1826946.0,696_0_no,42.71802731181808,-84.9836907117622,40.0
49033,42.22654,-85.09193,Ceresco,MI,Michigan,True,,1565.0,18.4,26025,Calhoun,"{""26025"": 100}",Calhoun,26025,False,False,America/Detroit,"(42.22654, -85.09193)",34.40364581022981,1826946.0,696_0_no,42.71802731181808,-84.9836907117622,40.0
49034,42.23178,-85.33403,Climax,MI,Michigan,True,,2542.0,26.5,26077,Kalamazoo,"{""26077"": 79.3, ""26025"": 20.7}",Kalamazoo|Calhoun,26077|26025,False,False,America/Detroit,"(42.23178, -85.33403)",38.045696972389464,1826946.0,696_0_no,42.71802731181808,-84.9836907117622,40.0
49037,42.33448,-85.24706,Battle Creek,MI,Michigan,True,,20845.0,416.6,26025,Calhoun,"{""26025"": 100}",Calhoun,26025,False,False,America/Detroit,"(42.33448, -85.24706)",29.700587965245454,1826946.0,696_0_no,42.71802731181808,-84.9836907117622,40.0
49046,42.51229,-85.40249,Delton,MI,Michigan,True,,7337.0,35.3,26015,Barry,"{""26015"": 100}",Barry,26015,False,False,America/Detroit,"(42.51229, -85.40249)",25.60335060727562,1826946.0,696_0_no,42.71802731181808,-84.9836907117622,40.0
49048,42.27202,-85.49893,Kalamazoo,MI,Michigan,True,,24279.0,266.7,26077,Kalamazoo,"{""26077"": 100}",Kalamazoo,26077,False,False,America/Detroit,"(42.27202, -85.49893)",40.479954360584074,1826946.0,696_0_no,42.71802731181808,-84.9836907117622,40.0
49050,42.50598,-85.23651,Dowling,MI,Michigan,True,,1556.0,23.6,26015,Barry,"{""26015"": 100}",Barry,26015,False,False,America/Detroit,"(42.50598, -85.23651)",19.491643173529663,1826946.0,696_0_no,42.71802731181808,-84.9836907117622,40.0
49051,42.18207,-85.23803,East Leroy,MI,Michigan,True,,2812.0,38.7,26025,Calhoun,"{""26025"": 100}",Calhoun,26025,False,False,America/Detroit,"(42.18207, -85.23803)",39.23561600291777,1826946.0,696_0_no,42.71802731181808,-84.9836907117622,40.0
49053,42.28877,-85.41722,Galesburg,MI,Michigan,True,,7815.0,123.7,26077,Kalamazoo,"{""26077"": 100}",Kalamazoo,26077,False,False,America/Detroit,"(42.28877, -85.41722)",36.97711755048408,1826946.0,696_0_no,42.71802731181808,-84.9836907117622,40.0
49058,42.63331,-85.29316,Hastings,MI,Michigan,True,,19642.0,51.4,26015,Barry,"{""26015"": 100}",Barry,26015,False,False,America/Detroit,"(42.63331, -85.29316)",16.774690459561583,1826946.0,696_0_no,42.71802731181808,-84.9836907117622,40.0
49060,42.42738,-85.39589,Hickory Corners,MI,Michigan,True,,2700.0,52.8,26015,Barry,"{""26015"": 73.73, ""26077"": 26.27}",Barry|Kalamazoo,26015|26077,False,False,America/Detroit,"(42.42738, -85.39589)",29.03720653133859,1826946.0,696_0_no,42.71802731181808,-84.9836907117622,40.0
49068,42.2765,-84.94063,Marshall,MI,Michigan,True,,15222.0,45.2,26025,Calhoun,"{""26025"": 100}",Calhoun,26025,False,False,America/Detroit,"(42.2765, -84.94063)",30.585398389717227,1826946.0,696_0_no,42.71802731181808,-84.9836907117622,40.0
49070,42.54023,-85.62879,Martin,MI,Michigan,True,,2390.0,35.4,26005,Allegan,"{""26005"": 100}",Allegan,26005,False,False,America/Detroit,"(42.54023, -85.62879)",35.019340764252945,1826946.0,696_0_no,42.71802731181808,-84.9836907117622,40.0
49073,42.57971,-85.11717,Nashville,MI,Michigan,True,,4983.0,27.3,26015,Barry,"{""26015"": 84.75, ""26045"": 15.25}",Barry|Eaton,26015|26045,False,False,America/Detroit,"(42.57971, -85.11717)",11.71949625668277,1826946.0,696_0_no,42.71802731181808,-84.9836907117622,40.0
49074,42.3198,-85.53991,Nazareth,MI,Michigan,True,,146.0,224.6,26077,Kalamazoo,"{""26077"": 100}",Kalamazoo,26077,False,False,America/Detroit,"(42.3198, -85.53991)",39.48931162590208,1826946.0,696_0_no,42.71802731181808,-84.9836907117622,40.0
49076,42.4309,-84.88657,Olivet,MI,Michigan,True,,4507.0,30.5,26045,Eaton,"{""26045"": 54.36, ""26025"": 45.64}",Eaton|Calhoun,26045|26025,False,False,America/Detroit,"(42.4309, -84.88657)",20.44477688927779,1826946.0,696_0_no,42.71802731181808,-84.9836907117622,40.0
49078,42.46585,-85.72846,Otsego,MI,Michigan,True,,9738.0,75.9,26005,Allegan,"{""26005"": 84.93, ""26077"": 12.06, ""26159"": 3.01}",Allegan|Kalamazoo|Van Buren,26005|26077|26159,False,False,America/Detroit,"(42.46585, -85.72846)",41.69805999267409,1826946.0,696_0_no,42.71802731181808,-84.9836907117622,40.0
49080,42.46086,-85.57711,Plainwell,MI,Michigan,True,,15594.0,77.8,26005,Allegan,"{""26005"": 52.32, ""26015"": 31.54, ""26077"": 16.14}",Allegan|Barry|Kalamazoo,26005|26015|26077,False,False,America/Detroit,"(42.46086, -85.57711)",35.02732548268407,1826946.0,696_0_no,42.71802731181808,-84.9836907117622,40.0
49083,42.3784,-85.45899,Richland,MI,Michigan,True,,8039.0,92.9,26077,Kalamazoo,"{""26077"": 100}",Kalamazoo,26077,False,False,America/Detroit,"(42.3784, -85.45899)",33.70421246625276,1826946.0,696_0_no,42.71802731181808,-84.9836907117622,40.0
49088,42.18602,-85.42503,Scotts,MI,Michigan,True,,3959.0,42.5,26077,Kalamazoo,"{""26077"": 100}",Kalamazoo,26077,False,False,America/Detroit,"(42.18602, -85.42503)",43.097328428619235,1826946.0,696_0_no,42.71802731181808,-84.9836907117622,40.0
49096,42.63794,-85.01409,Vermontville,MI,Michigan,True,,3341.0,20.3,26045,Eaton,"{""26045"": 100}",Eaton,26045,False,False,America/Detroit,"(42.63794, -85.01409)",5.744919857575673,1826946.0,696_0_no,42.71802731181808,-84.9836907117622,40.0
49201,42.25213,-84.38301,Jackson,MI,Michigan,True,,44766.0,111.5,26075,Jackson,"{""26075"": 100}",Jackson,26075,False,False,America/Detroit,"(42.25213, -84.38301)",44.41807350420518,1826946.0,696_0_no,42.71802731181808,-84.9836907117622,40.0
49202,42.26737,-84.4107,Jackson,MI,Michigan,True,,19660.0,597.3,26075,Jackson,"{""26075"": 100}",Jackson,26075,False,False,America/Detroit,"(42.26737, -84.4107)",42.681414118172555,1826946.0,696_0_no,42.71802731181808,-84.9836907117622,40.0
49203,42.22096,-84.40347,Jackson,MI,Michigan,True,,37997.0,554.1,26075,Jackson,"{""26075"": 100}",Jackson,26075,False,False,America/Detroit,"(42.22096, -84.40347)",45.32067525696114,1826946.0,696_0_no,42.71802731181808,-84.9836907117622,40.0
49224,42.27982,-84.74852,Albion,MI,Michigan,True,,14099.0,54.5,26025,Calhoun,"{""26025"": 69.27, ""26075"": 30.73}",Calhoun|Jackson,26025|26075,False,False,America/Detroit,"(42.27982, -84.74852)",32.56117561525734,1826946.0,696_0_no,42.71802731181808,-84.9836907117622,40.0
49237,42.1731,-84.64906,Concord,MI,Michigan,True,,2984.0,28.1,26075,Jackson,"{""26075"": 94.22, ""26025"": 5.78}",Jackson|Calhoun,26075|26025,False,False,America/Detroit,"(42.1731, -84.64906)",41.33603893114043,1826946.0,696_0_no,42.71802731181808,-84.9836907117622,40.0
49245,42.14085,-84.81797,Homer,MI,Michigan,True,,4682.0,19.5,26025,Calhoun,"{""26025"": 96.35, ""26023"": 2.06, ""26075"": 1.59}",Calhoun|Branch|Jackson,26025|26023|26075,False,False,America/Detroit,"(42.14085, -84.81797)",40.764845630664496,1826946.0,696_0_no,42.71802731181808,-84.9836907117622,40.0
49251,42.46561,-84.40916,Leslie,MI,Michigan,True,,6508.0,43.1,26065,Ingham,"{""26065"": 94.95, ""26075"": 5.05}",Ingham|Jackson,26065|26075,False,False,America/Detroit,"(42.46561, -84.40916)",34.03248585124027,1826946.0,696_0_no,42.71802731181808,-84.9836907117622,40.0
49254,42.2268,-84.32165,Michigan Center,MI,Michigan,True,,3355.0,493.6,26075,Jackson,"{""26075"": 100}",Jackson,26075,False,False,America/Detroit,"(42.2268, -84.32165)",47.85721574988089,1826946.0,696_0_no,42.71802731181808,-84.9836907117622,40.0
49259,42.38099,-84.25763,Munith,MI,Michigan,True,,2308.0,30.6,26075,Jackson,"{""26075"": 100}",Jackson,26075,False,False,America/Detroit,"(42.38099, -84.25763)",43.68160272666449,1826946.0,696_0_no,42.71802731181808,-84.9836907117622,40.0
49261,42.16174,-84.2472,Napoleon,MI,Michigan,True,,245.0,129.7,26075,Jackson,"{""26075"": 100}",Jackson,26075,False,False,America/Detroit,"(42.16174, -84.2472)",53.73581419532068,1826946.0,696_0_no,42.71802731181808,-84.9836907117622,40.0
49264,42.44118,-84.55122,Onondaga,MI,Michigan,True,,1962.0,28.3,26065,Ingham,"{""26065"": 71.83, ""26075"": 26.3, ""26045"": 1.87}",Ingham|Jackson|Eaton,26065|26075|26045,False,False,America/Detroit,"(42.44118, -84.55122)",29.15467950307537,1826946.0,696_0_no,42.71802731181808,-84.9836907117622,40.0
49269,42.29307,-84.586,Parma,MI,Michigan,True,,6138.0,42.5,26075,Jackson,"{""26075"": 100}",Jackson,26075,False,False,America/Detroit,"(42.29307, -84.586)",35.67141729519252,1826946.0,696_0_no,42.71802731181808,-84.9836907117622,40.0
49272,42.39299,-84.34974,Pleasant Lake,MI,Michigan,True,,2371.0,82.2,26075,Jackson,"{""26075"": 100}",Jackson,26075,False,False,America/Detroit,"(42.39299, -84.34974)",39.311585847360284,1826946.0,696_0_no,42.71802731181808,-84.9836907117622,40.0
49277,42.38871,-84.46679,Rives Junction,MI,Michigan,True,,3392.0,39.7,26075,Jackson,"{""26075"": 100}",Jackson,26075,False,False,America/Detroit,"(42.38871, -84.46679)",34.78335048267534,1826946.0,696_0_no,42.71802731181808,-84.9836907117622,40.0
49283,42.20486,-84.55478,Spring Arbor,MI,Michigan,True,,3694.0,98.6,26075,Jackson,"{""26075"": 100}",Jackson,26075,False,False,America/Detroit,"(42.20486, -84.55478)",41.654818427080215,1826946.0,696_0_no,42.71802731181808,-84.9836907117622,40.0
49284,42.38507,-84.69128,Springport,MI,Michigan,True,,2872.0,20.9,26075,Jackson,"{""26075"": 62.32, ""26025"": 30.02, ""26045"": 7.66}",Jackson|Calhoun|Eaton,26075|26025|26045,False,False,America/Detroit,"(42.38507, -84.69128)",27.399833108550432,1826946.0,696_0_no,42.71802731181808,-84.9836907117622,40.0
49285,42.46855,-84.20752,Stockbridge,MI,Michigan,True,,6276.0,31.9,26065,Ingham,"{""26065"": 80.16, ""26075"": 10.11, ""26093"": 6.37, ""26161"": 3.36}",Ingham|Jackson|Livingston|Washtenaw,26065|26075|26093|26161,False,False,America/Detroit,"(42.46855, -84.20752)",43.078575108076166,1826946.0,696_0_no,42.71802731181808,-84.9836907117622,40.0
49301,42.97716,-85.47671,Ada,MI,Michigan,True,,19922.0,135.4,26081,Kent,"{""26081"": 100}",Kent,26081,False,False,America/Detroit,"(42.97716, -85.47671)",30.729505607616574,1826946.0,696_0_no,42.71802731181808,-84.9836907117622,40.0
49302,42.82307,-85.39871,Alto,MI,Michigan,True,,9216.0,71.2,26081,Kent,"{""26081"": 99.78, ""26067"": 0.22}",Kent|Ionia,26081|26067,False,False,America/Detroit,"(42.82307, -85.39871)",22.265834710034003,1826946.0,696_0_no,42.71802731181808,-84.9836907117622,40.0
49306,43.07296,-85.56939,Belmont,MI,Michigan,True,,10924.0,228.9,26081,Kent,"{""26081"": 100}",Kent,26081,False,False,America/Detroit,"(43.07296, -85.56939)",38.47486391585661,1826946.0,696_0_no,42.71802731181808,-84.9836907117622,40.0
49315,42.80101,-85.73589,Byron Center,MI,Michigan,True,,23116.0,161.7,26081,Kent,"{""26081"": 71.77, ""26139"": 18.14, ""26005"": 10.09}",Kent|Ottawa|Allegan,26081|26139|26005,False,False,America/Detroit,"(42.80101, -85.73589)",38.58657556300699,1826946.0,696_0_no,42.71802731181808,-84.9836907117622,40.0
49316,42.79644,-85.55564,Caledonia,MI,Michigan,True,,24193.0,163.6,26081,Kent,"{""26081"": 78.27, ""26005"": 18.86, ""26015"": 2.87}",Kent|Allegan|Barry,26081|26005|26015,False,False,America/Detroit,"(42.79644, -85.55564)",29.516931966025485,1826946.0,696_0_no,42.71802731181808,-84.9836907117622,40.0
49319,43.22767,-85.5281,Cedar Springs,MI,Michigan,True,,18341.0,82.0,26081,Kent,"{""26081"": 100}",Kent,26081,False,False,America/Detroit,"(43.22767, -85.5281)",44.692251561651716,1826946.0,696_0_no,42.71802731181808,-84.9836907117622,40.0
49321,43.0737,-85.68198,Comstock Park,MI,Michigan,True,,16926.0,248.2,26081,Kent,"{""26081"": 100}",Kent,26081,False,False,America/Detroit,"(43.0737, -85.68198)",43.048769810764064,1826946.0,696_0_no,42.71802731181808,-84.9836907117622,40.0
49325,42.76155,-85.30162,Freeport,MI,Michigan,True,,2339.0,33.9,26015,Barry,"{""26015"": 69.13, ""26067"": 20.99, ""26081"": 9.88}",Barry|Ionia|Kent,26015|26067|26081,False,False,America/Detroit,"(42.76155, -85.30162)",16.411237564994224,1826946.0,696_0_no,42.71802731181808,-84.9836907117622,40.0
49326,43.25069,-85.32083,Gowen,MI,Michigan,True,,4257.0,68.2,26081,Kent,"{""26081"": 61.73, ""26117"": 38.27}",Kent|Montcalm,26081|26117,False,False,America/Detroit,"(43.25069, -85.32083)",40.55699194878452,1826946.0,696_0_no,42.71802731181808,-84.9836907117622,40.0
49328,42.6304,-85.75703,Hopkins,MI,Michigan,True,,4209.0,29.5,26005,Allegan,"{""26005"": 100}",Allegan,26005,False,False,America/Detroit,"(42.6304, -85.75703)",39.74840600762377,1826946.0,696_0_no,42.71802731181808,-84.9836907117622,40.0
49330,43.24463,-85.73721,Kent City,MI,Michigan,True,,5852.0,51.7,26081,Kent,"{""26081"": 86.96, ""26123"": 8.2, ""26139"": 3.77, ""26121"": 1.07}",Kent|Newaygo|Ottawa|Muskegon,26081|26123|26139|26121,False,False,America/Detroit,"(43.24463, -85.73721)",52.67368128670149,1826946.0,696_0_no,42.71802731181808,-84.9836907117622,40.0
49331,42.95161,-85.35139,Lowell,MI,Michigan,True,,18118.0,76.5,26081,Kent,"{""26081"": 78.74, ""26067"": 21.26}",Kent|Ionia,26081|26067,False,False,America/Detroit,"(42.95161, -85.35139)",24.648651648827077,1826946.0,696_0_no,42.71802731181808,-84.9836907117622,40.0
49333,42.69546,-85.46343,Middleville,MI,Michigan,True,,11041.0,53.8,26015,Barry,"{""26015"": 96.51, ""26081"": 2.26, ""26005"": 1.23}",Barry|Kent|Allegan,26015|26081|26005,False,False,America/Detroit,"(42.69546, -85.46343)",24.40726540240024,1826946.0,696_0_no,42.71802731181808,-84.9836907117622,40.0
49335,42.74626,-85.66907,Moline,MI,Michigan,True,,323.0,290.7,26005,Allegan,"{""26005"": 100}",Allegan,26005,False,False,America/Detroit,"(42.74626, -85.66907)",34.8385624186121,1826946.0,696_0_no,42.71802731181808,-84.9836907117622,40.0
49341,43.12433,-85.49246,Rockford,MI,Michigan,True,,38728.0,176.9,26081,Kent,"{""26081"": 100}",Kent,26081,False,False,America/Detroit,"(43.12433, -85.49246)",38.088322629843255,1826946.0,696_0_no,42.71802731181808,-84.9836907117622,40.0
49343,43.29579,-85.53115,Sand Lake,MI,Michigan,True,,5637.0,39.4,26081,Kent,"{""26081"": 52.9, ""26123"": 36.93, ""26117"": 10.17}",Kent|Newaygo|Montcalm,26081|26123|26117,False,False,America/Detroit,"(43.29579, -85.53115)",48.56620867700686,1826946.0,696_0_no,42.71802731181808,-84.9836907117622,40.0
49344,42.5919,-85.59028,Shelbyville,MI,Michigan,True,,3801.0,47.3,26005,Allegan,"{""26005"": 80.72, ""26015"": 19.28}",Allegan|Barry,26005|26015,False,False,America/Detroit,"(42.5919, -85.59028)",32.03172196929817,1826946.0,696_0_no,42.71802731181808,-84.9836907117622,40.0
49345,43.15419,-85.70224,Sparta,MI,Michigan,True,,14157.0,104.8,26081,Kent,"{""26081"": 100}",Kent,26081,False,False,America/Detroit,"(43.15419, -85.70224)",47.215144981431074,1826946.0,696_0_no,42.71802731181808,-84.9836907117622,40.0
49348,42.68379,-85.61619,Wayland,MI,Michigan,True,,12423.0,73.0,26005,Allegan,"{""26005"": 89.89, ""26015"": 8.15, ""26081"": 1.96}",Allegan|Barry|Kent,26005|26015|26081,False,False,America/Detroit,"(42.68379, -85.61619)",32.20335351698379,1826946.0,696_0_no,42.71802731181808,-84.9836907117622,40.0
49503,42.96282,-85.65872,Grand Rapids,MI,Michigan,True,,37036.0,1969.8,26081,Kent,"{""26081"": 100}",Kent,26081,False,False,America/Detroit,"(42.96282, -85.65872)",38.15255784189365,1826946.0,696_0_no,42.71802731181808,-84.9836907117622,40.0
49504,42.98047,-85.70937,Grand Rapids,MI,Michigan,True,,40498.0,1414.9,26081,Kent,"{""26081"": 100}",Kent,26081,False,False,America/Detroit,"(42.98047, -85.70937)",40.98859176108889,1826946.0,696_0_no,42.71802731181808,-84.9836907117622,40.0
49505,42.9984,-85.63699,Grand Rapids,MI,Michigan,True,,33239.0,1465.7,26081,Kent,"{""26081"": 100}",Kent,26081,False,False,America/Detroit,"(42.9984, -85.63699)",38.34189747180257,1826946.0,696_0_no,42.71802731181808,-84.9836907117622,40.0
49506,42.94515,-85.6136,Grand Rapids,MI,Michigan,True,,34058.0,1806.3,26081,Kent,"{""26081"": 100}",Kent,26081,False,False,America/Detroit,"(42.94515, -85.6136)",35.56653537689124,1826946.0,696_0_no,42.71802731181808,-84.9836907117622,40.0
49507,42.93054,-85.65524,Grand Rapids,MI,Michigan,True,,39731.0,2769.0,26081,Kent,"{""26081"": 100}",Kent,26081,False,False,America/Detroit,"(42.93054, -85.65524)",37.06379408454327,1826946.0,696_0_no,42.71802731181808,-84.9836907117622,40.0
49508,42.87459,-85.62586,Grand Rapids,MI,Michigan,True,,40409.0,1325.1,26081,Kent,"{""26081"": 100}",Kent,26081,False,False,America/Detroit,"(42.87459, -85.62586)",34.30724790188696,1826946.0,696_0_no,42.71802731181808,-84.9836907117622,40.0
49509,42.89773,-85.69299,Wyoming,MI,Michigan,True,,28946.0,1536.6,26081,Kent,"{""26081"": 100}",Kent,26081,False,False,America/Detroit,"(42.89773, -85.69299)",38.037374236991205,1826946.0,696_0_no,42.71802731181808,-84.9836907117622,40.0
49512,42.8821,-85.54764,Grand Rapids,MI,Michigan,True,,18464.0,309.7,26081,Kent,"{""26081"": 100}",Kent,26081,False,False,America/Detroit,"(42.8821, -85.54764)",30.755315742713606,1826946.0,696_0_no,42.71802731181808,-84.9836907117622,40.0
49519,42.89914,-85.7192,Wyoming,MI,Michigan,True,,28262.0,1364.9,26081,Kent,"{""26081"": 100}",Kent,26081,False,False,America/Detroit,"(42.89914, -85.7192)",39.32603785042116,1826946.0,696_0_no,42.71802731181808,-84.9836907117622,40.0
49525,43.02144,-85.5918,Grand Rapids,MI,Michigan,True,,30205.0,497.9,26081,Kent,"{""26081"": 100}",Kent,26081,False,False,America/Detroit,"(43.02144, -85.5918)",37.25228739349328,1826946.0,696_0_no,42.71802731181808,-84.9836907117622,40.0
49544,43.04591,-85.7417,Grand Rapids,MI,Michigan,True,,10181.0,197.7,26081,Kent,"{""26081"": 96.17, ""26139"": 3.83}",Kent|Ottawa,26081|26139,False,False,America/Detroit,"(43.04591, -85.7417)",44.56455138159303,1826946.0,696_0_no,42.71802731181808,-84.9836907117622,40.0
49546,42.92815,-85.53629,Grand Rapids,MI,Michigan,True,,33968.0,734.1,26081,Kent,"{""26081"": 100}",Kent,26081,False,False,America/Detroit,"(42.92815, -85.53629)",31.54356953293631,1826946.0,696_0_no,42.71802731181808,-84.9836907117622,40.0
49548,42.86795,-85.66273,Grand Rapids,MI,Michigan,True,,33608.0,1206.3,26081,Kent,"{""26081"": 100}",Kent,26081,False,False,America/Detroit,"(42.86795, -85.66273)",35.952869011646385,1826946.0,696_0_no,42.71802731181808,-84.9836907117622,40.0
