zip,lat,lng,city,state_id,state_name,zcta,parent_zcta,population,density,county_fips,county_name,county_weights,county_names_all,county_fips_all,imprecise,military,timezone,Coord,distance_miles,market_total_population,market_id,market_center_lat,market_center_lng,radius_miles
50630,42.95651,-92.21346,Fredericksburg,IA,Iowa,True,,1576.0,7.2,19037,Chickasaw,"{""19037"": 89.69, ""19017"": 10.31}",Chickasaw|Bremer,19037|19017,False,False,America/Chicago,"(42.95651, -92.21346)",40.73029899930682,261911.0,701_0_yes,43.3373700877571,-91.59675437469498,40.0
50655,42.77232,-91.9016,Maynard,IA,Iowa,True,,856.0,9.2,19065,Fayette,"{""19065"": 100}",Fayette,19065,False,False,America/Chicago,"(42.77232, -91.9016)",41.96525406885416,261911.0,701_0_yes,43.3373700877571,-91.59675437469498,40.0
50659,43.08749,-92.3221,New Hampton,IA,Iowa,True,,5929.0,15.0,19037,Chickasaw,"{""19037"": 100}",Chickasaw,19037,False,False,America/Chicago,"(43.08749, -92.3221)",40.40067654777125,261911.0,701_0_yes,43.3373700877571,-91.59675437469498,40.0
50674,42.84202,-92.11746,Sumner,IA,Iowa,True,,3861.0,9.4,19017,Bremer,"{""19017"": 61.82, ""19065"": 32.18, ""19037"": 6.0}",Bremer|Fayette|Chickasaw,19017|19065|19037,False,False,America/Chicago,"(42.84202, -92.11746)",43.147076913562636,261911.0,701_0_yes,43.3373700877571,-91.59675437469498,40.0
50676,42.7943,-92.27895,Tripoli,IA,Iowa,True,,2388.0,16.4,19017,Bremer,"{""19017"": 100}",Bremer,19017,False,False,America/Chicago,"(42.7943, -92.27895)",50.92850442809465,261911.0,701_0_yes,43.3373700877571,-91.59675437469498,40.0
50681,42.77754,-92.00931,Westgate,IA,Iowa,True,,371.0,5.9,19065,Fayette,"{""19065"": 100}",Fayette,19065,False,False,America/Chicago,"(42.77754, -92.00931)",43.93135835771663,261911.0,701_0_yes,43.3373700877571,-91.59675437469498,40.0
52043,42.84403,-91.42201,Elkader,IA,Iowa,True,,2287.0,9.1,19043,Clayton,"{""19043"": 100}",Clayton,19043,False,False,America/Chicago,"(42.84403, -91.42201)",35.208413968595316,261911.0,701_0_yes,43.3373700877571,-91.59675437469498,40.0
52044,42.76808,-91.32328,Elkport,IA,Iowa,True,,305.0,9.3,19043,Clayton,"{""19043"": 100}",Clayton,19043,False,False,America/Chicago,"(42.76808, -91.32328)",41.68709619565118,261911.0,701_0_yes,43.3373700877571,-91.59675437469498,40.0
52047,42.96401,-91.34301,Farmersburg,IA,Iowa,True,,829.0,8.4,19043,Clayton,"{""19043"": 100}",Clayton,19043,False,False,America/Chicago,"(42.96401, -91.34301)",28.79356746039395,261911.0,701_0_yes,43.3373700877571,-91.59675437469498,40.0
52049,42.8823,-91.20521,Garnavillo,IA,Iowa,True,,1237.0,7.1,19043,Clayton,"{""19043"": 100}",Clayton,19043,False,False,America/Chicago,"(42.8823, -91.20521)",37.130525932631215,261911.0,701_0_yes,43.3373700877571,-91.59675437469498,40.0
52072,42.92022,-91.38025,Saint Olaf,IA,Iowa,True,,417.0,4.8,19043,Clayton,"{""19043"": 100}",Clayton,19043,False,False,America/Chicago,"(42.92022, -91.38025)",30.820669326296468,261911.0,701_0_yes,43.3373700877571,-91.59675437469498,40.0
52077,42.82258,-91.55393,Volga,IA,Iowa,True,,317.0,4.0,19043,Clayton,"{""19043"": 100}",Clayton,19043,False,False,America/Chicago,"(42.82258, -91.55393)",35.634202182003115,261911.0,701_0_yes,43.3373700877571,-91.59675437469498,40.0
52101,43.35741,-91.76494,Decorah,IA,Iowa,True,,13145.0,16.0,19191,Winneshiek,"{""19191"": 97.07, ""19005"": 2.93}",Winneshiek|Allamakee,19191|19005,False,False,America/Chicago,"(43.35741, -91.76494)",8.563186698566122,261911.0,701_0_yes,43.3373700877571,-91.59675437469498,40.0
52132,43.2067,-91.91881,Calmar,IA,Iowa,True,,2049.0,12.8,19191,Winneshiek,"{""19191"": 98.34, ""19089"": 1.66}",Winneshiek|Howard,19191|19089,False,False,America/Chicago,"(43.2067, -91.91881)",18.547508473223594,261911.0,701_0_yes,43.3373700877571,-91.59675437469498,40.0
52133,43.10702,-91.66854,Castalia,IA,Iowa,True,,662.0,5.8,19191,Winneshiek,"{""19191"": 70.29, ""19065"": 29.71}",Winneshiek|Fayette,19191|19065,False,False,America/Chicago,"(43.10702, -91.66854)",16.32090255878936,261911.0,701_0_yes,43.3373700877571,-91.59675437469498,40.0
52135,43.01945,-91.66204,Clermont,IA,Iowa,True,,586.0,8.1,19065,Fayette,"{""19065"": 92.49, ""19043"": 7.51}",Fayette|Clayton,19065|19043,False,False,America/Chicago,"(43.01945, -91.66204)",22.21110919185236,261911.0,701_0_yes,43.3373700877571,-91.59675437469498,40.0
52136,43.37139,-92.11289,Cresco,IA,Iowa,True,,5485.0,10.1,19089,Howard,"{""19089"": 66.89, ""19191"": 33.11}",Howard|Winneshiek,19089|19191,False,False,America/Chicago,"(43.37139, -92.11289)",26.03657527872402,261911.0,701_0_yes,43.3373700877571,-91.59675437469498,40.0
52140,43.44173,-91.53108,Dorchester,IA,Iowa,True,,474.0,2.5,19005,Allamakee,"{""19005"": 91.08, ""19191"": 8.92}",Allamakee|Winneshiek,19005|19191,False,False,America/Chicago,"(43.44173, -91.53108)",7.928817857655942,261911.0,701_0_yes,43.3373700877571,-91.59675437469498,40.0
52141,42.93924,-91.63007,Elgin,IA,Iowa,True,,1273.0,5.9,19065,Fayette,"{""19065"": 58.45, ""19043"": 41.55}",Fayette|Clayton,19065|19043,False,False,America/Chicago,"(42.93924, -91.63007)",27.55940340873957,261911.0,701_0_yes,43.3373700877571,-91.59675437469498,40.0
52142,42.82752,-91.79441,Fayette,IA,Iowa,True,,1678.0,8.6,19065,Fayette,"{""19065"": 100}",Fayette,19065,False,False,America/Chicago,"(42.82752, -91.79441)",36.612146128275,261911.0,701_0_yes,43.3373700877571,-91.59675437469498,40.0
52144,43.13961,-91.96075,Fort Atkinson,IA,Iowa,True,,1026.0,5.3,19191,Winneshiek,"{""19191"": 94.31, ""19065"": 5.69}",Winneshiek|Fayette,19191|19065,False,False,America/Chicago,"(43.13961, -91.96075)",22.85581752434105,261911.0,701_0_yes,43.3373700877571,-91.59675437469498,40.0
52146,43.18826,-91.19588,Harpers Ferry,IA,Iowa,True,,783.0,3.7,19005,Allamakee,"{""19005"": 100}",Allamakee,19005,False,False,America/Chicago,"(43.18826, -91.19588)",22.64883886998637,261911.0,701_0_yes,43.3373700877571,-91.59675437469498,40.0
52147,42.94957,-91.96106,Hawkeye,IA,Iowa,True,,1007.0,5.7,19065,Fayette,"{""19065"": 100}",Fayette,19065,False,False,America/Chicago,"(42.94957, -91.96106)",32.48452816530045,261911.0,701_0_yes,43.3373700877571,-91.59675437469498,40.0
52151,43.34706,-91.28013,Lansing,IA,Iowa,True,,1850.0,6.2,19005,Allamakee,"{""19005"": 100}",Allamakee,19005,False,False,America/Chicago,"(43.34706, -91.28013)",15.924249720735123,261911.0,701_0_yes,43.3373700877571,-91.59675437469498,40.0
52154,43.12201,-92.16519,Lawler,IA,Iowa,True,,795.0,4.2,19037,Chickasaw,"{""19037"": 98.58, ""19089"": 1.42}",Chickasaw|Howard,19037|19089,False,False,America/Chicago,"(43.12201, -92.16519)",32.253781544523264,261911.0,701_0_yes,43.3373700877571,-91.59675437469498,40.0
52155,43.41412,-92.29683,Lime Springs,IA,Iowa,True,,1608.0,6.0,19089,Howard,"{""19089"": 100}",Howard,19089,False,False,America/Chicago,"(43.41412, -92.29683)",35.556483021576206,261911.0,701_0_yes,43.3373700877571,-91.59675437469498,40.0
52156,43.05316,-91.46534,Luana,IA,Iowa,True,,529.0,4.3,19043,Clayton,"{""19043"": 72.56, ""19005"": 27.44}",Clayton|Allamakee,19043|19005,False,False,America/Chicago,"(43.05316, -91.46534)",20.722703057965113,261911.0,701_0_yes,43.3373700877571,-91.59675437469498,40.0
52157,43.01661,-91.23216,McGregor,IA,Iowa,True,,1825.0,12.4,19043,Clayton,"{""19043"": 100}",Clayton,19043,False,False,America/Chicago,"(43.01661, -91.23216)",28.7861292844458,261911.0,701_0_yes,43.3373700877571,-91.59675437469498,40.0
52158,43.04388,-91.18647,Marquette,IA,Iowa,True,,250.0,75.4,19043,Clayton,"{""19043"": 100}",Clayton,19043,False,False,America/Chicago,"(43.04388, -91.18647)",28.9545557078568,261911.0,701_0_yes,43.3373700877571,-91.59675437469498,40.0
52159,43.07979,-91.36134,Monona,IA,Iowa,True,,2412.0,12.8,19005,Allamakee,"{""19005"": 50.78, ""19043"": 49.22}",Allamakee|Clayton,19005|19043,False,False,America/Chicago,"(43.07979, -91.36134)",21.38426309517881,261911.0,701_0_yes,43.3373700877571,-91.59675437469498,40.0
52160,43.46733,-91.3521,New Albin,IA,Iowa,True,,1003.0,8.6,19005,Allamakee,"{""19005"": 100}",Allamakee,19005,False,False,America/Chicago,"(43.46733, -91.3521)",15.2139811343464,261911.0,701_0_yes,43.3373700877571,-91.59675437469498,40.0
52161,43.12733,-91.75623,Ossian,IA,Iowa,True,,1295.0,9.4,19191,Winneshiek,"{""19191"": 86.28, ""19065"": 13.72}",Winneshiek|Fayette,19191|19065,False,False,America/Chicago,"(43.12733, -91.75623)",16.58488817982753,261911.0,701_0_yes,43.3373700877571,-91.59675437469498,40.0
52162,43.11062,-91.55266,Postville,IA,Iowa,True,,3445.0,13.8,19005,Allamakee,"{""19005"": 59.92, ""19043"": 27.38, ""19191"": 9.59, ""19065"": 3.11}",Allamakee|Clayton|Winneshiek|Fayette,19005|19043|19191|19065,False,False,America/Chicago,"(43.11062, -91.55266)",15.82344649015229,261911.0,701_0_yes,43.3373700877571,-91.59675437469498,40.0
52163,43.21976,-92.10315,Protivin,IA,Iowa,True,,352.0,76.7,19089,Howard,"{""19089"": 100}",Howard,19089,False,False,America/Chicago,"(43.21976, -92.10315)",26.737433061107918,261911.0,701_0_yes,43.3373700877571,-91.59675437469498,40.0
52164,42.85212,-91.89941,Randalia,IA,Iowa,True,,315.0,4.8,19065,Fayette,"{""19065"": 100}",Fayette,19065,False,False,America/Chicago,"(42.85212, -91.89941)",36.8411456108439,261911.0,701_0_yes,43.3373700877571,-91.59675437469498,40.0
52165,43.30671,-91.98465,Ridgeway,IA,Iowa,True,,963.0,5.6,19191,Winneshiek,"{""19191"": 100}",Winneshiek,19191,False,False,America/Chicago,"(43.30671, -91.98465)",19.612715394539507,261911.0,701_0_yes,43.3373700877571,-91.59675437469498,40.0
52166,43.06791,-91.93547,Saint Lucas,IA,Iowa,True,,93.0,139.1,19065,Fayette,"{""19065"": 100}",Fayette,19065,False,False,America/Chicago,"(43.06791, -91.93547)",25.25163900310854,261911.0,701_0_yes,43.3373700877571,-91.59675437469498,40.0
52168,43.20339,-91.95338,Spillville,IA,Iowa,True,,193.0,196.7,19191,Winneshiek,"{""19191"": 100}",Winneshiek,19191,False,False,America/Chicago,"(43.20339, -91.95338)",20.18880206551347,261911.0,701_0_yes,43.3373700877571,-91.59675437469498,40.0
52169,42.84739,-91.65971,Wadena,IA,Iowa,True,,310.0,3.6,19065,Fayette,"{""19065"": 94.02, ""19043"": 5.98}",Fayette|Clayton,19065|19043,False,False,America/Chicago,"(42.84739, -91.65971)",34.003089550985806,261911.0,701_0_yes,43.3373700877571,-91.59675437469498,40.0
52170,43.22886,-91.30485,Waterville,IA,Iowa,True,,541.0,4.3,19005,Allamakee,"{""19005"": 100}",Allamakee,19005,False,False,America/Chicago,"(43.22886, -91.30485)",16.48572241283248,261911.0,701_0_yes,43.3373700877571,-91.59675437469498,40.0
52171,43.07451,-92.04808,Waucoma,IA,Iowa,True,,1144.0,5.4,19065,Fayette,"{""19065"": 50.39, ""19037"": 31.18, ""19191"": 18.43}",Fayette|Chickasaw|Winneshiek,19065|19037|19191,False,False,America/Chicago,"(43.07451, -92.04808)",29.094471403208274,261911.0,701_0_yes,43.3373700877571,-91.59675437469498,40.0
52172,43.27117,-91.48382,Waukon,IA,Iowa,True,,6051.0,14.6,19005,Allamakee,"{""19005"": 95.48, ""19191"": 4.52}",Allamakee|Winneshiek,19005|19191,False,False,America/Chicago,"(43.27117, -91.48382)",7.291496090017267,261911.0,701_0_yes,43.3373700877571,-91.59675437469498,40.0
52175,42.99372,-91.82389,West Union,IA,Iowa,True,,3630.0,16.4,19065,Fayette,"{""19065"": 100}",Fayette,19065,False,False,America/Chicago,"(42.99372, -91.82389)",26.359028366581665,261911.0,701_0_yes,43.3373700877571,-91.59675437469498,40.0
53801,42.92505,-91.06959,Bagley,WI,Wisconsin,True,,1046.0,6.8,55043,Grant,"{""55043"": 100}",Grant,55043,False,False,America/Chicago,"(42.92505, -91.06959)",38.96366328646096,261911.0,701_0_yes,43.3373700877571,-91.59675437469498,40.0
53802,42.80538,-90.89358,Beetown,WI,Wisconsin,True,,39.0,8.9,55043,Grant,"{""55043"": 100}",Grant,55043,False,False,America/Chicago,"(42.80538, -90.89358)",51.09472704061673,261911.0,701_0_yes,43.3373700877571,-91.59675437469498,40.0
53804,42.87645,-90.90798,Bloomington,WI,Wisconsin,True,,1396.0,10.3,55043,Grant,"{""55043"": 100}",Grant,55043,False,False,America/Chicago,"(42.87645, -90.90798)",47.13110437799704,261911.0,701_0_yes,43.3373700877571,-91.59675437469498,40.0
53810,42.82144,-90.9984,Glen Haven,WI,Wisconsin,True,,357.0,3.7,55043,Grant,"{""55043"": 100}",Grant,55043,False,False,America/Chicago,"(42.82144, -90.9984)",46.71781604667102,261911.0,701_0_yes,43.3373700877571,-91.59675437469498,40.0
53816,42.97794,-90.85773,Mount Hope,WI,Wisconsin,True,,911.0,5.8,55043,Grant,"{""55043"": 100}",Grant,55043,False,False,America/Chicago,"(42.97794, -90.85773)",44.76766870782727,261911.0,701_0_yes,43.3373700877571,-91.59675437469498,40.0
53817,42.94028,-90.97234,Patch Grove,WI,Wisconsin,True,,172.0,175.1,55043,Grant,"{""55043"": 100}",Grant,55043,False,False,America/Chicago,"(42.94028, -90.97234)",41.75892472006044,261911.0,701_0_yes,43.3373700877571,-91.59675437469498,40.0
53821,43.04769,-91.06569,Prairie Du Chien,WI,Wisconsin,True,,7962.0,31.8,55023,Crawford,"{""55023"": 78.66, ""55043"": 21.34}",Crawford|Grant,55023|55043,False,False,America/Chicago,"(43.04769, -91.06569)",33.40998354150668,261911.0,701_0_yes,43.3373700877571,-91.59675437469498,40.0
53826,43.12225,-90.91039,Wauzeka,WI,Wisconsin,True,,1330.0,6.5,55023,Crawford,"{""55023"": 100}",Crawford,55023,False,False,America/Chicago,"(43.12225, -90.91039)",37.61422878970513,261911.0,701_0_yes,43.3373700877571,-91.59675437469498,40.0
53827,43.05049,-90.83702,Woodman,WI,Wisconsin,True,,205.0,2.2,55043,Grant,"{""55043"": 100}",Grant,55043,False,False,America/Chicago,"(43.05049, -90.83702)",43.09769006211639,261911.0,701_0_yes,43.3373700877571,-91.59675437469498,40.0
54601,43.80199,-91.14559,La Crosse,WI,Wisconsin,True,,51063.0,261.3,55063,La Crosse,"{""55063"": 100}",La Crosse,55063,False,False,America/Chicago,"(43.80199, -91.14559)",39.251090370004874,261911.0,701_0_yes,43.3373700877571,-91.59675437469498,40.0
54603,43.85729,-91.24791,La Crosse,WI,Wisconsin,True,,13770.0,600.3,55063,La Crosse,"{""55063"": 100}",La Crosse,55063,False,False,America/Chicago,"(43.85729, -91.24791)",39.939293985479786,261911.0,701_0_yes,43.3373700877571,-91.59675437469498,40.0
54614,43.90242,-90.9729,Bangor,WI,Wisconsin,True,,2548.0,12.5,55063,La Crosse,"{""55063"": 100}",La Crosse,55063,False,False,America/Chicago,"(43.90242, -90.9729)",49.97907079980728,261911.0,701_0_yes,43.3373700877571,-91.59675437469498,40.0
54621,43.65632,-91.08199,Chaseburg,WI,Wisconsin,True,,1350.0,14.3,55123,Vernon,"{""55123"": 100}",Vernon,55123,False,False,America/Chicago,"(43.65632, -91.08199)",33.930924330482746,261911.0,701_0_yes,43.3373700877571,-91.59675437469498,40.0
54623,43.72894,-91.03065,Coon Valley,WI,Wisconsin,True,,2142.0,16.3,55063,La Crosse,"{""55063"": 57.41, ""55123"": 42.59}",La Crosse|Vernon,55063|55123,False,False,America/Chicago,"(43.72894, -91.03065)",39.19259614861348,261911.0,701_0_yes,43.3373700877571,-91.59675437469498,40.0
54624,43.46575,-91.14066,De Soto,WI,Wisconsin,True,,1530.0,9.0,55123,Vernon,"{""55123"": 85.86, ""55023"": 14.14}",Vernon|Crawford,55123|55023,False,False,America/Chicago,"(43.46575, -91.14066)",24.554171484298173,261911.0,701_0_yes,43.3373700877571,-91.59675437469498,40.0
54626,43.2162,-91.03608,Eastman,WI,Wisconsin,True,,1289.0,7.0,55023,Crawford,"{""55023"": 100}",Crawford,55023,False,False,America/Chicago,"(43.2162, -91.03608)",29.420169906239128,261911.0,701_0_yes,43.3373700877571,-91.59675437469498,40.0
54628,43.37572,-91.02618,Ferryville,WI,Wisconsin,True,,924.0,4.8,55023,Crawford,"{""55023"": 91.49, ""55123"": 8.51}",Crawford|Vernon,55023|55123,False,False,America/Chicago,"(43.37572, -91.02618)",28.786393438859335,261911.0,701_0_yes,43.3373700877571,-91.59675437469498,40.0
54631,43.28795,-90.8327,Gays Mills,WI,Wisconsin,True,,1668.0,6.2,55023,Crawford,"{""55023"": 100}",Crawford,55023,False,False,America/Chicago,"(43.28795, -90.8327)",38.56327771370973,261911.0,701_0_yes,43.3373700877571,-91.59675437469498,40.0
54632,43.56249,-91.14695,Genoa,WI,Wisconsin,True,,1210.0,10.0,55123,Vernon,"{""55123"": 100}",Vernon,55123,False,False,America/Chicago,"(43.56249, -91.14695)",27.404157566192538,261911.0,701_0_yes,43.3373700877571,-91.59675437469498,40.0
54645,43.32084,-90.92901,Mount Sterling,WI,Wisconsin,True,,56.0,31.2,55023,Crawford,"{""55023"": 100}",Crawford,55023,False,False,America/Chicago,"(43.32084, -90.92901)",33.580324770502344,261911.0,701_0_yes,43.3373700877571,-91.59675437469498,40.0
54650,43.9099,-91.22424,Onalaska,WI,Wisconsin,True,,24794.0,309.7,55063,La Crosse,"{""55063"": 100}",La Crosse,55063,False,False,America/Chicago,"(43.9099, -91.22424)",43.726025316243664,261911.0,701_0_yes,43.3373700877571,-91.59675437469498,40.0
54653,43.82586,-90.9129,Rockland,WI,Wisconsin,True,,910.0,16.3,55063,La Crosse,"{""55063"": 60.9, ""55081"": 39.1}",La Crosse|Monroe,55063|55081,False,False,America/Chicago,"(43.82586, -90.9129)",48.069172517360386,261911.0,701_0_yes,43.3373700877571,-91.59675437469498,40.0
54654,43.26853,-90.95419,Seneca,WI,Wisconsin,True,,291.0,306.3,55023,Crawford,"{""55023"": 100}",Crawford,55023,False,False,America/Chicago,"(43.26853, -90.95419)",32.65747964475174,261911.0,701_0_yes,43.3373700877571,-91.59675437469498,40.0
54657,43.19447,-90.90678,Steuben,WI,Wisconsin,True,,368.0,4.9,55023,Crawford,"{""55023"": 100}",Crawford,55023,False,False,America/Chicago,"(43.19447, -90.90678)",36.09100109258934,261911.0,701_0_yes,43.3373700877571,-91.59675437469498,40.0
54658,43.67768,-91.19248,Stoddard,WI,Wisconsin,True,,2586.0,28.1,55123,Vernon,"{""55123"": 93.78, ""55063"": 6.22}",Vernon|La Crosse,55123|55063,False,False,America/Chicago,"(43.67768, -91.19248)",31.037023465564477,261911.0,701_0_yes,43.3373700877571,-91.59675437469498,40.0
54665,43.5319,-90.92134,Viroqua,WI,Wisconsin,True,,8476.0,18.1,55123,Vernon,"{""55123"": 99.02, ""55023"": 0.98}",Vernon|Crawford,55123|55023,False,False,America/Chicago,"(43.5319, -90.92134)",36.455479338697145,261911.0,701_0_yes,43.3373700877571,-91.59675437469498,40.0
54667,43.66703,-90.86166,Westby,WI,Wisconsin,True,,4885.0,21.2,55123,Vernon,"{""55123"": 96.66, ""55063"": 3.34}",Vernon|La Crosse,55123|55063,False,False,America/Chicago,"(43.66703, -90.86166)",43.31293793486036,261911.0,701_0_yes,43.3373700877571,-91.59675437469498,40.0
54669,43.91171,-91.09046,West Salem,WI,Wisconsin,True,,7825.0,58.5,55063,La Crosse,"{""55063"": 100}",La Crosse,55063,False,False,America/Chicago,"(43.91171, -91.09046)",47.07386883094913,261911.0,701_0_yes,43.3373700877571,-91.59675437469498,40.0
55919,43.61443,-91.2941,Brownsville,MN,Minnesota,True,,1070.0,9.2,27055,Houston,"{""27055"": 100}",Houston,27055,False,False,America/Chicago,"(43.61443, -91.2941)",24.427927534285626,261911.0,701_0_yes,43.3373700877571,-91.59675437469498,40.0
55921,43.62265,-91.46388,Caledonia,MN,Minnesota,True,,4649.0,10.2,27055,Houston,"{""27055"": 100}",Houston,27055,False,False,America/Chicago,"(43.62265, -91.46388)",20.806243610250803,261911.0,701_0_yes,43.3373700877571,-91.59675437469498,40.0
55922,43.5621,-91.89562,Canton,MN,Minnesota,True,,1196.0,14.1,27045,Fillmore,"{""27045"": 100}",Fillmore,27045,False,False,America/Chicago,"(43.5621, -91.89562)",21.583171844463603,261911.0,701_0_yes,43.3373700877571,-91.59675437469498,40.0
55923,43.8494,-92.18315,Chatfield,MN,Minnesota,True,,4268.0,13.1,27045,Fillmore,"{""27045"": 50.36, ""27109"": 46.39, ""27169"": 3.25}",Fillmore|Olmsted|Winona,27045|27109|27169,False,False,America/Chicago,"(43.8494, -92.18315)",45.96336660204948,261911.0,701_0_yes,43.3373700877571,-91.59675437469498,40.0
55925,43.90962,-91.46503,Dakota,MN,Minnesota,True,,1220.0,15.3,27169,Winona,"{""27169"": 100}",Winona,27169,False,False,America/Chicago,"(43.90962, -91.46503)",40.083832949275376,261911.0,701_0_yes,43.3373700877571,-91.59675437469498,40.0
55931,43.51424,-91.39703,Eitzen,MN,Minnesota,True,,359.0,7.6,27055,Houston,"{""27055"": 100}",Houston,27055,False,False,America/Chicago,"(43.51424, -91.39703)",15.804615394727664,261911.0,701_0_yes,43.3373700877571,-91.59675437469498,40.0
55935,43.74737,-92.12734,Fountain,MN,Minnesota,True,,927.0,7.1,27045,Fillmore,"{""27045"": 100}",Fillmore,27045,False,False,America/Chicago,"(43.74737, -92.12734)",38.84110802915458,261911.0,701_0_yes,43.3373700877571,-91.59675437469498,40.0
55939,43.54682,-92.08144,Harmony,MN,Minnesota,True,,1941.0,8.1,27045,Fillmore,"{""27045"": 100}",Fillmore,27045,False,False,America/Chicago,"(43.54682, -92.08144)",28.29567009400289,261911.0,701_0_yes,43.3373700877571,-91.59675437469498,40.0
55941,43.72558,-91.35382,Hokah,MN,Minnesota,True,,1008.0,14.7,27055,Houston,"{""27055"": 100}",Houston,27055,False,False,America/Chicago,"(43.72558, -91.35382)",29.454145286981046,261911.0,701_0_yes,43.3373700877571,-91.59675437469498,40.0
55943,43.7903,-91.58343,Houston,MN,Minnesota,True,,2946.0,6.7,27055,Houston,"{""27055"": 80.5, ""27169"": 19.5}",Houston|Winona,27055|27169,False,False,America/Chicago,"(43.7903, -91.58343)",31.301585331457716,261911.0,701_0_yes,43.3373700877571,-91.59675437469498,40.0
55947,43.82412,-91.35666,La Crescent,MN,Minnesota,True,,7357.0,38.7,27055,Houston,"{""27055"": 65.11, ""27169"": 34.89}",Houston|Winona,27055|27169,False,False,America/Chicago,"(43.82412, -91.35666)",35.713663325961534,261911.0,701_0_yes,43.3373700877571,-91.59675437469498,40.0
55949,43.71156,-91.94032,Lanesboro,MN,Minnesota,True,,1852.0,6.3,27045,Fillmore,"{""27045"": 100}",Fillmore,27045,False,False,America/Chicago,"(43.71156, -91.94032)",31.05934164017424,261911.0,701_0_yes,43.3373700877571,-91.59675437469498,40.0
55954,43.56422,-91.78455,Mabel,MN,Minnesota,True,,1326.0,7.1,27045,Fillmore,"{""27045"": 87.57, ""27055"": 12.43}",Fillmore|Houston,27045|27055,False,False,America/Chicago,"(43.56422, -91.78455)",18.28660148584278,261911.0,701_0_yes,43.3373700877571,-91.59675437469498,40.0
55962,43.76213,-91.84219,Peterson,MN,Minnesota,True,,810.0,5.0,27045,Fillmore,"{""27045"": 95.48, ""27169"": 4.52}",Fillmore|Winona,27045|27169,False,False,America/Chicago,"(43.76213, -91.84219)",31.81778823148283,261911.0,701_0_yes,43.3373700877571,-91.59675437469498,40.0
55965,43.62913,-92.13282,Preston,MN,Minnesota,True,,2294.0,8.2,27045,Fillmore,"{""27045"": 100}",Fillmore,27045,False,False,America/Chicago,"(43.62913, -92.13282)",33.59453773087428,261911.0,701_0_yes,43.3373700877571,-91.59675437469498,40.0
55971,43.81968,-91.75527,Rushford,MN,Minnesota,True,,2848.0,13.0,27045,Fillmore,"{""27045"": 43.81, ""27169"": 38.03, ""27055"": 18.17}",Fillmore|Winona|Houston,27045|27169|27055,False,False,America/Chicago,"(43.81968, -91.75527)",34.2559356811236,261911.0,701_0_yes,43.3373700877571,-91.59675437469498,40.0
55974,43.57968,-91.64382,Spring Grove,MN,Minnesota,True,,2180.0,10.2,27055,Houston,"{""27055"": 96.03, ""27045"": 3.97}",Houston|Fillmore,27055|27045,False,False,America/Chicago,"(43.57968, -91.64382)",16.907604549127743,261911.0,701_0_yes,43.3373700877571,-91.59675437469498,40.0
55975,43.67569,-92.37296,Spring Valley,MN,Minnesota,True,,4475.0,10.8,27045,Fillmore,"{""27045"": 88.07, ""27099"": 11.93}",Fillmore|Mower,27045|27099,False,False,America/Chicago,"(43.67569, -92.37296)",45.381268157449114,261911.0,701_0_yes,43.3373700877571,-91.59675437469498,40.0
55990,43.7285,-92.2591,Wykoff,MN,Minnesota,True,,937.0,8.4,27045,Fillmore,"{""27045"": 100}",Fillmore,27045,False,False,America/Chicago,"(43.7285, -92.2591)",42.79092340388366,261911.0,701_0_yes,43.3373700877571,-91.59675437469498,40.0
