zip,lat,lng,city,state_id,state_name,zcta,parent_zcta,population,density,county_fips,county_name,county_weights,county_names_all,county_fips_all,imprecise,military,timezone,Coord,distance_miles,market_total_population,market_id,market_center_lat,market_center_lng,radius_miles
82442,43.92096,-107.31087,Ten Sleep,WY,Wyoming,True,,776.0,0.5,56043,Washakie,"{""56043"": 100}",Washakie,56043,False,False,America/Denver,"(43.92096, -107.31087)",32.14778025642852,10865.0,747_0_no,44.02332222203359,-106.68019625779006,40.0
82639,43.73555,-106.6978,Kaycee,WY,Wyoming,True,,762.0,0.3,56019,Johnson,"{""56019"": 94.35, ""56025"": 5.65}",Johnson|Natrona,56019|56025,False,False,America/Denver,"(43.73555, -106.6978)",19.902485632354544,10865.0,747_0_no,44.02332222203359,-106.68019625779006,40.0
82640,43.55214,-106.11811,Linch,WY,Wyoming,True,,208.0,3.1,56019,Johnson,"{""56019"": 99.8, ""56005"": 0.2}",Johnson|Campbell,56019|56005,False,False,America/Denver,"(43.55214, -106.11811)",42.963761287105655,10865.0,747_0_no,44.02332222203359,-106.68019625779006,40.0
82832,44.59442,-106.75233,Banner,WY,Wyoming,True,,970.0,2.8,56033,Sheridan,"{""56033"": 79.4, ""56019"": 20.6}",Sheridan|Johnson,56033|56019,False,False,America/Denver,"(44.59442, -106.75233)",39.61993913330372,10865.0,747_0_no,44.02332222203359,-106.68019625779006,40.0
82834,44.25386,-106.74481,Buffalo,WY,Wyoming,True,,7344.0,1.7,56019,Johnson,"{""56019"": 100}",Johnson,56019,False,False,America/Denver,"(44.25386, -106.74481)",16.247664111472293,10865.0,747_0_no,44.02332222203359,-106.68019625779006,40.0
82842,44.57143,-106.93956,Story,WY,Wyoming,True,,805.0,34.5,56033,Sheridan,"{""56033"": 100}",Sheridan,56033,False,False,America/Denver,"(44.57143, -106.93956)",39.983587291487204,10865.0,747_0_no,44.02332222203359,-106.68019625779006,40.0
