zip,lat,lng,city,state_id,state_name,zcta,parent_zcta,population,density,county_fips,county_name,county_weights,county_names_all,county_fips_all,imprecise,military,timezone,Coord,distance_miles,market_total_population,market_id,market_center_lat,market_center_lng,radius_miles
97720,43.58799,-118.85806,Burns,OR,Oregon,True,,4383.0,1.4,41025,Harney,"{""41025"": 100}",Harney,41025,False,False,America/Los_Angeles,"(43.58799, -118.85806)",49.6128832887362,10043.0,755_0_no,44.1137451258856,-119.53624907552614,40.0
97750,44.67037,-120.12704,Mitchell,OR,Oregon,True,,340.0,0.2,41069,Wheeler,"{""41069"": 100}",Wheeler,41069,False,False,America/Los_Angeles,"(44.67037, -120.12704)",48.2688219427386,10043.0,755_0_no,44.1137451258856,-119.53624907552614,40.0
97751,44.14856,-119.81945,Paulina,OR,Oregon,True,,62.0,0.1,41013,Crook,"{""41013"": 100}",Crook,41013,False,False,America/Los_Angeles,"(44.14856, -119.81945)",14.248905783650212,10043.0,755_0_no,44.1137451258856,-119.53624907552614,40.0
97820,44.16327,-119.21436,Canyon City,OR,Oregon,True,,985.0,1.0,41023,Grant,"{""41023"": 100}",Grant,41023,False,False,America/Los_Angeles,"(44.16327, -119.21436)",16.323690159307368,10043.0,755_0_no,44.1137451258856,-119.53624907552614,40.0
97825,44.38804,-119.51852,Dayville,OR,Oregon,True,,336.0,0.5,41023,Grant,"{""41023"": 100}",Grant,41023,False,False,America/Los_Angeles,"(44.38804, -119.51852)",18.972271059534194,10043.0,755_0_no,44.1137451258856,-119.53624907552614,40.0
97845,44.41445,-118.90372,John Day,OR,Oregon,True,,2152.0,7.3,41023,Grant,"{""41023"": 100}",Grant,41023,False,False,America/Los_Angeles,"(44.41445, -118.90372)",37.56581338167293,10043.0,755_0_no,44.1137451258856,-119.53624907552614,40.0
97865,44.42949,-119.19192,Mount Vernon,OR,Oregon,True,,1511.0,1.6,41023,Grant,"{""41023"": 100}",Grant,41023,False,False,America/Los_Angeles,"(44.42949, -119.19192)",27.67900680837028,10043.0,755_0_no,44.1137451258856,-119.53624907552614,40.0
97873,44.12837,-118.99505,Seneca,OR,Oregon,True,,274.0,1.0,41023,Grant,"{""41023"": 100}",Grant,41023,False,False,America/Los_Angeles,"(44.12837, -118.99505)",26.862506098089487,10043.0,755_0_no,44.1137451258856,-119.53624907552614,40.0
