zip,lat,lng,city,state_id,state_name,zcta,parent_zcta,population,density,county_fips,county_name,county_weights,county_names_all,county_fips_all,imprecise,military,timezone,Coord,distance_miles,market_total_population,market_id,market_center_lat,market_center_lng,radius_miles
03570,44.49953,-71.20396,Berlin,NH,New Hampshire,True,,10025.0,28.2,33007,Coos,"{""33007"": 100}",Coos,33007,False,False,America/New_York,"(44.49953, -71.20396)",49.309814389634035,129014.0,762_0_no,44.93119048288114,-72.00373908173306,40.0
03576,44.89839,-71.37178,Colebrook,NH,New Hampshire,True,,2718.0,6.2,33007,Coos,"{""33007"": 100}",Coos,33007,False,False,America/New_York,"(44.89839, -71.37178)",31.004005600400678,129014.0,762_0_no,44.93119048288114,-72.00373908173306,40.0
03582,44.59777,-71.43703,Groveton,NH,New Hampshire,True,,2077.0,9.7,33007,Coos,"{""33007"": 100}",Coos,33007,False,False,America/New_York,"(44.59777, -71.43703)",36.105294214337654,129014.0,762_0_no,44.93119048288114,-72.00373908173306,40.0
03583,44.40148,-71.4583,Jefferson,NH,New Hampshire,True,,942.0,6.5,33007,Coos,"{""33007"": 100}",Coos,33007,False,False,America/New_York,"(44.40148, -71.4583)",45.36406838496884,129014.0,762_0_no,44.93119048288114,-72.00373908173306,40.0
03584,44.48696,-71.54278,Lancaster,NH,New Hampshire,True,,3570.0,22.2,33007,Coos,"{""33007"": 100}",Coos,33007,False,False,America/New_York,"(44.48696, -71.54278)",38.13674087550548,129014.0,762_0_no,44.93119048288114,-72.00373908173306,40.0
03588,44.60545,-71.23204,Milan,NH,New Hampshire,True,,1535.0,5.3,33007,Coos,"{""33007"": 100}",Coos,33007,False,False,America/New_York,"(44.60545, -71.23204)",44.03962462562836,129014.0,762_0_no,44.93119048288114,-72.00373908173306,40.0
03590,44.74195,-71.51485,North Stratford,NH,New Hampshire,True,,1173.0,4.1,33007,Coos,"{""33007"": 100}",Coos,33007,False,False,America/New_York,"(44.74195, -71.51485)",27.28964256132381,129014.0,762_0_no,44.93119048288114,-72.00373908173306,40.0
03592,45.1128,-71.25493,Pittsburg,NH,New Hampshire,True,,1147.0,1.2,33007,Coos,"{""33007"": 100}",Coos,33007,False,False,America/New_York,"(45.1128, -71.25493)",38.66277517859902,129014.0,762_0_no,44.93119048288114,-72.00373908173306,40.0
03597,44.73439,-71.38243,West Stewartstown,NH,New Hampshire,True,,490.0,4.2,33007,Coos,"{""33007"": 100}",Coos,33007,False,False,America/New_York,"(44.73439, -71.38243)",33.34197908332241,129014.0,762_0_no,44.93119048288114,-72.00373908173306,40.0
03598,44.37998,-71.63179,Whitefield,NH,New Hampshire,True,,3173.0,20.0,33007,Coos,"{""33007"": 100}",Coos,33007,False,False,America/New_York,"(44.37998, -71.63179)",42.245154697549836,129014.0,762_0_no,44.93119048288114,-72.00373908173306,40.0
05441,44.7686,-72.78669,Bakersfield,VT,Vermont,True,,844.0,26.9,50011,Franklin,"{""50011"": 100}",Franklin,50011,False,False,America/New_York,"(44.7686, -72.78669)",39.9635108298443,129014.0,762_0_no,44.93119048288114,-72.00373908173306,40.0
05442,44.76164,-72.68043,Belvidere Center,VT,Vermont,True,,400.0,4.3,50015,Lamoille,"{""50015"": 100}",Lamoille,50015,False,False,America/New_York,"(44.76164, -72.68043)",35.15817245700846,129014.0,762_0_no,44.93119048288114,-72.00373908173306,40.0
05447,44.93615,-72.70447,East Berkshire,VT,Vermont,True,,86.0,33.6,50011,Franklin,"{""50011"": 100}",Franklin,50011,False,False,America/New_York,"(44.93615, -72.70447)",34.276424158835965,129014.0,762_0_no,44.93119048288114,-72.00373908173306,40.0
05450,44.89075,-72.79074,Enosburg Falls,VT,Vermont,True,,5073.0,13.8,50011,Franklin,"{""50011"": 100}",Franklin,50011,False,False,America/New_York,"(44.89075, -72.79074)",38.61083335812804,129014.0,762_0_no,44.93119048288114,-72.00373908173306,40.0
05464,44.65469,-72.81897,Jeffersonville,VT,Vermont,True,,3263.0,22.4,50015,Lamoille,"{""50015"": 75.52, ""50011"": 24.48}",Lamoille|Franklin,50015|50011,False,False,America/New_York,"(44.65469, -72.81897)",44.303357248660845,129014.0,762_0_no,44.93119048288114,-72.00373908173306,40.0
05471,44.85739,-72.58942,Montgomery Center,VT,Vermont,True,,656.0,5.2,50011,Franklin,"{""50011"": 92.71, ""50019"": 7.29}",Franklin|Orleans,50011|50019,False,False,America/New_York,"(44.85739, -72.58942)",29.116921623502602,129014.0,762_0_no,44.93119048288114,-72.00373908173306,40.0
05476,44.96055,-72.6457,Richford,VT,Vermont,True,,3226.0,19.4,50011,Franklin,"{""50011"": 100}",Franklin,50011,False,False,America/New_York,"(44.96055, -72.6457)",31.458920107059228,129014.0,762_0_no,44.93119048288114,-72.00373908173306,40.0
05492,44.71324,-72.75853,Waterville,VT,Vermont,True,,740.0,16.3,50015,Lamoille,"{""50015"": 100}",Lamoille,50015,False,False,America/New_York,"(44.71324, -72.75853)",39.93823179827554,129014.0,762_0_no,44.93119048288114,-72.00373908173306,40.0
05647,44.41001,-72.29126,Cabot,VT,Vermont,True,,1155.0,16.4,50023,Washington,"{""50023"": 100}",Washington,50023,False,False,America/New_York,"(44.41001, -72.29126)",38.682277306447546,129014.0,762_0_no,44.93119048288114,-72.00373908173306,40.0
05648,44.38372,-72.49355,Calais,VT,Vermont,True,,429.0,17.9,50023,Washington,"{""50023"": 100}",Washington,50023,False,False,America/New_York,"(44.38372, -72.49355)",44.83687024454385,129014.0,762_0_no,44.93119048288114,-72.00373908173306,40.0
05650,44.4002,-72.44235,East Calais,VT,Vermont,True,,1095.0,17.8,50023,Washington,"{""50023"": 100}",Washington,50023,False,False,America/New_York,"(44.4002, -72.44235)",42.55056062571437,129014.0,762_0_no,44.93119048288114,-72.00373908173306,40.0
05652,44.72824,-72.58674,Eden,VT,Vermont,True,,610.0,7.5,50015,Lamoille,"{""50015"": 100}",Lamoille,50015,False,False,America/New_York,"(44.72824, -72.58674)",31.82370045437677,129014.0,762_0_no,44.93119048288114,-72.00373908173306,40.0
05653,44.70141,-72.49275,Eden Mills,VT,Vermont,True,,644.0,7.9,50015,Lamoille,"{""50015"": 100}",Lamoille,50015,False,False,America/New_York,"(44.70141, -72.49275)",28.749056625522442,129014.0,762_0_no,44.93119048288114,-72.00373908173306,40.0
05655,44.62461,-72.56462,Hyde Park,VT,Vermont,True,,2930.0,30.0,50015,Lamoille,"{""50015"": 100}",Lamoille,50015,False,False,America/New_York,"(44.62461, -72.56462)",34.71919326805512,129014.0,762_0_no,44.93119048288114,-72.00373908173306,40.0
05656,44.64898,-72.68825,Johnson,VT,Vermont,True,,3625.0,29.6,50015,Lamoille,"{""50015"": 100}",Lamoille,50015,False,False,America/New_York,"(44.64898, -72.68825)",38.817572361182215,129014.0,762_0_no,44.93119048288114,-72.00373908173306,40.0
05658,44.35921,-72.35399,Marshfield,VT,Vermont,True,,1592.0,15.9,50023,Washington,"{""50023"": 100}",Washington,50023,False,False,America/New_York,"(44.35921, -72.35399)",43.10770724039463,129014.0,762_0_no,44.93119048288114,-72.00373908173306,40.0
05661,44.53743,-72.61724,Morrisville,VT,Vermont,True,,6013.0,35.6,50015,Lamoille,"{""50015"": 100}",Lamoille,50015,False,False,America/New_York,"(44.53743, -72.61724)",40.5820467599414,129014.0,762_0_no,44.93119048288114,-72.00373908173306,40.0
05672,44.48151,-72.72174,Stowe,VT,Vermont,True,,4447.0,23.6,50015,Lamoille,"{""50015"": 100}",Lamoille,50015,False,False,America/New_York,"(44.48151, -72.72174)",46.994210065867804,129014.0,762_0_no,44.93119048288114,-72.00373908173306,40.0
05677,44.39194,-72.70841,Waterbury Center,VT,Vermont,True,,2330.0,57.3,50023,Washington,"{""50023"": 100}",Washington,50023,False,False,America/New_York,"(44.39194, -72.70841)",50.866826667847135,129014.0,762_0_no,44.93119048288114,-72.00373908173306,40.0
05680,44.53785,-72.46838,Wolcott,VT,Vermont,True,,2104.0,12.5,50015,Lamoille,"{""50015"": 97.72, ""50023"": 2.28}",Lamoille|Washington,50015|50023,False,False,America/New_York,"(44.53785, -72.46838)",35.47801809744404,129014.0,762_0_no,44.93119048288114,-72.00373908173306,40.0
05681,44.45377,-72.38016,Woodbury,VT,Vermont,True,,373.0,10.7,50023,Washington,"{""50023"": 100}",Washington,50023,False,False,America/New_York,"(44.45377, -72.38016)",37.81470866626463,129014.0,762_0_no,44.93119048288114,-72.00373908173306,40.0
05682,44.40354,-72.57219,Worcester,VT,Vermont,True,,1284.0,10.9,50023,Washington,"{""50023"": 100}",Washington,50023,False,False,America/New_York,"(44.40354, -72.57219)",45.92784622602623,129014.0,762_0_no,44.93119048288114,-72.00373908173306,40.0
05819,44.40397,-71.98837,Saint Johnsbury,VT,Vermont,True,,8980.0,39.1,50005,Caledonia,"{""50005"": 100}",Caledonia,50005,False,False,America/New_York,"(44.40397, -71.98837)",36.43529337909283,129014.0,762_0_no,44.93119048288114,-72.00373908173306,40.0
05820,44.74862,-72.37351,Albany,VT,Vermont,True,,434.0,12.5,50019,Orleans,"{""50019"": 100}",Orleans,50019,False,False,America/New_York,"(44.74862, -72.37351)",22.075206330509907,129014.0,762_0_no,44.93119048288114,-72.00373908173306,40.0
05822,44.75555,-72.15478,Barton,VT,Vermont,True,,1289.0,11.7,50019,Orleans,"{""50019"": 100}",Orleans,50019,False,False,America/New_York,"(44.75555, -72.15478)",14.213539796600061,129014.0,762_0_no,44.93119048288114,-72.00373908173306,40.0
05824,44.43741,-71.86449,Concord,VT,Vermont,True,,1090.0,8.2,50009,Essex,"{""50009"": 68.97, ""50005"": 31.03}",Essex|Caledonia,50009|50005,False,False,America/New_York,"(44.43741, -71.86449)",34.79599157442602,129014.0,762_0_no,44.93119048288114,-72.00373908173306,40.0
05825,44.86019,-72.25664,Coventry,VT,Vermont,True,,95.0,37.3,50019,Orleans,"{""50019"": 100}",Orleans,50019,False,False,America/New_York,"(44.86019, -72.25664)",13.314949639014078,129014.0,762_0_no,44.93119048288114,-72.00373908173306,40.0
05826,44.6444,-72.40404,Craftsbury,VT,Vermont,True,,801.0,10.7,50019,Orleans,"{""50019"": 100}",Orleans,50019,False,False,America/New_York,"(44.6444, -72.40404)",27.89199899305351,129014.0,762_0_no,44.93119048288114,-72.00373908173306,40.0
05827,44.68135,-72.36198,Craftsbury Common,VT,Vermont,True,,304.0,7.0,50019,Orleans,"{""50019"": 100}",Orleans,50019,False,False,America/New_York,"(44.68135, -72.36198)",24.624992029959454,129014.0,762_0_no,44.93119048288114,-72.00373908173306,40.0
05828,44.43748,-72.12334,Danville,VT,Vermont,True,,2025.0,14.0,50005,Caledonia,"{""50005"": 100}",Caledonia,50005,False,False,America/New_York,"(44.43748, -72.12334)",34.61441413323134,129014.0,762_0_no,44.93119048288114,-72.00373908173306,40.0
05829,44.95349,-72.0759,Derby,VT,Vermont,True,,1889.0,30.6,50019,Orleans,"{""50019"": 100}",Orleans,50019,False,False,America/New_York,"(44.95349, -72.0759)",3.8507464573542514,129014.0,762_0_no,44.93119048288114,-72.00373908173306,40.0
05830,44.97717,-71.98278,Derby Line,VT,Vermont,True,,1170.0,13.5,50019,Orleans,"{""50019"": 100}",Orleans,50019,False,False,America/New_York,"(44.97717, -71.98278)",3.338083770923588,129014.0,762_0_no,44.93119048288114,-72.00373908173306,40.0
05832,44.59546,-71.91027,East Burke,VT,Vermont,True,,1079.0,16.6,50005,Caledonia,"{""50005"": 99.89, ""50009"": 0.11}",Caledonia|Essex,50005|50009,False,False,America/New_York,"(44.59546, -71.91027)",23.645624388435703,129014.0,762_0_no,44.93119048288114,-72.00373908173306,40.0
05833,44.83182,-71.96965,East Charleston,VT,Vermont,True,,138.0,46.8,50019,Orleans,"{""50019"": 99.89, ""50009"": 0.11}",Orleans|Essex,50019|50009,False,False,America/New_York,"(44.83182, -71.96965)",7.065770283246442,129014.0,762_0_no,44.93119048288114,-72.00373908173306,40.0
05836,44.5196,-72.25173,East Hardwick,VT,Vermont,True,,1311.0,15.4,50005,Caledonia,"{""50005"": 100}",Caledonia,50005,False,False,America/New_York,"(44.5196, -72.25173)",30.934310498855005,129014.0,762_0_no,44.93119048288114,-72.00373908173306,40.0
05837,44.66868,-71.8386,East Haven,VT,Vermont,True,,347.0,2.7,50009,Essex,"{""50009"": 75.11, ""50005"": 24.89}",Essex|Caledonia,50009|50005,False,False,America/New_York,"(44.66868, -71.8386)",19.86268588588961,129014.0,762_0_no,44.93119048288114,-72.00373908173306,40.0
05839,44.67342,-72.21171,Glover,VT,Vermont,True,,802.0,13.0,50019,Orleans,"{""50019"": 98.41, ""50005"": 1.59}",Orleans|Caledonia,50019|50005,False,False,America/New_York,"(44.67342, -72.21171)",20.52210076848534,129014.0,762_0_no,44.93119048288114,-72.00373908173306,40.0
05841,44.60794,-72.30232,Greensboro,VT,Vermont,True,,377.0,6.0,50019,Orleans,"{""50019"": 100}",Orleans,50019,False,False,America/New_York,"(44.60794, -72.30232)",26.708354157213442,129014.0,762_0_no,44.93119048288114,-72.00373908173306,40.0
05842,44.57966,-72.24453,Greensboro Bend,VT,Vermont,True,,462.0,9.8,50019,Orleans,"{""50019"": 65.31, ""50005"": 34.69}",Orleans|Caledonia,50019|50005,False,False,America/New_York,"(44.57966, -72.24453)",27.00933452998767,129014.0,762_0_no,44.93119048288114,-72.00373908173306,40.0
05843,44.50355,-72.33366,Hardwick,VT,Vermont,True,,2253.0,18.7,50005,Caledonia,"{""50005"": 87.72, ""50023"": 12.28}",Caledonia|Washington,50005|50023,False,False,America/New_York,"(44.50355, -72.33366)",33.69578625745298,129014.0,762_0_no,44.93119048288114,-72.00373908173306,40.0
05845,44.79146,-72.30699,Irasburg,VT,Vermont,True,,1481.0,13.3,50019,Orleans,"{""50019"": 100}",Orleans,50019,False,False,America/New_York,"(44.79146, -72.30699)",17.71375223348306,129014.0,762_0_no,44.93119048288114,-72.00373908173306,40.0
05846,44.82671,-71.82795,Island Pond,VT,Vermont,True,,1173.0,4.4,50009,Essex,"{""50009"": 93.51, ""50019"": 6.49}",Essex|Orleans,50009|50019,False,False,America/New_York,"(44.82671, -71.82795)",11.233224833348391,129014.0,762_0_no,44.93119048288114,-72.00373908173306,40.0
05847,44.79165,-72.45679,Lowell,VT,Vermont,True,,965.0,6.6,50019,Orleans,"{""50019"": 100}",Orleans,50019,False,False,America/New_York,"(44.79165, -72.45679)",24.192080374552248,129014.0,762_0_no,44.93119048288114,-72.00373908173306,40.0
05850,44.55955,-72.03417,Lyndon Center,VT,Vermont,True,,249.0,68.8,50005,Caledonia,"{""50005"": 100}",Caledonia,50005,False,False,America/New_York,"(44.55955, -72.03417)",25.721298038716466,129014.0,762_0_no,44.93119048288114,-72.00373908173306,40.0
05851,44.55297,-72.05732,Lyndonville,VT,Vermont,True,,6212.0,29.3,50005,Caledonia,"{""50005"": 100}",Caledonia,50005,False,False,America/New_York,"(44.55297, -72.05732)",26.26450651055636,129014.0,762_0_no,44.93119048288114,-72.00373908173306,40.0
05853,44.89499,-71.96167,Morgan,VT,Vermont,True,,625.0,8.3,50019,Orleans,"{""50019"": 100}",Orleans,50019,False,False,America/New_York,"(44.89499, -71.96167)",3.239341765055172,129014.0,762_0_no,44.93119048288114,-72.00373908173306,40.0
05855,44.92829,-72.1943,Newport,VT,Vermont,True,,6819.0,44.5,50019,Orleans,"{""50019"": 100}",Orleans,50019,False,False,America/New_York,"(44.92829, -72.1943)",9.32368675702657,129014.0,762_0_no,44.93119048288114,-72.00373908173306,40.0
05857,44.93381,-72.3092,Newport Center,VT,Vermont,True,,2724.0,26.4,50019,Orleans,"{""50019"": 100}",Orleans,50019,False,False,America/New_York,"(44.93381, -72.3092)",14.942387002521077,129014.0,762_0_no,44.93119048288114,-72.00373908173306,40.0
05858,44.53587,-71.8046,North Concord,VT,Vermont,True,,417.0,2.5,50009,Essex,"{""50009"": 100}",Essex,50009,False,False,America/New_York,"(44.53587, -71.8046)",29.01023418626704,129014.0,762_0_no,44.93119048288114,-72.00373908173306,40.0
05859,44.95987,-72.43833,North Troy,VT,Vermont,True,,1815.0,11.3,50019,Orleans,"{""50019"": 100}",Orleans,50019,False,False,America/New_York,"(44.95987, -72.43833)",21.34488702900227,129014.0,762_0_no,44.93119048288114,-72.00373908173306,40.0
05860,44.80018,-72.10353,Orleans,VT,Vermont,True,,2686.0,13.5,50019,Orleans,"{""50019"": 100}",Orleans,50019,False,False,America/New_York,"(44.80018, -72.10353)",10.286846560322552,129014.0,762_0_no,44.93119048288114,-72.00373908173306,40.0
05866,44.63863,-72.12699,Sheffield,VT,Vermont,True,,678.0,7.6,50005,Caledonia,"{""50005"": 100}",Caledonia,50005,False,False,America/New_York,"(44.63863, -72.12699)",21.098282679238128,129014.0,762_0_no,44.93119048288114,-72.00373908173306,40.0
05867,44.66505,-72.04366,Sutton,VT,Vermont,True,,896.0,10.0,50005,Caledonia,"{""50005"": 99.86, ""50019"": 0.14}",Caledonia|Orleans,50005|50019,False,False,America/New_York,"(44.66505, -72.04366)",18.49242551059098,129014.0,762_0_no,44.93119048288114,-72.00373908173306,40.0
05868,44.91881,-72.3675,Troy,VT,Vermont,True,,241.0,20.6,50019,Orleans,"{""50019"": 100}",Orleans,50019,False,False,America/New_York,"(44.91881, -72.3675)",17.815838956766783,129014.0,762_0_no,44.93119048288114,-72.00373908173306,40.0
05871,44.68367,-71.95193,West Burke,VT,Vermont,True,,1335.0,13.4,50005,Caledonia,"{""50005"": 100}",Caledonia,50005,False,False,America/New_York,"(44.68367, -71.95193)",17.289583102985507,129014.0,762_0_no,44.93119048288114,-72.00373908173306,40.0
05872,44.86059,-72.03473,West Charleston,VT,Vermont,True,,830.0,10.5,50019,Orleans,"{""50019"": 100}",Orleans,50019,False,False,America/New_York,"(44.86059, -72.03473)",5.108425382503216,129014.0,762_0_no,44.93119048288114,-72.00373908173306,40.0
05873,44.40619,-72.21841,West Danville,VT,Vermont,True,,624.0,9.3,50005,Caledonia,"{""50005"": 94.68, ""50023"": 5.32}",Caledonia|Washington,50005|50023,False,False,America/New_York,"(44.40619, -72.21841)",37.776672751819504,129014.0,762_0_no,44.93119048288114,-72.00373908173306,40.0
05874,44.87546,-72.46172,Westfield,VT,Vermont,True,,580.0,5.7,50019,Orleans,"{""50019"": 100}",Orleans,50019,False,False,America/New_York,"(44.87546, -72.46172)",22.74136581420956,129014.0,762_0_no,44.93119048288114,-72.00373908173306,40.0
05875,44.70947,-72.26753,Barton,VT,Vermont,True,,490.0,8.3,50019,Orleans,"{""50019"": 100}",Orleans,50019,False,False,America/New_York,"(44.70947, -72.26753)",20.045523918112746,129014.0,762_0_no,44.93119048288114,-72.00373908173306,40.0
05901,44.94197,-71.68079,Averill,VT,Vermont,True,,17.0,0.2,50009,Essex,"{""50009"": 100}",Essex,50009,False,False,America/New_York,"(44.94197, -71.68079)",15.813131507460175,129014.0,762_0_no,44.93119048288114,-72.00373908173306,40.0
05902,45.00881,-71.49472,Beecher Falls,VT,Vermont,True,,174.0,51.5,50009,Essex,"{""50009"": 100}",Essex,50009,False,False,America/New_York,"(45.00881, -71.49472)",25.453227880838345,129014.0,762_0_no,44.93119048288114,-72.00373908173306,40.0
05903,44.9379,-71.58286,Canaan,VT,Vermont,True,,776.0,4.8,50009,Essex,"{""50009"": 100}",Essex,50009,False,False,America/New_York,"(44.9379, -71.58286)",20.59132067700111,129014.0,762_0_no,44.93119048288114,-72.00373908173306,40.0
05904,44.41597,-71.70762,Gilman,VT,Vermont,True,,192.0,134.8,50009,Essex,"{""50009"": 100}",Essex,50009,False,False,America/New_York,"(44.41597, -71.70762)",38.45678659627513,129014.0,762_0_no,44.93119048288114,-72.00373908173306,40.0
05905,44.70151,-71.66672,Guildhall,VT,Vermont,True,,880.0,1.8,50009,Essex,"{""50009"": 100}",Essex,50009,False,False,America/New_York,"(44.70151, -71.66672)",22.90608161043446,129014.0,762_0_no,44.93119048288114,-72.00373908173306,40.0
05906,44.47431,-71.71538,Lunenburg,VT,Vermont,True,,1411.0,11.2,50009,Essex,"{""50009"": 100}",Essex,50009,False,False,America/New_York,"(44.47431, -71.71538)",34.5981950229457,129014.0,762_0_no,44.93119048288114,-72.00373908173306,40.0
05907,44.9502,-71.82577,Norton,VT,Vermont,True,,109.0,0.6,50009,Essex,"{""50009"": 100}",Essex,50009,False,False,America/New_York,"(44.9502, -71.82577)",8.802467777969579,129014.0,762_0_no,44.93119048288114,-72.00373908173306,40.0
