zip,lat,lng,city,state_id,state_name,zcta,parent_zcta,population,density,county_fips,county_name,county_weights,county_names_all,county_fips_all,imprecise,military,timezone,Coord,distance_miles,market_total_population,market_id,market_center_lat,market_center_lng,radius_miles
97009,45.42409,-122.33962,Boring,OR,Oregon,True,,8198.0,103.1,41005,Clackamas,"{""41005"": 97.14, ""41051"": 2.86}",Clackamas|Multnomah,41005|41051,False,False,America/Los_Angeles,"(45.42409, -122.33962)",43.85450165447396,566110.0,793_0_yes,45.86278523635796,-121.6834999138308,40.0
97011,45.38738,-122.03671,Brightwood,OR,Oregon,True,,813.0,68.6,41005,Clackamas,"{""41005"": 100}",Clackamas,41005,False,False,America/Los_Angeles,"(45.38738, -122.03671)",37.01668632675809,566110.0,793_0_yes,45.86278523635796,-121.6834999138308,40.0
97014,45.61354,-121.87405,Cascade Locks,OR,Oregon,True,,1589.0,4.2,41027,Hood River,"{""41027"": 66.18, ""41051"": 33.82}",Hood River|Multnomah,41027|41051,False,False,America/Los_Angeles,"(45.61354, -121.87405)",19.519349001192865,566110.0,793_0_yes,45.86278523635796,-121.6834999138308,40.0
97019,45.494,-122.18885,Corbett,OR,Oregon,True,,3304.0,16.2,41051,Multnomah,"{""41051"": 72.33, ""41005"": 27.67}",Multnomah|Clackamas,41051|41005,False,False,America/Los_Angeles,"(45.494, -122.18885)",35.27598044299023,566110.0,793_0_yes,45.86278523635796,-121.6834999138308,40.0
97021,45.39048,-121.13425,Dufur,OR,Oregon,True,,1283.0,1.9,41065,Wasco,"{""41065"": 100}",Wasco,41065,False,False,America/Los_Angeles,"(45.39048, -121.13425)",42.06233686393288,566110.0,793_0_yes,45.86278523635796,-121.6834999138308,40.0
97022,45.34562,-122.3306,Eagle Creek,OR,Oregon,True,,3918.0,65.0,41005,Clackamas,"{""41005"": 100}",Clackamas,41005,False,False,America/Los_Angeles,"(45.34562, -122.3306)",47.48919300522809,566110.0,793_0_yes,45.86278523635796,-121.6834999138308,40.0
97024,45.54576,-122.44142,Fairview,OR,Oregon,True,,10014.0,1121.6,41051,Multnomah,"{""41051"": 100}",Multnomah,41051,False,False,America/Los_Angeles,"(45.54576, -122.44142)",42.62907731111663,566110.0,793_0_yes,45.86278523635796,-121.6834999138308,40.0
97030,45.50896,-122.43135,Gresham,OR,Oregon,True,,38980.0,2008.9,41051,Multnomah,"{""41051"": 100}",Multnomah,41051,False,False,America/Los_Angeles,"(45.50896, -122.43135)",43.5963728739651,566110.0,793_0_yes,45.86278523635796,-121.6834999138308,40.0
97031,45.61193,-121.61094,Hood River,OR,Oregon,True,,18643.0,48.1,41027,Hood River,"{""41027"": 100}",Hood River,41027,False,False,America/Los_Angeles,"(45.61193, -121.61094)",17.682118860018495,566110.0,793_0_yes,45.86278523635796,-121.6834999138308,40.0
97040,45.62648,-121.38476,Mosier,OR,Oregon,True,,1725.0,12.6,41065,Wasco,"{""41065"": 99.78, ""41027"": 0.22}",Wasco|Hood River,41065|41027,False,False,America/Los_Angeles,"(45.62648, -121.38476)",21.77296828106819,566110.0,793_0_yes,45.86278523635796,-121.6834999138308,40.0
97041,45.41655,-121.59617,Mount Hood Parkdale,OR,Oregon,True,,3084.0,7.5,41027,Hood River,"{""41027"": 100}",Hood River,41027,False,False,America/Los_Angeles,"(45.41655, -121.59617)",31.11919782988341,566110.0,793_0_yes,45.86278523635796,-121.6834999138308,40.0
97049,45.35931,-121.86829,Rhododendron,OR,Oregon,True,,1725.0,4.2,41005,Clackamas,"{""41005"": 100}",Clackamas,41005,False,False,America/Los_Angeles,"(45.35931, -121.86829)",35.91504915782579,566110.0,793_0_yes,45.86278523635796,-121.6834999138308,40.0
97055,45.35975,-122.15396,Sandy,OR,Oregon,True,,18600.0,63.8,41005,Clackamas,"{""41005"": 100}",Clackamas,41005,False,False,America/Los_Angeles,"(45.35975, -122.15396)",41.53350604348209,566110.0,793_0_yes,45.86278523635796,-121.6834999138308,40.0
97058,45.54239,-121.15447,The Dalles,OR,Oregon,True,,20627.0,24.5,41065,Wasco,"{""41065"": 100}",Wasco,41065,False,False,America/Los_Angeles,"(45.54239, -121.15447)",33.789145553725014,566110.0,793_0_yes,45.86278523635796,-121.6834999138308,40.0
97060,45.5342,-122.36989,Troutdale,OR,Oregon,True,,22133.0,488.6,41051,Multnomah,"{""41051"": 100}",Multnomah,41051,False,False,America/Los_Angeles,"(45.5342, -122.36989)",40.15670753858327,566110.0,793_0_yes,45.86278523635796,-121.6834999138308,40.0
97067,45.31302,-121.97733,Welches,OR,Oregon,True,,2004.0,34.0,41005,Clackamas,"{""41005"": 100}",Clackamas,41005,False,False,America/Los_Angeles,"(45.31302, -121.97733)",40.55511022729438,566110.0,793_0_yes,45.86278523635796,-121.6834999138308,40.0
97080,45.47848,-122.39001,Gresham,OR,Oregon,True,,44907.0,801.3,41051,Multnomah,"{""41051"": 100}",Multnomah,41051,False,False,America/Los_Angeles,"(45.47848, -122.39001)",43.227386996166025,566110.0,793_0_yes,45.86278523635796,-121.6834999138308,40.0
97089,45.4256,-122.44342,Damascus,OR,Oregon,True,,13777.0,246.1,41005,Clackamas,"{""41005"": 100}",Clackamas,41005,False,False,America/Los_Angeles,"(45.4256, -122.44342)",47.537588364726545,566110.0,793_0_yes,45.86278523635796,-121.6834999138308,40.0
97230,45.5582,-122.506,Portland,OR,Oregon,True,,39900.0,1106.6,41051,Multnomah,"{""41051"": 100}",Multnomah,41051,False,False,America/Los_Angeles,"(45.5582, -122.506)",44.917690651130194,566110.0,793_0_yes,45.86278523635796,-121.6834999138308,40.0
97233,45.51391,-122.49887,Portland,OR,Oregon,True,,38779.0,3224.4,41051,Multnomah,"{""41051"": 100}",Multnomah,41051,False,False,America/Los_Angeles,"(45.51391, -122.49887)",46.149786580705374,566110.0,793_0_yes,45.86278523635796,-121.6834999138308,40.0
97236,45.48474,-122.51055,Portland,OR,Oregon,True,,39669.0,1984.3,41051,Multnomah,"{""41051"": 100}",Multnomah,41051,False,False,America/Los_Angeles,"(45.48474, -122.51055)",47.7131618986985,566110.0,793_0_yes,45.86278523635796,-121.6834999138308,40.0
98601,45.93439,-122.43857,Amboy,WA,Washington,True,,3266.0,40.6,53011,Clark,"{""53011"": 91.1, ""53015"": 8.9}",Clark|Cowlitz,53011|53015,False,False,America/Los_Angeles,"(45.93439, -122.43857)",36.642343201248465,566110.0,793_0_yes,45.86278523635796,-121.6834999138308,40.0
98602,45.8693,-121.27966,Appleton,WA,Washington,True,,120.0,0.8,53039,Klickitat,"{""53039"": 100}",Klickitat,53039,False,False,America/Los_Angeles,"(45.8693, -121.27966)",19.434897179560924,566110.0,793_0_yes,45.86278523635796,-121.6834999138308,40.0
98603,46.04223,-122.42001,Ariel,WA,Washington,True,,961.0,3.2,53015,Cowlitz,"{""53015"": 100}",Cowlitz,53015,False,False,America/Los_Angeles,"(46.04223, -122.42001)",37.489468799224035,566110.0,793_0_yes,45.86278523635796,-121.6834999138308,40.0
98604,45.80013,-122.5054,Battle Ground,WA,Washington,True,,37333.0,200.1,53011,Clark,"{""53011"": 100}",Clark,53011,False,False,America/Los_Angeles,"(45.80013, -122.5054)",39.80410514317557,566110.0,793_0_yes,45.86278523635796,-121.6834999138308,40.0
98605,45.77846,-121.6393,Bingen,WA,Washington,True,,1089.0,10.6,53059,Skamania,"{""53059"": 92.31, ""53039"": 7.69}",Skamania|Klickitat,53059|53039,False,False,America/Los_Angeles,"(45.77846, -121.6393)",6.202874430655745,566110.0,793_0_yes,45.86278523635796,-121.6834999138308,40.0
98606,45.72921,-122.45615,Brush Prairie,WA,Washington,True,,9203.0,93.5,53011,Clark,"{""53011"": 100}",Clark,53011,False,False,America/Los_Angeles,"(45.72921, -122.45615)",38.34783448694656,566110.0,793_0_yes,45.86278523635796,-121.6834999138308,40.0
98607,45.64395,-122.38242,Camas,WA,Washington,True,,32897.0,266.7,53011,Clark,"{""53011"": 100}",Clark,53011,False,False,America/Los_Angeles,"(45.64395, -122.38242)",36.93161241647423,566110.0,793_0_yes,45.86278523635796,-121.6834999138308,40.0
98610,45.77765,-122.01401,Carson,WA,Washington,True,,3199.0,8.7,53059,Skamania,"{""53059"": 100}",Skamania,53059,False,False,America/Los_Angeles,"(45.77765, -122.01401)",16.967011826926427,566110.0,793_0_yes,45.86278523635796,-121.6834999138308,40.0
98613,45.7542,-120.97235,Centerville,WA,Washington,True,,407.0,1.7,53039,Klickitat,"{""53039"": 100}",Klickitat,53039,False,False,America/Los_Angeles,"(45.7542, -120.97235)",35.0624783953475,566110.0,793_0_yes,45.86278523635796,-121.6834999138308,40.0
98616,46.06227,-122.14599,Cougar,WA,Washington,True,,103.0,0.4,53059,Skamania,"{""53059"": 95.73, ""53015"": 4.12, ""53011"": 0.15}",Skamania|Cowlitz|Clark,53059|53015|53011,False,False,America/Los_Angeles,"(46.06227, -122.14599)",26.141551577600676,566110.0,793_0_yes,45.86278523635796,-121.6834999138308,40.0
98617,45.64283,-121.14229,Dallesport,WA,Washington,True,,1138.0,25.5,53039,Klickitat,"{""53039"": 100}",Klickitat,53039,False,False,America/Los_Angeles,"(45.64283, -121.14229)",30.195092826330185,566110.0,793_0_yes,45.86278523635796,-121.6834999138308,40.0
98619,45.97693,-121.26568,Glenwood,WA,Washington,True,,613.0,1.5,53039,Klickitat,"{""53039"": 100}",Klickitat,53039,False,False,America/Los_Angeles,"(45.97693, -121.26568)",21.575878033784903,566110.0,793_0_yes,45.86278523635796,-121.6834999138308,40.0
98628,45.85015,-121.09887,Klickitat,WA,Washington,True,,285.0,10.3,53039,Klickitat,"{""53039"": 100}",Klickitat,53039,False,False,America/Los_Angeles,"(45.85015, -121.09887)",28.146267868258093,566110.0,793_0_yes,45.86278523635796,-121.6834999138308,40.0
98635,45.74364,-121.20915,Lyle,WA,Washington,True,,1586.0,4.6,53039,Klickitat,"{""53039"": 100}",Klickitat,53039,False,False,America/Los_Angeles,"(45.74364, -121.20915)",24.285635705490506,566110.0,793_0_yes,45.86278523635796,-121.6834999138308,40.0
98639,45.64364,-121.96288,North Bonneville,WA,Washington,True,,855.0,116.7,53059,Skamania,"{""53059"": 100}",Skamania,53059,False,False,America/Los_Angeles,"(45.64364, -121.96288)",20.26511824916534,566110.0,793_0_yes,45.86278523635796,-121.6834999138308,40.0
98648,45.70563,-121.9489,Stevenson,WA,Washington,True,,3207.0,8.6,53059,Skamania,"{""53059"": 100}",Skamania,53059,False,False,America/Los_Angeles,"(45.70563, -121.9489)",16.775947040679583,566110.0,793_0_yes,45.86278523635796,-121.6834999138308,40.0
98650,45.97117,-121.52732,Trout Lake,WA,Washington,True,,1144.0,5.2,53039,Klickitat,"{""53039"": 100}",Klickitat,53039,False,False,America/Los_Angeles,"(45.97117, -121.52732)",10.603759791326157,566110.0,793_0_yes,45.86278523635796,-121.6834999138308,40.0
98651,45.73419,-121.58718,Underwood,WA,Washington,True,,1031.0,30.0,53059,Skamania,"{""53059"": 100}",Skamania,53059,False,False,America/Los_Angeles,"(45.73419, -121.58718)",10.023598353546667,566110.0,793_0_yes,45.86278523635796,-121.6834999138308,40.0
98670,45.86372,-121.14599,Wahkiacus,WA,Washington,True,,37.0,0.6,53039,Klickitat,"{""53039"": 100}",Klickitat,53039,False,False,America/Los_Angeles,"(45.86372, -121.14599)",25.862217858594388,566110.0,793_0_yes,45.86278523635796,-121.6834999138308,40.0
98671,45.61143,-122.24955,Washougal,WA,Washington,True,,23116.0,110.1,53011,Clark,"{""53011"": 50.27, ""53059"": 49.73}",Clark|Skamania,53011|53059,False,False,America/Los_Angeles,"(45.61143, -122.24955)",32.35331881393147,566110.0,793_0_yes,45.86278523635796,-121.6834999138308,40.0
98672,45.81269,-121.47393,White Salmon,WA,Washington,True,,7256.0,20.2,53039,Klickitat,"{""53039"": 95.7, ""53059"": 4.3}",Klickitat|Skamania,53039|53059,False,False,America/Los_Angeles,"(45.81269, -121.47393)",10.665307399774457,566110.0,793_0_yes,45.86278523635796,-121.6834999138308,40.0
98673,45.67367,-120.98129,Wishram,WA,Washington,True,,544.0,12.4,53039,Klickitat,"{""53039"": 100}",Klickitat,53039,False,False,America/Los_Angeles,"(45.67367, -120.98129)",36.279031132816094,566110.0,793_0_yes,45.86278523635796,-121.6834999138308,40.0
98675,45.86349,-122.33104,Yacolt,WA,Washington,True,,7604.0,18.9,53011,Clark,"{""53011"": 100}",Clark,53011,False,False,America/Los_Angeles,"(45.86349, -122.33104)",31.15628372317915,566110.0,793_0_yes,45.86278523635796,-121.6834999138308,40.0
98682,45.67296,-122.48327,Vancouver,WA,Washington,True,,63768.0,863.5,53011,Clark,"{""53011"": 100}",Clark,53011,False,False,America/Los_Angeles,"(45.67296, -122.48327)",40.716762455215566,566110.0,793_0_yes,45.86278523635796,-121.6834999138308,40.0
98683,45.6027,-122.50984,Vancouver,WA,Washington,True,,31676.0,1685.4,53011,Clark,"{""53011"": 100}",Clark,53011,False,False,America/Los_Angeles,"(45.6027, -122.50984)",43.71633283182746,566110.0,793_0_yes,45.86278523635796,-121.6834999138308,40.0
