zip,lat,lng,city,state_id,state_name,zcta,parent_zcta,population,density,county_fips,county_name,county_weights,county_names_all,county_fips_all,imprecise,military,timezone,Coord,distance_miles,market_total_population,market_id,market_center_lat,market_center_lng,radius_miles
59058,46.98517,-107.79652,Mosby,MT,Montana,True,,24.0,0.0,30033,Garfield,"{""30033"": 74.43, ""30069"": 25.57}",Garfield|Petroleum,30033|30069,False,False,America/Denver,"(46.98517, -107.79652)",43.41496096280681,3797.0,854_0_no,47.49513752694788,-107.25581178171409,40.0
59077,47.22224,-107.58999,Sand Springs,MT,Montana,True,,103.0,0.1,30033,Garfield,"{""30033"": 100}",Garfield,30033,False,False,America/Denver,"(47.22224, -107.58999)",24.498266008998076,3797.0,854_0_no,47.49513752694788,-107.25581178171409,40.0
59318,47.48955,-107.4784,Brusett,MT,Montana,True,,121.0,0.1,30033,Garfield,"{""30033"": 100}",Garfield,30033,False,False,America/Denver,"(47.48955, -107.4784)",10.398839548868303,3797.0,854_0_no,47.49513752694788,-107.25581178171409,40.0
59322,47.03521,-106.64069,Cohagen,MT,Montana,True,,59.0,0.0,30033,Garfield,"{""30033"": 100}",Garfield,30033,False,False,America/Denver,"(47.03521, -106.64069)",42.91431348921481,3797.0,854_0_no,47.49513752694788,-107.25581178171409,40.0
59337,47.39098,-106.81486,Jordan,MT,Montana,True,,711.0,0.1,30033,Garfield,"{""30033"": 100}",Garfield,30033,False,False,America/Denver,"(47.39098, -106.81486)",21.825973401403576,3797.0,854_0_no,47.49513752694788,-107.25581178171409,40.0
59538,48.02231,-107.8657,Malta,MT,Montana,True,,2779.0,0.4,30071,Phillips,"{""30071"": 100}",Phillips,30071,False,False,America/Denver,"(48.02231, -107.8657)",46.14304162477838,3797.0,854_0_no,47.49513752694788,-107.25581178171409,40.0
