zip,lat,lng,city,state_id,state_name,zcta,parent_zcta,population,density,county_fips,county_name,county_weights,county_names_all,county_fips_all,imprecise,military,timezone,Coord,distance_miles,market_total_population,market_id,market_center_lat,market_center_lng,radius_miles
77053,29.58549,-95.45991,Houston,TX,Texas,True,,31521.0,1069.6,48157,Fort Bend,"{""48157"": 68.89, ""48201"": 31.11}",Fort Bend|Harris,48157|48201,False,False,America/Chicago,"(29.58549, -95.45991)",4.376667833600092,249002.0,11801_0_no,29.556555406305915,-95.524698679126,5.0
77085,29.62465,-95.48411,Houston,TX,Texas,True,,18155.0,1278.7,48201,Harris,"{""48201"": 96.93, ""48157"": 3.07}",Harris|Fort Bend,48201|48157,False,False,America/Chicago,"(29.62465, -95.48411)",5.299337348231867,249002.0,11801_0_no,29.556555406305915,-95.524698679126,5.0
77459,29.52691,-95.53407,Missouri City,TX,Texas,True,,76662.0,946.8,48157,Fort Bend,"{""48157"": 100}",Fort Bend,48157,False,False,America/Chicago,"(29.52691, -95.53407)",2.124352234684596,249002.0,11801_0_no,29.556555406305915,-95.524698679126,5.0
77477,29.62625,-95.56718,Stafford,TX,Texas,True,,35496.0,1342.9,48157,Fort Bend,"{""48157"": 94.77, ""48201"": 5.23}",Fort Bend|Harris,48157|48201,False,False,America/Chicago,"(29.62625, -95.56718)",5.450035389100032,249002.0,11801_0_no,29.556555406305915,-95.524698679126,5.0
77478,29.61896,-95.6077,Sugar Land,TX,Texas,True,,24673.0,950.7,48157,Fort Bend,"{""48157"": 100}",Fort Bend,48157,False,False,America/Chicago,"(29.61896, -95.6077)",6.592538256252413,249002.0,11801_0_no,29.556555406305915,-95.524698679126,5.0
77489,29.60068,-95.51605,Missouri City,TX,Texas,True,,39444.0,1348.0,48157,Fort Bend,"{""48157"": 96.33, ""48201"": 3.67}",Fort Bend|Harris,48157|48201,False,False,America/Chicago,"(29.60068, -95.51605)",3.092695739455304,249002.0,11801_0_no,29.556555406305915,-95.524698679126,5.0
77545,29.53729,-95.47242,Fresno,TX,Texas,True,,23051.0,606.1,48157,Fort Bend,"{""48157"": 99.26, ""48039"": 0.74}",Fort Bend|Brazoria,48157|48039,False,False,America/Chicago,"(29.53729, -95.47242)",3.4126704330256783,249002.0,11801_0_no,29.556555406305915,-95.524698679126,5.0
