zip,lat,lng,city,state_id,state_name,zcta,parent_zcta,population,density,county_fips,county_name,county_weights,county_names_all,county_fips_all,imprecise,military,timezone,Coord,distance_miles,market_total_population,market_id,market_center_lat,market_center_lng,radius_miles
30260,33.5862,-84.33046,Morrow,GA,Georgia,True,,27183.0,962.8,13063,Clayton,"{""13063"": 100}",Clayton,13063,False,False,America/New_York,"(33.5862, -84.33046)",1.6978940266599147,173769.0,21478_0_no,33.61046970970023,-84.33508760760051,5.0
30273,33.58365,-84.27208,Rex,GA,Georgia,True,,15720.0,849.7,13063,Clayton,"{""13063"": 85.91, ""13151"": 14.09}",Clayton|Henry,13063|13151,False,False,America/New_York,"(33.58365, -84.27208)",4.072219902600878,173769.0,21478_0_no,33.61046970970023,-84.33508760760051,5.0
30274,33.55583,-84.40091,Riverdale,GA,Georgia,True,,34426.0,1301.7,13063,Clayton,"{""13063"": 100}",Clayton,13063,False,False,America/New_York,"(33.55583, -84.40091)",5.3485795113861005,173769.0,21478_0_no,33.61046970970023,-84.33508760760051,5.0
30288,33.65502,-84.32813,Conley,GA,Georgia,True,,10181.0,565.4,13089,DeKalb,"{""13089"": 71.99, ""13063"": 28.01}",DeKalb|Clayton,13089|13063,False,False,America/New_York,"(33.65502, -84.32813)",3.104045582320213,173769.0,21478_0_no,33.61046970970023,-84.33508760760051,5.0
30294,33.6371,-84.26289,Ellenwood,GA,Georgia,True,,41096.0,484.6,13089,DeKalb,"{""13089"": 36.39, ""13063"": 35.09, ""13151"": 27.37, ""13247"": 1.15}",DeKalb|Clayton|Henry|Rockdale,13089|13063|13151|13247,False,False,America/New_York,"(33.6371, -84.26289)",4.543062096982419,173769.0,21478_0_no,33.61046970970023,-84.33508760760051,5.0
30297,33.61511,-84.37145,Forest Park,GA,Georgia,True,,28503.0,1004.7,13063,Clayton,"{""13063"": 100}",Clayton,13063,False,False,America/New_York,"(33.61511, -84.37145)",2.116744387918816,173769.0,21478_0_no,33.61046970970023,-84.33508760760051,5.0
30354,33.66058,-84.38609,Atlanta,GA,Georgia,True,,16660.0,600.3,13121,Fulton,"{""13121"": 87.16, ""13063"": 12.84}",Fulton|Clayton,13121|13063,False,False,America/New_York,"(33.66058, -84.38609)",4.5382264931433,173769.0,21478_0_no,33.61046970970023,-84.33508760760051,5.0
