zip,lat,lng,city,state_id,state_name,zcta,parent_zcta,population,density,county_fips,county_name,county_weights,county_names_all,county_fips_all,imprecise,military,timezone,Coord,distance_miles,market_total_population,market_id,market_center_lat,market_center_lng,radius_miles
28012,35.21054,-81.04077,Belmont,NC,North Carolina,True,,23475.0,332.6,37071,Gaston,"{""37071"": 100}",Gaston,37071,False,False,America/New_York,"(35.21054, -81.04077)",6.457850914515169,104500.0,25187_0_yes,35.275235196027026,-81.12336466638119,5.0
28032,35.23354,-81.07925,Cramerton,NC,North Carolina,True,,3211.0,597.7,37071,Gaston,"{""37071"": 100}",Gaston,37071,False,False,America/New_York,"(35.23354, -81.07925)",3.807174043527767,104500.0,25187_0_yes,35.275235196027026,-81.12336466638119,5.0
28054,35.26128,-81.15072,Gastonia,NC,North Carolina,True,,37246.0,743.8,37071,Gaston,"{""37071"": 100}",Gaston,37071,False,False,America/New_York,"(35.26128, -81.15072)",1.8196326688293993,104500.0,25187_0_yes,35.275235196027026,-81.12336466638119,5.0
28056,35.21768,-81.12503,Gastonia,NC,North Carolina,True,,35709.0,285.6,37071,Gaston,"{""37071"": 100}",Gaston,37071,False,False,America/New_York,"(35.21768, -81.12503)",3.9777953809017075,104500.0,25187_0_yes,35.275235196027026,-81.12336466638119,5.0
28098,35.27057,-81.09749,Lowell,NC,North Carolina,True,,3689.0,391.1,37071,Gaston,"{""37071"": 100}",Gaston,37071,False,False,America/New_York,"(35.27057, -81.09749)",1.4947231853280167,104500.0,25187_0_yes,35.275235196027026,-81.12336466638119,5.0
28101,35.25703,-81.07572,McAdenville,NC,North Carolina,True,,1170.0,885.3,37071,Gaston,"{""37071"": 100}",Gaston,37071,False,False,America/New_York,"(35.25703, -81.07572)",2.9675658202768136,104500.0,25187_0_yes,35.275235196027026,-81.12336466638119,5.0
