zip,lat,lng,city,state_id,state_name,zcta,parent_zcta,population,density,county_fips,county_name,county_weights,county_names_all,county_fips_all,imprecise,military,timezone,Coord,distance_miles,market_total_population,market_id,market_center_lat,market_center_lng,radius_miles
27917,36.36071,-75.99071,Barco,NC,North Carolina,True,,714.0,14.0,37053,Currituck,"{""37053"": 100}",Currituck,37053,False,False,America/New_York,"(36.36071, -75.99071)",4.844496980731002,4694.0,27812_0_yes,36.43081174204668,-75.99241482964483,5.0
27923,36.38852,-75.93562,Coinjock,NC,North Carolina,True,,590.0,44.1,37053,Currituck,"{""37053"": 100}",Currituck,37053,False,False,America/New_York,"(36.38852, -75.93562)",4.302597235434285,4694.0,27812_0_yes,36.43081174204668,-75.99241482964483,5.0
27929,36.42407,-76.02534,Currituck,NC,North Carolina,True,,1825.0,45.5,37053,Currituck,"{""37053"": 100}",Currituck,37053,False,False,America/New_York,"(36.42407, -76.02534)",1.888756908630546,4694.0,27812_0_yes,36.43081174204668,-75.99241482964483,5.0
27956,36.39999,-76.00115,Maple,NC,North Carolina,True,,387.0,54.3,37053,Currituck,"{""37053"": 100}",Currituck,37053,False,False,America/New_York,"(36.39999, -76.00115)",2.1842630971870265,4694.0,27812_0_yes,36.43081174204668,-75.99241482964483,5.0
27973,36.36448,-76.07058,Shawboro,NC,North Carolina,True,,1178.0,12.3,37053,Currituck,"{""37053"": 62.55, ""37029"": 37.45}",Currituck|Camden,37053|37029,False,False,America/New_York,"(36.36448, -76.07058)",6.316813815339594,4694.0,27812_0_yes,36.43081174204668,-75.99241482964483,5.0
