zip,lat,lng,city,state_id,state_name,zcta,parent_zcta,population,density,county_fips,county_name,county_weights,county_names_all,county_fips_all,imprecise,military,timezone,Coord,distance_miles,market_total_population,market_id,market_center_lat,market_center_lng,radius_miles
40806,36.88595,-83.2881,Baxter,KY,Kentucky,True,,2591.0,44.7,21095,Harlan,"{""21095"": 100}",Harlan,21095,False,False,America/New_York,"(36.88595, -83.2881)",5.54935912093175,4233.0,29146_0_no,36.94359277842364,-83.35805279551435,5.0
40808,36.9995,-83.2801,Big Laurel,KY,Kentucky,True,,63.0,0.7,21131,Leslie,"{""21131"": 85.45, ""21095"": 14.55}",Leslie|Harlan,21131|21095,False,False,America/New_York,"(36.9995, -83.2801)",5.7825496369398905,4233.0,29146_0_no,36.94359277842364,-83.35805279551435,5.0
40810,36.93176,-83.30451,Bledsoe,KY,Kentucky,True,,950.0,5.4,21095,Harlan,"{""21095"": 90.43, ""21131"": 9.57}",Harlan|Leslie,21095|21131,False,False,America/New_York,"(36.93176, -83.30451)",3.067879738655758,4233.0,29146_0_no,36.94359277842364,-83.35805279551435,5.0
40840,36.9457,-83.41854,Helton,KY,Kentucky,True,,299.0,2.8,21131,Leslie,"{""21131"": 100}",Leslie,21131,False,False,America/New_York,"(36.9457, -83.41854)",3.3433116227814845,4233.0,29146_0_no,36.94359277842364,-83.35805279551435,5.0
40858,37.01592,-83.40106,Mozelle,KY,Kentucky,True,,330.0,16.4,21131,Leslie,"{""21131"": 100}",Leslie,21131,False,False,America/New_York,"(37.01592, -83.40106)",5.5324704339718815,4233.0,29146_0_no,36.94359277842364,-83.35805279551435,5.0
