zip,lat,lng,city,state_id,state_name,zcta,parent_zcta,population,density,county_fips,county_name,county_weights,county_names_all,county_fips_all,imprecise,military,timezone,Coord,distance_miles,market_total_population,market_id,market_center_lat,market_center_lng,radius_miles
41759,37.23211,-83.02521,Sassafras,KY,Kentucky,True,,261.0,9.6,21119,Knott,"{""21119"": 99.86, ""21193"": 0.14}",Knott|Perry,21119|21193,False,False,America/New_York,"(37.23211, -83.02521)",6.21835791589948,4161.0,29490_0_yes,37.160607810637984,-82.95659532843001,5.0
41804,37.14923,-82.98993,Blackey,KY,Kentucky,True,,943.0,30.8,21133,Letcher,"{""21133"": 100}",Letcher,21133,False,False,America/New_York,"(37.14923, -82.98993)",1.9969175952311178,4161.0,29490_0_yes,37.160607810637984,-82.95659532843001,5.0
41824,37.18771,-82.88015,Isom,KY,Kentucky,True,,1365.0,104.5,21133,Letcher,"{""21133"": 100}",Letcher,21133,False,False,America/New_York,"(37.18771, -82.88015)",4.606401472300332,4161.0,29490_0_yes,37.160607810637984,-82.95659532843001,5.0
41826,37.17348,-82.92115,Jeremiah,KY,Kentucky,True,,543.0,23.6,21133,Letcher,"{""21133"": 100}",Letcher,21133,False,False,America/New_York,"(37.17348, -82.92115)",2.1446873158698216,4161.0,29490_0_yes,37.160607810637984,-82.95659532843001,5.0
41832,37.15286,-82.9548,Letcher,KY,Kentucky,True,,368.0,19.1,21133,Letcher,"{""21133"": 100}",Letcher,21133,False,False,America/New_York,"(37.15286, -82.9548)",0.5443750617375728,4161.0,29490_0_yes,37.160607810637984,-82.95659532843001,5.0
41845,37.1396,-82.90301,Premium,KY,Kentucky,True,,307.0,16.6,21133,Letcher,"{""21133"": 100}",Letcher,21133,False,False,America/New_York,"(37.1396, -82.90301)",3.2886696948993164,4161.0,29490_0_yes,37.160607810637984,-82.95659532843001,5.0
41847,37.20823,-82.95961,Redfox,KY,Kentucky,True,,374.0,12.1,21119,Knott,"{""21119"": 100}",Knott,21119,False,False,America/New_York,"(37.20823, -82.95961)",3.294561889980242,4161.0,29490_0_yes,37.160607810637984,-82.95659532843001,5.0
