zip,lat,lng,city,state_id,state_name,zcta,parent_zcta,population,density,county_fips,county_name,county_weights,county_names_all,county_fips_all,imprecise,military,timezone,Coord,distance_miles,market_total_population,market_id,market_center_lat,market_center_lng,radius_miles
41772,37.4075,-83.01679,Vest,KY,Kentucky,True,,324.0,7.8,21119,Knott,"{""21119"": 100}",Knott,21119,False,False,America/New_York,"(37.4075, -83.01679)",4.807136421294695,6619.0,30121_0_no,37.37798525596412,-82.93748916703466,5.0
41817,37.35922,-82.90038,Garner,KY,Kentucky,True,,208.0,6.0,21119,Knott,"{""21119"": 100}",Knott,21119,False,False,America/New_York,"(37.35922, -82.90038)",2.4152445824109914,6619.0,30121_0_no,37.37798525596412,-82.93748916703466,5.0
41822,37.31991,-82.97848,Hindman,KY,Kentucky,True,,2574.0,52.0,21119,Knott,"{""21119"": 100}",Knott,21119,False,False,America/New_York,"(37.31991, -82.97848)",4.60111083271483,6619.0,30121_0_no,37.37798525596412,-82.93748916703466,5.0
41831,37.38531,-82.94633,Leburn,KY,Kentucky,True,,728.0,14.9,21119,Knott,"{""21119"": 100}",Knott,21119,False,False,America/New_York,"(37.38531, -82.94633)",0.7012304413050512,6619.0,30121_0_no,37.37798525596412,-82.93748916703466,5.0
41839,37.42041,-82.87741,Mousie,KY,Kentucky,True,,1272.0,37.9,21119,Knott,"{""21119"": 100}",Knott,21119,False,False,America/New_York,"(37.42041, -82.87741)",4.412169205777946,6619.0,30121_0_no,37.37798525596412,-82.93748916703466,5.0
41844,37.32916,-82.8643,Pippa Passes,KY,Kentucky,True,,1513.0,38.9,21119,Knott,"{""21119"": 100}",Knott,21119,False,False,America/New_York,"(37.32916, -82.8643)",5.247756899874974,6619.0,30121_0_no,37.37798525596412,-82.93748916703466,5.0
