zip,lat,lng,city,state_id,state_name,zcta,parent_zcta,population,density,county_fips,county_name,county_weights,county_names_all,county_fips_all,imprecise,military,timezone,Coord,distance_miles,market_total_population,market_id,market_center_lat,market_center_lng,radius_miles
24719,37.48722,-81.32652,Covel,WV,West Virginia,True,,25.0,9.5,54109,Wyoming,"{""54109"": 100}",Wyoming,54109,False,False,America/New_York,"(37.48722, -81.32652)",2.7282868341779785,2431.0,30132_0_yes,37.449165011953326,-81.3397963618957,5.0
24726,37.52084,-81.37229,Herndon,WV,West Virginia,True,,711.0,5.5,54109,Wyoming,"{""54109"": 100}",Wyoming,54109,False,False,America/New_York,"(37.52084, -81.37229)",5.262961494811958,2431.0,30132_0_yes,37.449165011953326,-81.3397963618957,5.0
24736,37.45045,-81.29589,Matoaka,WV,West Virginia,True,,467.0,6.4,54109,Wyoming,"{""54109"": 52.02, ""54055"": 47.98}",Wyoming|Mercer,54109|54055,False,False,America/New_York,"(37.45045, -81.29589)",2.41000176969067,2431.0,30132_0_yes,37.449165011953326,-81.3397963618957,5.0
24868,37.42412,-81.40259,Northfork,WV,West Virginia,True,,1176.0,13.5,54047,McDowell,"{""54047"": 100}",McDowell,54047,False,False,America/New_York,"(37.42412, -81.40259)",3.855171531817784,2431.0,30132_0_yes,37.449165011953326,-81.3397963618957,5.0
24887,37.37808,-81.38664,Switchback,WV,West Virginia,True,,52.0,25.7,54047,McDowell,"{""54047"": 100}",McDowell,54047,False,False,America/New_York,"(37.37808, -81.38664)",5.543601632264346,2431.0,30132_0_yes,37.449165011953326,-81.3397963618957,5.0
