zip,lat,lng,city,state_id,state_name,zcta,parent_zcta,population,density,county_fips,county_name,county_weights,county_names_all,county_fips_all,imprecise,military,timezone,Coord,distance_miles,market_total_population,market_id,market_center_lat,market_center_lng,radius_miles
41603,37.55934,-82.68704,Banner,KY,Kentucky,True,,1584.0,43.6,21071,Floyd,"{""21071"": 100}",Floyd,21071,False,False,America/New_York,"(37.55934, -82.68704)",2.6271257020302095,8856.0,30444_0_no,37.52267985074294,-82.67431739237146,5.0
41605,37.55498,-82.63009,Betsy Layne,KY,Kentucky,True,,615.0,72.9,21071,Floyd,"{""21071"": 72.77, ""21195"": 27.23}",Floyd|Pike,21071|21195,False,False,America/New_York,"(37.55498, -82.63009)",3.294229754148137,8856.0,30444_0_no,37.52267985074294,-82.67431739237146,5.0
41615,37.54211,-82.68337,Dana,KY,Kentucky,True,,438.0,30.7,21071,Floyd,"{""21071"": 100}",Floyd,21071,False,False,America/New_York,"(37.54211, -82.68337)",1.4311945183837775,8856.0,30444_0_no,37.52267985074294,-82.67431739237146,5.0
41619,37.48328,-82.74187,Drift,KY,Kentucky,True,,194.0,10.9,21071,Floyd,"{""21071"": 100}",Floyd,21071,False,False,America/New_York,"(37.48328, -82.74187)",4.595796696040347,8856.0,30444_0_no,37.52267985074294,-82.67431739237146,5.0
41631,37.46801,-82.65365,Grethel,KY,Kentucky,True,,1311.0,53.9,21071,Floyd,"{""21071"": 100}",Floyd,21071,False,False,America/New_York,"(37.46801, -82.65365)",3.9435777661807,8856.0,30444_0_no,37.52267985074294,-82.67431739237146,5.0
41635,37.48009,-82.62831,Harold,KY,Kentucky,True,,2612.0,46.4,21071,Floyd,"{""21071"": 100}",Floyd,21071,False,False,America/New_York,"(37.48009, -82.62831)",3.8754599190144354,8856.0,30444_0_no,37.52267985074294,-82.67431739237146,5.0
41655,37.50496,-82.72465,Printer,KY,Kentucky,True,,1266.0,33.9,21071,Floyd,"{""21071"": 100}",Floyd,21071,False,False,America/New_York,"(37.50496, -82.72465)",3.0179913988071023,8856.0,30444_0_no,37.52267985074294,-82.67431739237146,5.0
41659,37.58415,-82.60064,Stanville,KY,Kentucky,True,,452.0,16.5,21195,Pike,"{""21195"": 74.29, ""21071"": 25.71}",Pike|Floyd,21195|21071,False,False,America/New_York,"(37.58415, -82.60064)",5.85884042515392,8856.0,30444_0_no,37.52267985074294,-82.67431739237146,5.0
41663,37.56844,-82.65966,Tram,KY,Kentucky,True,,384.0,99.6,21071,Floyd,"{""21071"": 100}",Floyd,21071,False,False,America/New_York,"(37.56844, -82.65966)",3.2620934174951803,8856.0,30444_0_no,37.52267985074294,-82.67431739237146,5.0
