zip,lat,lng,city,state_id,state_name,zcta,parent_zcta,population,density,county_fips,county_name,county_weights,county_names_all,county_fips_all,imprecise,military,timezone,Coord,distance_miles,market_total_population,market_id,market_center_lat,market_center_lng,radius_miles
23358,37.64406,-75.86495,Hacksneck,VA,Virginia,True,,108.0,7.5,51001,Accomack,"{""51001"": 100}",Accomack,51001,False,False,America/New_York,"(37.64406, -75.86495)",1.725485243949995,4067.0,30730_0_no,37.66229168589248,-75.84339377655891,5.0
23389,37.65731,-75.83226,Harborton,VA,Virginia,True,,214.0,93.0,51001,Accomack,"{""51001"": 100}",Accomack,51001,False,False,America/New_York,"(37.65731, -75.83226)",0.6995353468414655,4067.0,30730_0_no,37.66229168589248,-75.84339377655891,5.0
23401,37.62776,-75.77843,Keller,VA,Virginia,True,,304.0,54.7,51001,Accomack,"{""51001"": 100}",Accomack,51001,False,False,America/New_York,"(37.62776, -75.77843)",4.280672647165761,4067.0,30730_0_no,37.66229168589248,-75.84339377655891,5.0
23417,37.73061,-75.76687,Onancock,VA,Virginia,True,,3383.0,27.6,51001,Accomack,"{""51001"": 100}",Accomack,51001,False,False,America/New_York,"(37.73061, -75.76687)",6.3074877931982565,4067.0,30730_0_no,37.66229168589248,-75.84339377655891,5.0
23422,37.63647,-75.82397,Pungoteague,VA,Virginia,True,,58.0,6.4,51001,Accomack,"{""51001"": 100}",Accomack,51001,False,False,America/New_York,"(37.63647, -75.82397)",2.076569612715444,4067.0,30730_0_no,37.66229168589248,-75.84339377655891,5.0
