zip,lat,lng,city,state_id,state_name,zcta,parent_zcta,population,density,county_fips,county_name,county_weights,county_names_all,county_fips_all,imprecise,military,timezone,Coord,distance_miles,market_total_population,market_id,market_center_lat,market_center_lng,radius_miles
94506,37.80862,-121.90498,Danville,CA,California,True,,27143.0,561.8,6013,Contra Costa,"{""06013"": 100}",Contra Costa,06013,False,False,America/Los_Angeles,"(37.80862, -121.90498)",2.7019527899765303,200125.0,31003_0_yes,37.77036430027388,-121.89471825776076,5.0
94526,37.81472,-121.98451,Danville,CA,California,True,,33738.0,989.1,6013,Contra Costa,"{""06013"": 100}",Contra Costa,06013,False,False,America/Los_Angeles,"(37.81472, -121.98451)",5.781703338415239,200125.0,31003_0_yes,37.77036430027388,-121.89471825776076,5.0
94528,37.84149,-121.95819,Diablo,CA,California,True,,804.0,269.0,6013,Contra Costa,"{""06013"": 100}",Contra Costa,06013,False,False,America/Los_Angeles,"(37.84149, -121.95819)",6.013007480117198,200125.0,31003_0_yes,37.77036430027388,-121.89471825776076,5.0
94568,37.71596,-121.90113,Dublin,CA,California,True,,57395.0,1343.5,6001,Alameda,"{""06001"": 100}",Alameda,06001,False,False,America/Los_Angeles,"(37.71596, -121.90113)",3.775267491118971,200125.0,31003_0_yes,37.77036430027388,-121.89471825776076,5.0
94582,37.76357,-121.91469,San Ramon,CA,California,True,,44721.0,1287.5,6013,Contra Costa,"{""06013"": 100}",Contra Costa,06013,False,False,America/Los_Angeles,"(37.76357, -121.91469)",1.1875588859342923,200125.0,31003_0_yes,37.77036430027388,-121.89471825776076,5.0
94588,37.73801,-121.88178,Pleasanton,CA,California,True,,36324.0,428.4,6001,Alameda,"{""06001"": 51.42, ""06013"": 48.58}",Alameda|Contra Costa,06001|06013,False,False,America/Los_Angeles,"(37.73801, -121.88178)",2.3445432017252927,200125.0,31003_0_yes,37.77036430027388,-121.89471825776076,5.0
