zip,lat,lng,city,state_id,state_name,zcta,parent_zcta,population,density,county_fips,county_name,county_weights,county_names_all,county_fips_all,imprecise,military,timezone,Coord,distance_miles,market_total_population,market_id,market_center_lat,market_center_lng,radius_miles
41204,37.81784,-82.6843,Boons Camp,KY,Kentucky,True,,651.0,21.1,21115,Johnson,"{""21115"": 100}",Johnson,21115,False,False,America/New_York,"(37.81784, -82.6843)",0.57629861328415,5480.0,31091_0_no,37.81247733012546,-82.69238666379775,5.0
41234,37.79654,-82.74161,Meally,KY,Kentucky,True,,642.0,52.6,21115,Johnson,"{""21115"": 100}",Johnson,21115,False,False,America/New_York,"(37.79654, -82.74161)",2.904030271290106,5480.0,31091_0_no,37.81247733012546,-82.69238666379775,5.0
41254,37.8845,-82.72711,River,KY,Kentucky,True,,504.0,15.8,21115,Johnson,"{""21115"": 92.22, ""21127"": 7.78}",Johnson|Lawrence,21115|21127,False,False,America/New_York,"(37.8845, -82.72711)",5.324702677727919,5480.0,31091_0_no,37.81247733012546,-82.69238666379775,5.0
41260,37.82253,-82.75126,Thelma,KY,Kentucky,True,,1040.0,141.2,21115,Johnson,"{""21115"": 100}",Johnson,21115,False,False,America/New_York,"(37.82253, -82.75126)",3.2876079811886005,5480.0,31091_0_no,37.81247733012546,-82.69238666379775,5.0
41262,37.85112,-82.61377,Tomahawk,KY,Kentucky,True,,1138.0,16.7,21159,Martin,"{""21159"": 100}",Martin,21159,False,False,America/New_York,"(37.85112, -82.61377)",5.0531556806604,5480.0,31091_0_no,37.81247733012546,-82.69238666379775,5.0
41263,37.85717,-82.76256,Tutor Key,KY,Kentucky,True,,332.0,23.6,21115,Johnson,"{""21115"": 100}",Johnson,21115,False,False,America/New_York,"(37.85717, -82.76256)",4.919235418873764,5480.0,31091_0_no,37.81247733012546,-82.69238666379775,5.0
41265,37.75424,-82.70446,Van Lear,KY,Kentucky,True,,1007.0,14.4,21115,Johnson,"{""21115"": 78.95, ""21071"": 21.05}",Johnson|Floyd,21115|21071,False,False,America/New_York,"(37.75424, -82.70446)",4.077469266894809,5480.0,31091_0_no,37.81247733012546,-82.69238666379775,5.0
41271,37.82773,-82.72453,Williamsport,KY,Kentucky,True,,166.0,19.2,21115,Johnson,"{""21115"": 100}",Johnson,21115,False,False,America/New_York,"(37.82773, -82.72453)",2.0465678837760546,5480.0,31091_0_no,37.81247733012546,-82.69238666379775,5.0
