zip,lat,lng,city,state_id,state_name,zcta,parent_zcta,population,density,county_fips,county_name,county_weights,county_names_all,county_fips_all,imprecise,military,timezone,Coord,distance_miles,market_total_population,market_id,market_center_lat,market_center_lng,radius_miles
25051,38.15885,-81.70929,Costa,WV,West Virginia,True,,182.0,158.2,54005,Boone,"{""54005"": 100}",Boone,54005,False,False,America/New_York,"(38.15885, -81.70929)",5.994527440251896,8387.0,31731_0_no,38.10154454866391,-81.79210225504902,5.0
25053,38.04725,-81.87633,Danville,WV,West Virginia,True,,3999.0,31.6,54005,Boone,"{""54005"": 100}",Boone,54005,False,False,America/New_York,"(38.04725, -81.87633)",5.921208072863061,8387.0,31731_0_no,38.10154454866391,-81.79210225504902,5.0
25081,38.08235,-81.76875,Foster,WV,West Virginia,True,,1274.0,31.9,54005,Boone,"{""54005"": 100}",Boone,54005,False,False,America/New_York,"(38.08235, -81.76875)",1.836128833573597,8387.0,31731_0_no,38.10154454866391,-81.79210225504902,5.0
25142,38.15001,-81.73066,Nellis,WV,West Virginia,True,,401.0,31.1,54005,Boone,"{""54005"": 100}",Boone,54005,False,False,America/New_York,"(38.15001, -81.73066)",4.729279302966729,8387.0,31731_0_no,38.10154454866391,-81.79210225504902,5.0
25154,38.11572,-81.70249,Peytona,WV,West Virginia,True,,989.0,23.1,54005,Boone,"{""54005"": 100}",Boone,54005,False,False,America/New_York,"(38.11572, -81.70249)",4.969301499212403,8387.0,31731_0_no,38.10154454866391,-81.79210225504902,5.0
25169,38.12788,-81.76288,Ridgeview,WV,West Virginia,True,,598.0,35.6,54005,Boone,"{""54005"": 100}",Boone,54005,False,False,America/New_York,"(38.12788, -81.76288)",2.415464579696751,8387.0,31731_0_no,38.10154454866391,-81.79210225504902,5.0
25529,38.15573,-81.8245,Julian,WV,West Virginia,True,,944.0,11.1,54005,Boone,"{""54005"": 94.8, ""54043"": 5.2}",Boone|Lincoln,54005|54043,False,False,America/New_York,"(38.15573, -81.8245)",4.13727355093387,8387.0,31731_0_no,38.10154454866391,-81.79210225504902,5.0
