zip,lat,lng,city,state_id,state_name,zcta,parent_zcta,population,density,county_fips,county_name,county_weights,county_names_all,county_fips_all,imprecise,military,timezone,Coord,distance_miles,market_total_population,market_id,market_center_lat,market_center_lng,radius_miles
22711,38.46239,-78.27634,Banco,VA,Virginia,True,,25.0,4.2,51113,Madison,"{""51113"": 100}",Madison,51113,False,False,America/New_York,"(38.46239, -78.27634)",6.034327141293192,5025.0,32674_0_no,38.53334536230419,-78.21127707998468,5.0
22713,38.54123,-78.13204,Boston,VA,Virginia,True,,1812.0,31.4,51047,Culpeper,"{""51047"": 67.95, ""51157"": 32.05}",Culpeper|Rappahannock,51047|51157,False,False,America/New_York,"(38.54123, -78.13204)",4.316885855587862,5025.0,32674_0_no,38.53334536230419,-78.21127707998468,5.0
22719,38.52888,-78.28337,Etlan,VA,Virginia,True,,81.0,1.6,51113,Madison,"{""51113"": 100}",Madison,51113,False,False,America/New_York,"(38.52888, -78.28337)",3.908796536310244,5025.0,32674_0_no,38.53334536230419,-78.21127707998468,5.0
22722,38.46304,-78.22645,Haywood,VA,Virginia,True,,421.0,62.1,51113,Madison,"{""51113"": 100}",Madison,51113,False,False,America/New_York,"(38.46304, -78.22645)",4.926440031145788,5025.0,32674_0_no,38.53334536230419,-78.21127707998468,5.0
22735,38.47941,-78.18336,Reva,VA,Virginia,True,,2686.0,32.5,51113,Madison,"{""51113"": 62.84, ""51047"": 37.16}",Madison|Culpeper,51113|51047,False,False,America/New_York,"(38.47941, -78.18336)",4.0206668952509546,5025.0,32674_0_no,38.53334536230419,-78.21127707998468,5.0
