zip,lat,lng,city,state_id,state_name,zcta,parent_zcta,population,density,county_fips,county_name,county_weights,county_names_all,county_fips_all,imprecise,military,timezone,Coord,distance_miles,market_total_population,market_id,market_center_lat,market_center_lng,radius_miles
21612,38.74928,-76.27695,Bozman,MD,Maryland,True,,597.0,41.6,24041,Talbot,"{""24041"": 100}",Talbot,24041,False,False,America/New_York,"(38.74928, -76.27695)",6.515127386735935,1630.0,33302_0_no,38.8215869930105,-76.35459484522833,5.0
21624,38.83407,-76.27212,Claiborne,MD,Maryland,True,,115.0,19.1,24041,Talbot,"{""24041"": 100}",Talbot,24041,False,False,America/New_York,"(38.83407, -76.27212)",4.522307434968245,1630.0,33302_0_no,38.8215869930105,-76.35459484522833,5.0
21647,38.80114,-76.2831,Mcdaniel,MD,Maryland,True,,357.0,41.0,24041,Talbot,"{""24041"": 100}",Talbot,24041,False,False,America/New_York,"(38.80114, -76.2831)",4.100248661005522,1630.0,33302_0_no,38.8215869930105,-76.35459484522833,5.0
21665,38.75158,-76.34469,Sherwood,MD,Maryland,True,,194.0,14.2,24041,Talbot,"{""24041"": 100}",Talbot,24041,False,False,America/New_York,"(38.75158, -76.34469)",4.866349057833379,1630.0,33302_0_no,38.8215869930105,-76.35459484522833,5.0
21676,38.78628,-76.30548,Wittman,MD,Maryland,True,,367.0,35.5,24041,Talbot,"{""24041"": 100}",Talbot,24041,False,False,America/New_York,"(38.78628, -76.30548)",3.5978738090354434,1630.0,33302_0_no,38.8215869930105,-76.35459484522833,5.0
