zip,lat,lng,city,state_id,state_name,zcta,parent_zcta,population,density,county_fips,county_name,county_weights,county_names_all,county_fips_all,imprecise,military,timezone,Coord,distance_miles,market_total_population,market_id,market_center_lat,market_center_lng,radius_miles
20130,39.02756,-77.94243,Paris,VA,Virginia,True,,220.0,7.7,51043,Clarke,"{""51043"": 53.94, ""51061"": 23.48, ""51107"": 22.58}",Clarke|Fauquier|Loudoun,51043|51061|51107,False,False,America/New_York,"(39.02756, -77.94243)",1.230863619085398,7223.0,33650_0_yes,39.04009288215646,-77.95872853249571,5.0
20135,39.08602,-77.87659,Bluemont,VA,Virginia,True,,3652.0,36.5,51043,Clarke,"{""51043"": 61.09, ""51107"": 38.18, ""54037"": 0.73}",Clarke|Loudoun|Jefferson,51043|51107|54037,False,False,America/New_York,"(39.08602, -77.87659)",5.43021830262716,7223.0,33650_0_yes,39.04009288215646,-77.95872853249571,5.0
20184,39.00143,-77.87874,Upperville,VA,Virginia,True,,436.0,4.7,51107,Loudoun,"{""51107"": 56.25, ""51061"": 43.75}",Loudoun|Fauquier,51107|51061,False,False,America/New_York,"(39.00143, -77.87874)",5.0569393595108965,7223.0,33650_0_yes,39.04009288215646,-77.95872853249571,5.0
22620,39.06417,-78.03317,Boyce,VA,Virginia,True,,2865.0,24.2,51043,Clarke,"{""51043"": 100}",Clarke,51043,False,False,America/New_York,"(39.06417, -78.03317)",4.326823395817306,7223.0,33650_0_yes,39.04009288215646,-77.95872853249571,5.0
22646,39.07019,-78.04803,Millwood,VA,Virginia,True,,50.0,19.2,51043,Clarke,"{""51043"": 100}",Clarke,51043,False,False,America/New_York,"(39.07019, -78.04803)",5.223172392531408,7223.0,33650_0_yes,39.04009288215646,-77.95872853249571,5.0
