zip,lat,lng,city,state_id,state_name,zcta,parent_zcta,population,density,county_fips,county_name,county_weights,county_names_all,county_fips_all,imprecise,military,timezone,Coord,distance_miles,market_total_population,market_id,market_center_lat,market_center_lng,radius_miles
41001,38.91409,-84.40256,Alexandria,KY,Kentucky,True,,17841.0,133.3,21037,Campbell,"{""21037"": 100}",Campbell,21037,False,False,America/New_York,"(38.91409, -84.40256)",4.260678683462628,58767.0,33664_0_no,38.972856650281,-84.42658332986494,5.0
41015,38.97885,-84.48456,Latonia,KY,Kentucky,True,,19701.0,298.9,21117,Kenton,"{""21117"": 100}",Kenton,21117,False,False,America/New_York,"(38.97885, -84.48456)",3.1415699449421903,58767.0,33664_0_no,38.972856650281,-84.42658332986494,5.0
41059,39.00504,-84.35213,Melbourne,KY,Kentucky,True,,3395.0,85.3,21037,Campbell,"{""21037"": 100}",Campbell,21037,False,False,America/New_York,"(39.00504, -84.35213)",4.575174429690601,58767.0,33664_0_no,38.972856650281,-84.42658332986494,5.0
41076,39.0178,-84.44084,Newport,KY,Kentucky,True,,16926.0,340.9,21037,Campbell,"{""21037"": 100}",Campbell,21037,False,False,America/New_York,"(39.0178, -84.44084)",3.1982689851989634,58767.0,33664_0_no,38.972856650281,-84.42658332986494,5.0
41085,39.03508,-84.39378,Silver Grove,KY,Kentucky,True,,904.0,1094.0,21037,Campbell,"{""21037"": 100}",Campbell,21037,False,False,America/New_York,"(39.03508, -84.39378)",4.64601943456774,58767.0,33664_0_no,38.972856650281,-84.42658332986494,5.0
