zip,lat,lng,city,state_id,state_name,zcta,parent_zcta,population,density,county_fips,county_name,county_weights,county_names_all,county_fips_all,imprecise,military,timezone,Coord,distance_miles,market_total_population,market_id,market_center_lat,market_center_lng,radius_miles
08221,39.33879,-74.5652,Linwood,NJ,New Jersey,True,,6719.0,551.9,34001,Atlantic,"{""34001"": 100}",Atlantic,34001,False,False,America/New_York,"(39.33879, -74.5652)",1.6499425146367324,108251.0,34267_0_yes,39.32708282033465,-74.5921086974291,5.0
08223,39.27021,-74.6571,Marmora,NJ,New Jersey,True,,4277.0,127.5,34009,Cape May,"{""34009"": 100}",Cape May,34009,False,False,America/New_York,"(39.27021, -74.6571)",5.245637202669133,108251.0,34267_0_yes,39.32708282033465,-74.5921086974291,5.0
08225,39.36167,-74.53963,Northfield,NJ,New Jersey,True,,8103.0,517.0,34001,Atlantic,"{""34001"": 100}",Atlantic,34001,False,False,America/New_York,"(39.36167, -74.53963)",3.684282346127027,108251.0,34267_0_yes,39.32708282033465,-74.5921086974291,5.0
08226,39.26812,-74.60196,Ocean City,NJ,New Jersey,True,,11065.0,632.6,34009,Cape May,"{""34009"": 100}",Cape May,34009,False,False,America/New_York,"(39.26812, -74.60196)",4.107854132413722,108251.0,34267_0_yes,39.32708282033465,-74.5921086974291,5.0
08232,39.38771,-74.51489,Pleasantville,NJ,New Jersey,True,,19611.0,1290.9,34001,Atlantic,"{""34001"": 100}",Atlantic,34001,False,False,America/New_York,"(39.38771, -74.51489)",5.879216299310739,108251.0,34267_0_yes,39.32708282033465,-74.5921086974291,5.0
08234,39.38662,-74.62369,Egg Harbor Township,NJ,New Jersey,True,,41276.0,262.7,34001,Atlantic,"{""34001"": 100}",Atlantic,34001,False,False,America/New_York,"(39.38662, -74.62369)",4.446183912602516,108251.0,34267_0_yes,39.32708282033465,-74.5921086974291,5.0
08244,39.31503,-74.59808,Somers Point,NJ,New Jersey,True,,10376.0,813.7,34001,Atlantic,"{""34001"": 100}",Atlantic,34001,False,False,America/New_York,"(39.31503, -74.59808)",0.8918398524597836,108251.0,34267_0_yes,39.32708282033465,-74.5921086974291,5.0
08402,39.33069,-74.50706,Margate City,NJ,New Jersey,True,,5921.0,1617.8,34001,Atlantic,"{""34001"": 100}",Atlantic,34001,False,False,America/New_York,"(39.33069, -74.50706)",4.552271836152184,108251.0,34267_0_yes,39.32708282033465,-74.5921086974291,5.0
08403,39.31915,-74.53535,Longport,NJ,New Jersey,True,,903.0,165.4,34001,Atlantic,"{""34001"": 100}",Atlantic,34001,False,False,America/New_York,"(39.31915, -74.53535)",3.08284560354349,108251.0,34267_0_yes,39.32708282033465,-74.5921086974291,5.0
