zip,lat,lng,city,state_id,state_name,zcta,parent_zcta,population,density,county_fips,county_name,county_weights,county_names_all,county_fips_all,imprecise,military,timezone,Coord,distance_miles,market_total_population,market_id,market_center_lat,market_center_lng,radius_miles
80015,39.62737,-104.79497,Aurora,CO,Colorado,True,,70215.0,1666.8,8005,Arapahoe,"{""08005"": 100}",Arapahoe,08005,False,False,America/Denver,"(39.62737, -104.79497)",5.998436026147293,304994.0,35039_0_no,39.5687686581846,-104.87809970739754,5.0
80111,39.6124,-104.88025,Englewood,CO,Colorado,True,,32495.0,1151.7,8005,Arapahoe,"{""08005"": 100}",Arapahoe,08005,False,False,America/Denver,"(39.6124, -104.88025)",3.0168119072582273,304994.0,35039_0_no,39.5687686581846,-104.87809970739754,5.0
80112,39.57288,-104.85854,Englewood,CO,Colorado,True,,34714.0,750.9,8005,Arapahoe,"{""08005"": 73.13, ""08035"": 26.87}",Arapahoe|Douglas,08005|08035,False,False,America/Denver,"(39.57288, -104.85854)",1.079782098047148,304994.0,35039_0_no,39.5687686581846,-104.87809970739754,5.0
80121,39.61045,-104.95421,Littleton,CO,Colorado,True,,18567.0,994.0,8005,Arapahoe,"{""08005"": 100}",Arapahoe,08005,False,False,America/Denver,"(39.61045, -104.95421)",4.971598151120824,304994.0,35039_0_no,39.5687686581846,-104.87809970739754,5.0
80122,39.5806,-104.95573,Littleton,CO,Colorado,True,,33120.0,1797.5,8005,Arapahoe,"{""08005"": 100}",Arapahoe,08005,False,False,America/Denver,"(39.5806, -104.95573)",4.2143871320067845,304994.0,35039_0_no,39.5687686581846,-104.87809970739754,5.0
80124,39.53197,-104.89173,Lone Tree,CO,Colorado,True,,21646.0,890.6,8035,Douglas,"{""08035"": 100}",Douglas,08035,False,False,America/Denver,"(39.53197, -104.89173)",2.6442097767500323,304994.0,35039_0_no,39.5687686581846,-104.87809970739754,5.0
80126,39.54127,-104.96251,Littleton,CO,Colorado,True,,44574.0,1591.0,8035,Douglas,"{""08035"": 100}",Douglas,08035,False,False,America/Denver,"(39.54127, -104.96251)",4.881621530559704,304994.0,35039_0_no,39.5687686581846,-104.87809970739754,5.0
80130,39.52918,-104.92448,Littleton,CO,Colorado,True,,27892.0,1566.4,8035,Douglas,"{""08035"": 100}",Douglas,08035,False,False,America/Denver,"(39.52918, -104.92448)",3.6861516091990922,304994.0,35039_0_no,39.5687686581846,-104.87809970739754,5.0
80237,39.63996,-104.90178,Denver,CO,Colorado,True,,21771.0,2319.8,8031,Denver,"{""08031"": 99.77, ""08005"": 0.23}",Denver|Arapahoe,08031|08005,False,False,America/Denver,"(39.63996, -104.90178)",5.077816719253844,304994.0,35039_0_no,39.5687686581846,-104.87809970739754,5.0
