zip,lat,lng,city,state_id,state_name,zcta,parent_zcta,population,density,county_fips,county_name,county_weights,county_names_all,county_fips_all,imprecise,military,timezone,Coord,distance_miles,market_total_population,market_id,market_center_lat,market_center_lng,radius_miles
08028,39.69336,-75.11949,Glassboro,NJ,New Jersey,True,,21596.0,574.9,34015,Gloucester,"{""34015"": 100}",Gloucester,34015,False,False,America/New_York,"(39.69336, -75.11949)",3.6493605208409226,89741.0,35195_0_no,39.68967893831436,-75.18796270879496,5.0
08039,39.68662,-75.27661,Harrisonville,NJ,New Jersey,True,,186.0,133.0,34015,Gloucester,"{""34015"": 100}",Gloucester,34015,False,False,America/New_York,"(39.68662, -75.27661)",4.718074722931087,89741.0,35195_0_no,39.68967893831436,-75.18796270879496,5.0
08062,39.71465,-75.22124,Mullica Hill,NJ,New Jersey,True,,16419.0,197.0,34015,Gloucester,"{""34015"": 100}",Gloucester,34015,False,False,America/New_York,"(39.71465, -75.22124)",2.4710473487845825,89741.0,35195_0_no,39.68967893831436,-75.18796270879496,5.0
08071,39.73227,-75.13457,Pitman,NJ,New Jersey,True,,9381.0,1092.7,34015,Gloucester,"{""34015"": 100}",Gloucester,34015,False,False,America/New_York,"(39.73227, -75.13457)",4.088237646227546,89741.0,35195_0_no,39.68967893831436,-75.18796270879496,5.0
08074,39.71289,-75.16379,Richwood,NJ,New Jersey,True,,16.0,11.1,34015,Gloucester,"{""34015"": 100}",Gloucester,34015,False,False,America/New_York,"(39.71289, -75.16379)",2.055042751348129,89741.0,35195_0_no,39.68967893831436,-75.18796270879496,5.0
08080,39.75714,-75.11801,Sewell,NJ,New Jersey,True,,37216.0,491.5,34015,Gloucester,"{""34015"": 100}",Gloucester,34015,False,False,America/New_York,"(39.75714, -75.11801)",5.9620018766381095,89741.0,35195_0_no,39.68967893831436,-75.18796270879496,5.0
08343,39.64057,-75.1699,Monroeville,NJ,New Jersey,True,,4927.0,59.0,34033,Salem,"{""34033"": 51.41, ""34015"": 48.59}",Salem|Gloucester,34033|34015,False,False,America/New_York,"(39.64057, -75.1699)",3.5264876348286633,89741.0,35195_0_no,39.68967893831436,-75.18796270879496,5.0
