zip,lat,lng,city,state_id,state_name,zcta,parent_zcta,population,density,county_fips,county_name,county_weights,county_names_all,county_fips_all,imprecise,military,timezone,Coord,distance_miles,market_total_population,market_id,market_center_lat,market_center_lng,radius_miles
15315,39.75741,-79.98319,Bobtown,PA,Pennsylvania,True,,648.0,278.6,42059,Greene,"{""42059"": 100}",Greene,42059,False,False,America/New_York,"(39.75741, -79.98319)",3.880169894020671,7779.0,35243_0_yes,39.76586958980753,-79.91096854839935,5.0
15327,39.75088,-79.96293,Dilliner,PA,Pennsylvania,True,,1521.0,29.3,42059,Greene,"{""42059"": 100}",Greene,42059,False,False,America/New_York,"(39.75088, -79.96293)",2.947879586593309,7779.0,35243_0_yes,39.76586958980753,-79.91096854839935,5.0
15334,39.81292,-79.9673,Garards Fort,PA,Pennsylvania,True,,251.0,34.8,42059,Greene,"{""42059"": 100}",Greene,42059,False,False,America/New_York,"(39.81292, -79.9673)",4.417306721876304,7779.0,35243_0_yes,39.76586958980753,-79.91096854839935,5.0
15338,39.81654,-79.96206,Greensboro,PA,Pennsylvania,True,,1789.0,44.8,42059,Greene,"{""42059"": 100}",Greene,42059,False,False,America/New_York,"(39.81654, -79.96206)",4.428807468798782,7779.0,35243_0_yes,39.76586958980753,-79.91096854839935,5.0
15451,39.74018,-79.84005,Lake Lynn,PA,Pennsylvania,True,,1313.0,53.5,42051,Fayette,"{""42051"": 100}",Fayette,42051,False,False,America/New_York,"(39.74018, -79.84005)",4.164382086573664,7779.0,35243_0_yes,39.76586958980753,-79.91096854839935,5.0
15460,39.80712,-79.90756,Martin,PA,Pennsylvania,True,,166.0,179.2,42051,Fayette,"{""42051"": 100}",Fayette,42051,False,False,America/New_York,"(39.80712, -79.90756)",2.855871635400903,7779.0,35243_0_yes,39.76586958980753,-79.91096854839935,5.0
15467,39.78931,-79.90526,New Geneva,PA,Pennsylvania,True,,123.0,76.1,42051,Fayette,"{""42051"": 100}",Fayette,42051,False,False,America/New_York,"(39.78931, -79.90526)",1.6477012633225185,7779.0,35243_0_yes,39.76586958980753,-79.91096854839935,5.0
15474,39.75201,-79.90145,Point Marion,PA,Pennsylvania,True,,1968.0,94.9,42051,Fayette,"{""42051"": 100}",Fayette,42051,False,False,America/New_York,"(39.75201, -79.90145)",1.0828753713653814,7779.0,35243_0_yes,39.76586958980753,-79.91096854839935,5.0
