zip,lat,lng,city,state_id,state_name,zcta,parent_zcta,population,density,county_fips,county_name,county_weights,county_names_all,county_fips_all,imprecise,military,timezone,Coord,distance_miles,market_total_population,market_id,market_center_lat,market_center_lng,radius_miles
08721,39.9071,-74.1846,Bayville,NJ,New Jersey,True,,21486.0,349.3,34029,Ocean,"{""34029"": 100}",Ocean,34029,False,False,America/New_York,"(39.9071, -74.1846)",5.376764740648518,160533.0,35818_0_no,39.97854175209295,-74.22484056250983,5.0
08722,39.92863,-74.20224,Beachwood,NJ,New Jersey,True,,11274.0,1575.4,34029,Ocean,"{""34029"": 100}",Ocean,34029,False,False,America/New_York,"(39.92863, -74.20224)",3.650416313843321,160533.0,35818_0_no,39.97854175209295,-74.22484056250983,5.0
08732,39.94177,-74.14497,Island Heights,NJ,New Jersey,True,,1413.0,1010.3,34029,Ocean,"{""34029"": 100}",Ocean,34029,False,False,America/New_York,"(39.94177, -74.14497)",4.93428622790812,160533.0,35818_0_no,39.97854175209295,-74.22484056250983,5.0
08741,39.93632,-74.16779,Pine Beach,NJ,New Jersey,True,,2669.0,1092.9,34029,Ocean,"{""34029"": 100}",Ocean,34029,False,False,America/New_York,"(39.93632, -74.16779)",4.199966478504435,160533.0,35818_0_no,39.97854175209295,-74.22484056250983,5.0
08753,39.98091,-74.15055,Toms River,NJ,New Jersey,True,,63750.0,1067.9,34029,Ocean,"{""34029"": 100}",Ocean,34029,False,False,America/New_York,"(39.98091, -74.15055)",3.9366669869090387,160533.0,35818_0_no,39.97854175209295,-74.22484056250983,5.0
08755,40.00968,-74.22457,Toms River,NJ,New Jersey,True,,26398.0,636.6,34029,Ocean,"{""34029"": 100}",Ocean,34029,False,False,America/New_York,"(40.00968, -74.22457)",2.151495676987732,160533.0,35818_0_no,39.97854175209295,-74.22484056250983,5.0
08757,39.96061,-74.25884,Toms River,NJ,New Jersey,True,,33543.0,728.3,34029,Ocean,"{""34029"": 100}",Ocean,34029,False,False,America/New_York,"(39.96061, -74.25884)",2.185470106831358,160533.0,35818_0_no,39.97854175209295,-74.22484056250983,5.0
