zip,lat,lng,city,state_id,state_name,zcta,parent_zcta,population,density,county_fips,county_name,county_weights,county_names_all,county_fips_all,imprecise,military,timezone,Coord,distance_miles,market_total_population,market_id,market_center_lat,market_center_lng,radius_miles
17318,40.01847,-76.7265,Emigsville,PA,Pennsylvania,True,,376.0,136.0,42133,York,"{""42133"": 100}",York,42133,False,False,America/New_York,"(40.01847, -76.7265)",2.691933883740178,83392.0,35854_0_yes,40.05292303015734,-76.70274022573055,5.0
17345,40.07929,-76.72812,Manchester,PA,Pennsylvania,True,,7737.0,248.8,42133,York,"{""42133"": 100}",York,42133,False,False,America/New_York,"(40.07929, -76.72812)",2.262720080167029,83392.0,35854_0_yes,40.05292303015734,-76.70274022573055,5.0
17347,40.04927,-76.68247,Mount Wolf,PA,Pennsylvania,True,,6577.0,200.1,42133,York,"{""42133"": 100}",York,42133,False,False,America/New_York,"(40.04927, -76.68247)",1.1013829035968346,83392.0,35854_0_yes,40.05292303015734,-76.70274022573055,5.0
17370,40.1174,-76.78124,York Haven,PA,Pennsylvania,True,,5423.0,158.2,42133,York,"{""42133"": 100}",York,42133,False,False,America/New_York,"(40.1174, -76.78124)",6.088220927768018,83392.0,35854_0_yes,40.05292303015734,-76.70274022573055,5.0
17404,40.00496,-76.77217,York,PA,Pennsylvania,True,,37280.0,668.1,42133,York,"{""42133"": 100}",York,42133,False,False,America/New_York,"(40.00496, -76.77217)",4.947221566621457,83392.0,35854_0_yes,40.05292303015734,-76.70274022573055,5.0
17406,40.01224,-76.64249,York,PA,Pennsylvania,True,,23326.0,184.2,42133,York,"{""42133"": 100}",York,42133,False,False,America/New_York,"(40.01224, -76.64249)",4.249834797881175,83392.0,35854_0_yes,40.05292303015734,-76.70274022573055,5.0
17502,40.10081,-76.66732,Bainbridge,PA,Pennsylvania,True,,2673.0,96.7,42071,Lancaster,"{""42071"": 99.9, ""42133"": 0.1}",Lancaster|York,42071|42133,False,False,America/New_York,"(40.10081, -76.66732)",3.8018516935498483,83392.0,35854_0_yes,40.05292303015734,-76.70274022573055,5.0
