zip,lat,lng,city,state_id,state_name,zcta,parent_zcta,population,density,county_fips,county_name,county_weights,county_names_all,county_fips_all,imprecise,military,timezone,Coord,distance_miles,market_total_population,market_id,market_center_lat,market_center_lng,radius_miles
15428,40.0811,-79.68184,Dawson,PA,Pennsylvania,True,,1880.0,35.4,42051,Fayette,"{""42051"": 100}",Fayette,42051,False,False,America/New_York,"(40.0811, -79.68184)",5.704607346003107,29996.0,36159_0_no,40.12773268945989,-79.5927618414298,5.0
15612,40.13793,-79.59938,Alverton,PA,Pennsylvania,True,,366.0,65.6,42129,Westmoreland,"{""42129"": 100}",Westmoreland,42129,False,False,America/New_York,"(40.13793, -79.59938)",0.786536882667716,29996.0,36159_0_no,40.12773268945989,-79.5927618414298,5.0
15631,40.08968,-79.58527,Everson,PA,Pennsylvania,True,,970.0,665.1,42051,Fayette,"{""42051"": 100}",Fayette,42051,False,False,America/New_York,"(40.08968, -79.58527)",2.6588305234438545,29996.0,36159_0_no,40.12773268945989,-79.5927618414298,5.0
15666,40.15858,-79.51398,Mount Pleasant,PA,Pennsylvania,True,,15750.0,114.0,42129,Westmoreland,"{""42129"": 75.99, ""42051"": 24.01}",Westmoreland|Fayette,42129|42051,False,False,America/New_York,"(40.15858, -79.51398)",4.675152643578794,29996.0,36159_0_no,40.12773268945989,-79.5927618414298,5.0
15679,40.18126,-79.64982,Ruffs Dale,PA,Pennsylvania,True,,2298.0,40.3,42129,Westmoreland,"{""42129"": 100}",Westmoreland,42129,False,False,America/New_York,"(40.18126, -79.64982)",4.770452626036581,29996.0,36159_0_no,40.12773268945989,-79.5927618414298,5.0
15683,40.10926,-79.60492,Scottdale,PA,Pennsylvania,True,,7680.0,157.7,42129,Westmoreland,"{""42129"": 81.15, ""42051"": 18.85}",Westmoreland|Fayette,42129|42051,False,False,America/New_York,"(40.10926, -79.60492)",1.4288878057686394,29996.0,36159_0_no,40.12773268945989,-79.5927618414298,5.0
15688,40.1734,-79.58602,Tarrs,PA,Pennsylvania,True,,1052.0,194.9,42129,Westmoreland,"{""42129"": 100}",Westmoreland,42129,False,False,America/New_York,"(40.1734, -79.58602)",3.175335498032668,29996.0,36159_0_no,40.12773268945989,-79.5927618414298,5.0
