zip,lat,lng,city,state_id,state_name,zcta,parent_zcta,population,density,county_fips,county_name,county_weights,county_names_all,county_fips_all,imprecise,military,timezone,Coord,distance_miles,market_total_population,market_id,market_center_lat,market_center_lng,radius_miles
43917,40.22396,-80.80546,Dillonvale,OH,Ohio,True,,3523.0,42.1,39081,Jefferson,"{""39081"": 91.31, ""39013"": 8.69}",Jefferson|Belmont,39081|39013,False,False,America/New_York,"(40.22396, -80.80546)",2.947759900908489,9879.0,36189_0_yes,40.20105338362958,-80.75832826151678,5.0
43939,40.16723,-80.79993,Mount Pleasant,OH,Ohio,True,,416.0,175.4,39081,Jefferson,"{""39081"": 100}",Jefferson,39081,False,False,America/New_York,"(40.16723, -80.79993)",3.206827599477894,9879.0,36189_0_yes,40.20105338362958,-80.75832826151678,5.0
43943,40.2242,-80.73269,Rayland,OH,Ohio,True,,2878.0,24.6,39081,Jefferson,"{""39081"": 97.93, ""39013"": 2.07}",Jefferson|Belmont,39081|39013,False,False,America/New_York,"(40.2242, -80.73269)",2.0946744014083656,9879.0,36189_0_yes,40.20105338362958,-80.75832826151678,5.0
43948,40.26847,-80.78002,Smithfield,OH,Ohio,True,,689.0,442.7,39081,Jefferson,"{""39081"": 100}",Jefferson,39081,False,False,America/New_York,"(40.26847, -80.78002)",4.796506396608664,9879.0,36189_0_yes,40.20105338362958,-80.75832826151678,5.0
43963,40.17155,-80.69698,Tiltonsville,OH,Ohio,True,,1328.0,1163.3,39081,Jefferson,"{""39081"": 100}",Jefferson,39081,False,False,America/New_York,"(40.17155, -80.69698)",3.8264078688872862,9879.0,36189_0_yes,40.20105338362958,-80.75832826151678,5.0
43971,40.15811,-80.71301,Yorkville,OH,Ohio,True,,1045.0,318.3,39081,Jefferson,"{""39081"": 67.29, ""39013"": 32.71}",Jefferson|Belmont,39081|39013,False,False,America/New_York,"(40.15811, -80.71301)",3.8114138355497986,9879.0,36189_0_yes,40.20105338362958,-80.75832826151678,5.0
