zip,lat,lng,city,state_id,state_name,zcta,parent_zcta,population,density,county_fips,county_name,county_weights,county_names_all,county_fips_all,imprecise,military,timezone,Coord,distance_miles,market_total_population,market_id,market_center_lat,market_center_lng,radius_miles
18901,40.30529,-75.15026,Doylestown,PA,Pennsylvania,True,,27875.0,513.2,42017,Bucks,"{""42017"": 100}",Bucks,42017,False,False,America/New_York,"(40.30529, -75.15026)",2.53242852665484,127452.0,36448_0_no,40.26892081036004,-75.14430011441536,5.0
18912,40.32134,-75.05852,Buckingham,PA,Pennsylvania,True,,10.0,3.2,42017,Bucks,"{""42017"": 100}",Bucks,42017,False,False,America/New_York,"(40.32134, -75.05852)",5.79248335868264,127452.0,36448_0_no,40.26892081036004,-75.14430011441536,5.0
18914,40.28908,-75.21046,Chalfont,PA,Pennsylvania,True,,21888.0,480.1,42017,Bucks,"{""42017"": 98.62, ""42091"": 1.38}",Bucks|Montgomery,42017|42091,False,False,America/New_York,"(40.28908, -75.21046)",3.7552702976323276,127452.0,36448_0_no,40.26892081036004,-75.14430011441536,5.0
18925,40.2851,-75.05934,Furlong,PA,Pennsylvania,True,,6825.0,266.2,42017,Bucks,"{""42017"": 100}",Bucks,42017,False,False,America/New_York,"(40.2851, -75.05934)",4.615934216856175,127452.0,36448_0_no,40.26892081036004,-75.14430011441536,5.0
18929,40.25674,-75.07885,Jamison,PA,Pennsylvania,True,,10136.0,533.6,42017,Bucks,"{""42017"": 100}",Bucks,42017,False,False,America/New_York,"(40.25674, -75.07885)",3.551961730760834,127452.0,36448_0_no,40.26892081036004,-75.14430011441536,5.0
18974,40.21675,-75.07321,Warminster,PA,Pennsylvania,True,,40405.0,791.8,42017,Bucks,"{""42017"": 100}",Bucks,42017,False,False,America/New_York,"(40.21675, -75.07321)",5.201030816816467,127452.0,36448_0_no,40.26892081036004,-75.14430011441536,5.0
18976,40.24676,-75.14321,Warrington,PA,Pennsylvania,True,,20313.0,735.3,42017,Bucks,"{""42017"": 100}",Bucks,42017,False,False,America/New_York,"(40.24676, -75.14321)",1.5322446680902184,127452.0,36448_0_no,40.26892081036004,-75.14430011441536,5.0
