zip,lat,lng,city,state_id,state_name,zcta,parent_zcta,population,density,county_fips,county_name,county_weights,county_names_all,county_fips_all,imprecise,military,timezone,Coord,distance_miles,market_total_population,market_id,market_center_lat,market_center_lng,radius_miles
07726,40.28318,-74.34232,Englishtown,NJ,New Jersey,True,,43500.0,507.7,34025,Monmouth,"{""34025"": 98.67, ""34023"": 1.33}",Monmouth|Middlesex,34025|34023,False,False,America/New_York,"(40.28318, -74.34232)",5.450771857809356,153607.0,36468_0_yes,40.34068406791211,-74.41314744133109,5.0
08810,40.37073,-74.49641,Dayton,NJ,New Jersey,True,,8774.0,614.1,34023,Middlesex,"{""34023"": 100}",Middlesex,34023,False,False,America/New_York,"(40.37073, -74.49641)",4.850621030150993,153607.0,36468_0_yes,40.34068406791211,-74.41314744133109,5.0
08828,40.37767,-74.42383,Helmetta,NJ,New Jersey,True,,2232.0,1040.4,34023,Middlesex,"{""34023"": 100}",Middlesex,34023,False,False,America/New_York,"(40.37767, -74.42383)",2.616644069695099,153607.0,36468_0_yes,40.34068406791211,-74.41314744133109,5.0
08831,40.32908,-74.43066,Monroe Township,NJ,New Jersey,True,,51245.0,385.7,34023,Middlesex,"{""34023"": 100}",Middlesex,34023,False,False,America/New_York,"(40.32908, -74.43066)",1.2221143779718373,153607.0,36468_0_yes,40.34068406791211,-74.41314744133109,5.0
08857,40.39188,-74.33059,Old Bridge,NJ,New Jersey,True,,39601.0,635.8,34023,Middlesex,"{""34023"": 100}",Middlesex,34023,False,False,America/New_York,"(40.39188, -74.33059)",5.603685219860729,153607.0,36468_0_yes,40.34068406791211,-74.41314744133109,5.0
08884,40.39493,-74.39196,Spotswood,NJ,New Jersey,True,,8255.0,1379.6,34023,Middlesex,"{""34023"": 100}",Middlesex,34023,False,False,America/New_York,"(40.39493, -74.39196)",3.9104737756205945,153607.0,36468_0_yes,40.34068406791211,-74.41314744133109,5.0
