zip,lat,lng,city,state_id,state_name,zcta,parent_zcta,population,density,county_fips,county_name,county_weights,county_names_all,county_fips_all,imprecise,military,timezone,Coord,distance_miles,market_total_population,market_id,market_center_lat,market_center_lng,radius_miles
17003,40.35735,-76.55528,Annville,PA,Pennsylvania,True,,12565.0,113.7,42075,Lebanon,"{""42075"": 100}",Lebanon,42075,False,False,America/New_York,"(40.35735, -76.55528)",3.2562577040000398,104887.0,36479_0_yes,40.34238990880478,-76.49663862509838,5.0
17010,40.27809,-76.58335,Campbelltown,PA,Pennsylvania,True,,363.0,6704.1,42075,Lebanon,"{""42075"": 100}",Lebanon,42075,False,False,America/New_York,"(40.27809, -76.58335)",6.372569111777918,104887.0,36479_0_yes,40.34238990880478,-76.49663862509838,5.0
17016,40.27322,-76.40705,Cornwall,PA,Pennsylvania,True,,1352.0,2202.5,42075,Lebanon,"{""42075"": 100}",Lebanon,42075,False,False,America/New_York,"(40.27322, -76.40705)",6.717320796749698,104887.0,36479_0_yes,40.34238990880478,-76.49663862509838,5.0
17042,40.29488,-76.42271,Lebanon,PA,Pennsylvania,True,,36949.0,210.7,42075,Lebanon,"{""42075"": 100}",Lebanon,42075,False,False,America/New_York,"(40.29488, -76.42271)",5.093493518073698,104887.0,36479_0_yes,40.34238990880478,-76.49663862509838,5.0
17046,40.38242,-76.4306,Lebanon,PA,Pennsylvania,True,,31587.0,313.6,42075,Lebanon,"{""42075"": 100}",Lebanon,42075,False,False,America/New_York,"(40.38242, -76.4306)",4.442664471288785,104887.0,36479_0_yes,40.34238990880478,-76.49663862509838,5.0
17078,40.28952,-76.58484,Palmyra,PA,Pennsylvania,True,,22071.0,283.2,42075,Lebanon,"{""42075"": 83.41, ""42043"": 16.59}",Lebanon|Dauphin,42075|42043,False,False,America/New_York,"(40.28952, -76.58484)",5.910668617445094,104887.0,36479_0_yes,40.34238990880478,-76.49663862509838,5.0
