zip,lat,lng,city,state_id,state_name,zcta,parent_zcta,population,density,county_fips,county_name,county_weights,county_names_all,county_fips_all,imprecise,military,timezone,Coord,distance_miles,market_total_population,market_id,market_center_lat,market_center_lng,radius_miles
17569,40.27043,-76.09652,Reinholds,PA,Pennsylvania,True,,6422.0,149.7,42071,Lancaster,"{""42071"": 73.81, ""42011"": 26.19}",Lancaster|Berks,42071|42011,False,False,America/New_York,"(40.27043, -76.09652)",5.076126671598204,48667.0,36477_0_yes,40.34207974830904,-76.11781814286662,5.0
19551,40.35951,-76.14213,Robesonia,PA,Pennsylvania,True,,4524.0,69.0,42011,Berks,"{""42011"": 82.14, ""42075"": 17.01, ""42071"": 0.85}",Berks|Lebanon|Lancaster,42011|42075|42071,False,False,America/New_York,"(40.35951, -76.14213)",1.7576068394528452,48667.0,36477_0_yes,40.34207974830904,-76.11781814286662,5.0
19565,40.34231,-76.08873,Wernersville,PA,Pennsylvania,True,,8789.0,188.4,42011,Berks,"{""42011"": 100}",Berks,42011,False,False,America/New_York,"(40.34231, -76.08873)",1.5319351059276995,48667.0,36477_0_yes,40.34207974830904,-76.11781814286662,5.0
19567,40.3957,-76.20989,Womelsdorf,PA,Pennsylvania,True,,5628.0,95.8,42011,Berks,"{""42011"": 100}",Berks,42011,False,False,America/New_York,"(40.3957, -76.20989)",6.1005854611221775,48667.0,36477_0_yes,40.34207974830904,-76.11781814286662,5.0
19608,40.31401,-76.03574,Reading,PA,Pennsylvania,True,,23304.0,342.1,42011,Berks,"{""42011"": 100}",Berks,42011,False,False,America/New_York,"(40.31401, -76.03574)",4.738426697807326,48667.0,36477_0_yes,40.34207974830904,-76.11781814286662,5.0
