zip,lat,lng,city,state_id,state_name,zcta,parent_zcta,population,density,county_fips,county_name,county_weights,county_names_all,county_fips_all,imprecise,military,timezone,Coord,distance_miles,market_total_population,market_id,market_center_lat,market_center_lng,radius_miles
18054,40.35321,-75.43824,Green Lane,PA,Pennsylvania,True,,4909.0,111.9,42091,Montgomery,"{""42091"": 80.28, ""42017"": 19.72}",Montgomery|Bucks,42091|42017,False,False,America/New_York,"(40.35321, -75.43824)",4.189805957570795,90686.0,36473_0_yes,40.34145943745928,-75.36018238300463,5.0
18960,40.36376,-75.32366,Sellersville,PA,Pennsylvania,True,,11484.0,232.8,42017,Bucks,"{""42017"": 100}",Bucks,42017,False,False,America/New_York,"(40.36376, -75.32366)",2.4642027503140964,90686.0,36473_0_yes,40.34145943745928,-75.36018238300463,5.0
18962,40.34462,-75.27033,Silverdale,PA,Pennsylvania,True,,361.0,950.7,42017,Bucks,"{""42017"": 100}",Bucks,42017,False,False,America/New_York,"(40.34462, -75.27033)",4.736822388031783,90686.0,36473_0_yes,40.34145943745928,-75.36018238300463,5.0
18964,40.29759,-75.33327,Souderton,PA,Pennsylvania,True,,14307.0,584.4,42091,Montgomery,"{""42091"": 88.52, ""42017"": 11.48}",Montgomery|Bucks,42091|42017,False,False,America/New_York,"(40.29759, -75.33327)",3.3462683311546795,90686.0,36473_0_yes,40.34145943745928,-75.36018238300463,5.0
18969,40.32644,-75.37239,Telford,PA,Pennsylvania,True,,14930.0,351.7,42091,Montgomery,"{""42091"": 80.92, ""42017"": 19.08}",Montgomery|Bucks,42091|42017,False,False,America/New_York,"(40.32644, -75.37239)",1.2207836010079716,90686.0,36473_0_yes,40.34145943745928,-75.36018238300463,5.0
18970,40.41212,-75.38129,Trumbauersville,PA,Pennsylvania,True,,665.0,624.4,42017,Bucks,"{""42017"": 100}",Bucks,42017,False,False,America/New_York,"(40.41212, -75.38129)",5.0069970145095954,90686.0,36473_0_yes,40.34145943745928,-75.36018238300463,5.0
19438,40.27018,-75.39554,Harleysville,PA,Pennsylvania,True,,24812.0,431.4,42091,Montgomery,"{""42091"": 100}",Montgomery,42091,False,False,America/New_York,"(40.27018, -75.39554)",5.265537356633036,90686.0,36473_0_yes,40.34145943745928,-75.36018238300463,5.0
19440,40.285,-75.29102,Hatfield,PA,Pennsylvania,True,,19218.0,654.5,42091,Montgomery,"{""42091"": 75.31, ""42017"": 24.69}",Montgomery|Bucks,42091|42017,False,False,America/New_York,"(40.285, -75.29102)",5.338075767380417,90686.0,36473_0_yes,40.34145943745928,-75.36018238300463,5.0
