zip,lat,lng,city,state_id,state_name,zcta,parent_zcta,population,density,county_fips,county_name,county_weights,county_names_all,county_fips_all,imprecise,military,timezone,Coord,distance_miles,market_total_population,market_id,market_center_lat,market_center_lng,radius_miles
16637,40.34214,-78.47079,East Freedom,PA,Pennsylvania,True,,2323.0,45.8,42013,Blair,"{""42013"": 100}",Blair,42013,False,False,America/New_York,"(40.34214, -78.47079)",4.215986386543656,13997.0,36489_0_yes,40.34394076199481,-78.39076706110286,5.0
16662,40.30635,-78.29961,Martinsburg,PA,Pennsylvania,True,,5967.0,42.8,42013,Blair,"{""42013"": 84.95, ""42009"": 15.05}",Blair|Bedford,42013|42009,False,False,America/New_York,"(40.30635, -78.29961)",5.459192843432147,13997.0,36489_0_yes,40.34394076199481,-78.39076706110286,5.0
16665,40.38898,-78.43491,Newry,PA,Pennsylvania,True,,300.0,248.1,42013,Blair,"{""42013"": 100}",Blair,42013,False,False,America/New_York,"(40.38898, -78.43491)",3.883843244512054,13997.0,36489_0_yes,40.34394076199481,-78.39076706110286,5.0
16673,40.30671,-78.39026,Roaring Spring,PA,Pennsylvania,True,,5385.0,60.5,42013,Blair,"{""42013"": 62.14, ""42009"": 37.86}",Blair|Bedford,42013|42009,False,False,America/New_York,"(40.30671, -78.39026)",2.5725393002414263,13997.0,36489_0_yes,40.34394076199481,-78.39076706110286,5.0
16682,40.27206,-78.4565,Sproul,PA,Pennsylvania,True,,22.0,110.2,42013,Blair,"{""42013"": 100}",Blair,42013,False,False,America/New_York,"(40.27206, -78.4565)",6.05484997260847,13997.0,36489_0_yes,40.34394076199481,-78.39076706110286,5.0
