zip,lat,lng,city,state_id,state_name,zcta,parent_zcta,population,density,county_fips,county_name,county_weights,county_names_all,county_fips_all,imprecise,military,timezone,Coord,distance_miles,market_total_population,market_id,market_center_lat,market_center_lng,radius_miles
15713,40.5698,-79.26184,Aultman,PA,Pennsylvania,True,,358.0,107.1,42063,Indiana,"{""42063"": 100}",Indiana,42063,False,False,America/New_York,"(40.5698, -79.26184)",2.114924678569943,2270.0,37092_0_no,40.56195738885565,-79.300788930446,5.0
15725,40.51751,-79.33954,Clarksburg,PA,Pennsylvania,True,,1452.0,19.5,42063,Indiana,"{""42063"": 100}",Indiana,42063,False,False,America/New_York,"(40.51751, -79.33954)",3.6839291876333053,2270.0,37092_0_no,40.56195738885565,-79.300788930446,5.0
15727,40.56498,-79.31496,Clune,PA,Pennsylvania,True,,171.0,36.6,42063,Indiana,"{""42063"": 100}",Indiana,42063,False,False,America/New_York,"(40.56498, -79.31496)",0.7725915765238731,2270.0,37092_0_no,40.56195738885565,-79.300788930446,5.0
15752,40.5408,-79.28177,Kent,PA,Pennsylvania,True,,40.0,215.5,42063,Indiana,"{""42063"": 100}",Indiana,42063,False,False,America/New_York,"(40.5408, -79.28177)",1.7702851103633168,2270.0,37092_0_no,40.56195738885565,-79.300788930446,5.0
15756,40.57134,-79.30096,McIntyre,PA,Pennsylvania,True,,171.0,53.0,42063,Indiana,"{""42063"": 100}",Indiana,42063,False,False,America/New_York,"(40.57134, -79.30096)",0.6483388606755094,2270.0,37092_0_no,40.56195738885565,-79.300788930446,5.0
15783,40.60297,-79.34495,West Lebanon,PA,Pennsylvania,True,,78.0,22.5,42063,Indiana,"{""42063"": 100}",Indiana,42063,False,False,America/New_York,"(40.60297, -79.34495)",3.6605824168132437,2270.0,37092_0_no,40.56195738885565,-79.300788930446,5.0
