zip,lat,lng,city,state_id,state_name,zcta,parent_zcta,population,density,county_fips,county_name,county_weights,county_names_all,county_fips_all,imprecise,military,timezone,Coord,distance_miles,market_total_population,market_id,market_center_lat,market_center_lng,radius_miles
46914,40.63068,-86.09515,Bunker Hill,IN,Indiana,True,,2733.0,36.3,18103,Miami,"{""18103"": 100}",Miami,18103,False,False,America/Indiana/Indianapolis,"(40.63068, -86.09515)",4.489252893140895,9200.0,37153_0_yes,40.63998655500056,-86.17988613979456,5.0
46932,40.59675,-86.26243,Galveston,IN,Indiana,True,,3200.0,22.4,18017,Cass,"{""18017"": 88.31, ""18067"": 9.36, ""18103"": 1.58, ""18015"": 0.75}",Cass|Howard|Miami|Carroll,18017|18067|18103|18015,False,False,America/Indiana/Indianapolis,"(40.59675, -86.26243)",5.2598057461742265,9200.0,37153_0_yes,40.63998655500056,-86.17988613979456,5.0
46959,40.61272,-86.11245,Miami,IN,Indiana,True,,714.0,672.4,18103,Miami,"{""18103"": 100}",Miami,18103,False,False,America/Indiana/Indianapolis,"(40.61272, -86.11245)",4.006867725945622,9200.0,37153_0_yes,40.63998655500056,-86.17988613979456,5.0
46967,40.69504,-86.19483,Onward,IN,Indiana,True,,171.0,747.6,18017,Cass,"{""18017"": 100}",Cass,18017,False,False,America/Indiana/Indianapolis,"(40.69504, -86.19483)",3.883617777476603,9200.0,37153_0_yes,40.63998655500056,-86.17988613979456,5.0
46994,40.66661,-86.25766,Walton,IN,Indiana,True,,2382.0,16.0,18017,Cass,"{""18017"": 100}",Cass,18017,False,False,America/Indiana/Indianapolis,"(40.66661, -86.25766)",4.4726028269989655,9200.0,37153_0_yes,40.63998655500056,-86.17988613979456,5.0
