zip,lat,lng,city,state_id,state_name,zcta,parent_zcta,population,density,county_fips,county_name,county_weights,county_names_all,county_fips_all,imprecise,military,timezone,Coord,distance_miles,market_total_population,market_id,market_center_lat,market_center_lng,radius_miles
11942,40.84901,-72.57764,East Quogue,NY,New York,True,,5053.0,229.9,36103,Suffolk,"{""36103"": 100}",Suffolk,36103,False,False,America/New_York,"(40.84901, -72.57764)",1.903405415412721,27996.0,37677_0_no,40.84605095285618,-72.61384702997066,5.0
11946,40.87033,-72.52294,Hampton Bays,NY,New York,True,,15058.0,430.6,36103,Suffolk,"{""36103"": 100}",Suffolk,36103,False,False,America/New_York,"(40.87033, -72.52294)",5.038058209948939,27996.0,37677_0_no,40.84605095285618,-72.61384702997066,5.0
11959,40.82903,-72.60977,Quogue,NY,New York,True,,571.0,36.0,36103,Suffolk,"{""36103"": 100}",Suffolk,36103,False,False,America/New_York,"(40.82903, -72.60977)",1.1951908475052557,27996.0,37677_0_no,40.84605095285618,-72.61384702997066,5.0
11960,40.80894,-72.70615,Remsenburg,NY,New York,True,,721.0,140.1,36103,Suffolk,"{""36103"": 100}",Suffolk,36103,False,False,America/New_York,"(40.80894, -72.70615)",5.464672660491784,27996.0,37677_0_no,40.84605095285618,-72.61384702997066,5.0
11972,40.82362,-72.70045,Speonk,NY,New York,True,,983.0,471.8,36103,Suffolk,"{""36103"": 100}",Suffolk,36103,False,False,America/New_York,"(40.82362, -72.70045)",4.785181762372627,27996.0,37677_0_no,40.84605095285618,-72.61384702997066,5.0
11977,40.82769,-72.67947,Westhampton,NY,New York,True,,2629.0,176.7,36103,Suffolk,"{""36103"": 100}",Suffolk,36103,False,False,America/New_York,"(40.82769, -72.67947)",3.6574598990008553,27996.0,37677_0_no,40.84605095285618,-72.61384702997066,5.0
11978,40.82878,-72.64669,Westhampton Beach,NY,New York,True,,2981.0,113.2,36103,Suffolk,"{""36103"": 100}",Suffolk,36103,False,False,America/New_York,"(40.82878, -72.64669)",2.0908109705117353,27996.0,37677_0_no,40.84605095285618,-72.61384702997066,5.0
