zip,lat,lng,city,state_id,state_name,zcta,parent_zcta,population,density,county_fips,county_name,county_weights,county_names_all,county_fips_all,imprecise,military,timezone,Coord,distance_miles,market_total_population,market_id,market_center_lat,market_center_lng,radius_miles
11932,40.93322,-72.30603,Bridgehampton,NY,New York,True,,1099.0,58.6,36103,Suffolk,"{""36103"": 100}",Suffolk,36103,False,False,America/New_York,"(40.93322, -72.30603)",3.9654690571477644,12665.0,37984_0_no,40.990588734328746,-72.30823355983952,5.0
11962,40.93715,-72.27379,Sagaponack,NY,New York,True,,296.0,19.5,36103,Suffolk,"{""36103"": 100}",Suffolk,36103,False,False,America/New_York,"(40.93715, -72.27379)",4.106366080814247,12665.0,37984_0_no,40.990588734328746,-72.30823355983952,5.0
11963,40.99921,-72.32271,Sag Harbor,NY,New York,True,,6966.0,184.4,36103,Suffolk,"{""36103"": 100}",Suffolk,36103,False,False,America/New_York,"(40.99921, -72.32271)",0.9616439379432729,12665.0,37984_0_no,40.990588734328746,-72.30823355983952,5.0
11964,41.05743,-72.31492,Shelter Island,NY,New York,True,,2287.0,94.1,36103,Suffolk,"{""36103"": 100}",Suffolk,36103,False,False,America/New_York,"(41.05743, -72.31492)",4.631424996509484,12665.0,37984_0_no,40.990588734328746,-72.30823355983952,5.0
11975,40.95146,-72.25093,Wainscott,NY,New York,True,,170.0,16.2,36103,Suffolk,"{""36103"": 100}",Suffolk,36103,False,False,America/New_York,"(40.95146, -72.25093)",4.030611898911841,12665.0,37984_0_no,40.990588734328746,-72.30823355983952,5.0
11976,40.92986,-72.34721,Water Mill,NY,New York,True,,1847.0,55.0,36103,Suffolk,"{""36103"": 100}",Suffolk,36103,False,False,America/New_York,"(40.92986, -72.34721)",4.662816824012836,12665.0,37984_0_no,40.990588734328746,-72.30823355983952,5.0
