zip,lat,lng,city,state_id,state_name,zcta,parent_zcta,population,density,county_fips,county_name,county_weights,county_names_all,county_fips_all,imprecise,military,timezone,Coord,distance_miles,market_total_population,market_id,market_center_lat,market_center_lng,radius_miles
10917,41.31851,-74.11094,Central Valley,NY,New York,True,,1650.0,132.3,36071,Orange,"{""36071"": 100}",Orange,36071,False,False,America/New_York,"(41.31851, -74.11094)",5.296241721966142,29664.0,38635_0_yes,41.353935591522905,-74.0204072752385,5.0
10922,41.32794,-73.99604,Fort Montgomery,NY,New York,True,,1778.0,331.3,36071,Orange,"{""36071"": 100}",Orange,36071,False,False,America/New_York,"(41.32794, -73.99604)",2.1963331432125535,29664.0,38635_0_yes,41.353935591522905,-74.0204072752385,5.0
10928,41.3457,-74.00265,Highland Falls,NY,New York,True,,4132.0,190.8,36071,Orange,"{""36071"": 100}",Orange,36071,False,False,America/New_York,"(41.3457, -74.00265)",1.0826289054361604,29664.0,38635_0_yes,41.353935591522905,-74.0204072752385,5.0
10930,41.3667,-74.11035,Highland Mills,NY,New York,True,,9789.0,235.7,36071,Orange,"{""36071"": 100}",Orange,36071,False,False,America/New_York,"(41.3667, -74.11035)",4.747018784226999,29664.0,38635_0_yes,41.353935591522905,-74.0204072752385,5.0
10953,41.40581,-74.07783,Mountainville,NY,New York,True,,112.0,487.8,36071,Orange,"{""36071"": 100}",Orange,36071,False,False,America/New_York,"(41.40581, -74.07783)",4.659285669013967,29664.0,38635_0_yes,41.353935591522905,-74.0204072752385,5.0
10996,41.38996,-73.97257,West Point,NY,New York,True,,6342.0,767.6,36071,Orange,"{""36071"": 100}",Orange,36071,False,False,America/New_York,"(41.38996, -73.97257)",3.5139138533945955,29664.0,38635_0_yes,41.353935591522905,-74.0204072752385,5.0
12518,41.41847,-74.03571,Cornwall,NY,New York,True,,5861.0,284.4,36071,Orange,"{""36071"": 100}",Orange,36071,False,False,America/New_York,"(41.41847, -74.03571)",4.528918044251365,29664.0,38635_0_yes,41.353935591522905,-74.0204072752385,5.0
