zip,lat,lng,city,state_id,state_name,zcta,parent_zcta,population,density,county_fips,county_name,county_weights,county_names_all,county_fips_all,imprecise,military,timezone,Coord,distance_miles,market_total_population,market_id,market_center_lat,market_center_lng,radius_miles
02804,41.43546,-71.77196,Ashaway,RI,Rhode Island,True,,2005.0,65.7,44009,Washington,"{""44009"": 100}",Washington,44009,False,False,America/New_York,"(41.43546, -71.77196)",0.8124849233898407,35667.0,38904_0_no,41.42448681717176,-71.76632206699844,5.0
02808,41.40606,-71.74802,Bradford,RI,Rhode Island,True,,2466.0,125.5,44009,Washington,"{""44009"": 100}",Washington,44009,False,False,America/New_York,"(41.40606, -71.74802)",1.5875451404847376,35667.0,38904_0_no,41.42448681717176,-71.76632206699844,5.0
02833,41.48117,-71.77787,Hopkinton,RI,Rhode Island,True,,932.0,102.8,44009,Washington,"{""44009"": 100}",Washington,44009,False,False,America/New_York,"(41.48117, -71.77787)",3.9618286119213013,35667.0,38904_0_no,41.42448681717176,-71.76632206699844,5.0
02891,41.36043,-71.79429,Westerly,RI,Rhode Island,True,,21196.0,311.4,44009,Washington,"{""44009"": 100}",Washington,44009,False,False,America/New_York,"(41.36043, -71.79429)",4.6572750084081775,35667.0,38904_0_no,41.42448681717176,-71.76632206699844,5.0
02894,41.44761,-71.69759,Wood River Junction,RI,Rhode Island,True,,512.0,47.0,44009,Washington,"{""44009"": 100}",Washington,44009,False,False,America/New_York,"(41.44761, -71.69759)",3.9022945186631977,35667.0,38904_0_no,41.42448681717176,-71.76632206699844,5.0
06379,41.36685,-71.85826,Pawcatuck,CT,Connecticut,True,,8556.0,270.2,9011,New London,"{""09011"": 100}",New London,09011,False,False,America/New_York,"(41.36685, -71.85826)",6.210196084881454,35667.0,38904_0_no,41.42448681717176,-71.76632206699844,5.0
