zip,lat,lng,city,state_id,state_name,zcta,parent_zcta,population,density,county_fips,county_name,county_weights,county_names_all,county_fips_all,imprecise,military,timezone,Coord,distance_miles,market_total_population,market_id,market_center_lat,market_center_lng,radius_miles
06414,41.57702,-72.55231,Cobalt,CT,Connecticut,True,,142.0,51.7,9007,Middlesex,"{""09007"": 100}",Middlesex,09007,False,False,America/New_York,"(41.57702, -72.55231)",3.147777181103189,71323.0,39215_0_no,41.56997257000656,-72.6124751983643,5.0
06416,41.61218,-72.66382,Cromwell,CT,Connecticut,True,,13865.0,429.9,9007,Middlesex,"{""09007"": 100}",Middlesex,09007,False,False,America/New_York,"(41.61218, -72.66382)",3.9426211355025123,71323.0,39215_0_no,41.56997257000656,-72.6124751983643,5.0
06456,41.541,-72.5483,Middle Haddam,CT,Connecticut,True,,211.0,61.4,9007,Middlesex,"{""09007"": 100}",Middlesex,09007,False,False,America/New_York,"(41.541, -72.5483)",3.8751709285625875,71323.0,39215_0_no,41.56997257000656,-72.6124751983643,5.0
06457,41.54759,-72.65484,Middletown,CT,Connecticut,True,,46406.0,440.4,9007,Middlesex,"{""09007"": 100}",Middlesex,09007,False,False,America/New_York,"(41.54759, -72.65484)",2.681237657475815,71323.0,39215_0_no,41.56997257000656,-72.6124751983643,5.0
06480,41.59885,-72.5893,Portland,CT,Connecticut,True,,9301.0,154.9,9007,Middlesex,"{""09007"": 100}",Middlesex,09007,False,False,America/New_York,"(41.59885, -72.5893)",2.3271179741392483,71323.0,39215_0_no,41.56997257000656,-72.6124751983643,5.0
06481,41.53435,-72.70067,Rockfall,CT,Connecticut,True,,1398.0,282.6,9007,Middlesex,"{""09007"": 100}",Middlesex,09007,False,False,America/New_York,"(41.53435, -72.70067)",5.182037951643493,71323.0,39215_0_no,41.56997257000656,-72.6124751983643,5.0
