zip,lat,lng,city,state_id,state_name,zcta,parent_zcta,population,density,county_fips,county_name,county_weights,county_names_all,county_fips_all,imprecise,military,timezone,Coord,distance_miles,market_total_population,market_id,market_center_lat,market_center_lng,radius_miles
02639,41.66639,-70.13535,Dennis Port,MA,Massachusetts,True,,3147.0,434.5,25001,Barnstable,"{""25001"": 100}",Barnstable,25001,False,False,America/New_York,"(41.66639, -70.13535)",1.9263325481386733,31623.0,39229_0_yes,41.64022239732122,-70.12247401627393,5.0
02645,41.70352,-70.06215,Harwich,MA,Massachusetts,True,,9730.0,222.0,25001,Barnstable,"{""25001"": 100}",Barnstable,25001,False,False,America/New_York,"(41.70352, -70.06215)",5.368421343929281,31623.0,39229_0_yes,41.64022239732122,-70.12247401627393,5.0
02646,41.67103,-70.07144,Harwich Port,MA,Massachusetts,True,,1715.0,228.1,25001,Barnstable,"{""25001"": 100}",Barnstable,25001,False,False,America/New_York,"(41.67103, -70.07144)",3.387003086744896,31623.0,39229_0_yes,41.64022239732122,-70.12247401627393,5.0
02660,41.70828,-70.15517,South Dennis,MA,Massachusetts,True,,6336.0,292.2,25001,Barnstable,"{""25001"": 100}",Barnstable,25001,False,False,America/New_York,"(41.70828, -70.15517)",4.995919288552624,31623.0,39229_0_yes,41.64022239732122,-70.12247401627393,5.0
02664,41.67486,-70.19446,South Yarmouth,MA,Massachusetts,True,,8565.0,473.5,25001,Barnstable,"{""25001"": 100}",Barnstable,25001,False,False,America/New_York,"(41.67486, -70.19446)",4.420018612274855,31623.0,39229_0_yes,41.64022239732122,-70.12247401627393,5.0
02670,41.66,-70.17098,West Dennis,MA,Massachusetts,True,,1190.0,216.3,25001,Barnstable,"{""25001"": 100}",Barnstable,25001,False,False,America/New_York,"(41.66, -70.17098)",2.852828208514825,31623.0,39229_0_yes,41.64022239732122,-70.12247401627393,5.0
02671,41.66938,-70.11087,West Harwich,MA,Massachusetts,True,,940.0,209.3,25001,Barnstable,"{""25001"": 100}",Barnstable,25001,False,False,America/New_York,"(41.66938, -70.11087)",2.1017761769968404,31623.0,39229_0_yes,41.64022239732122,-70.12247401627393,5.0
