zip,lat,lng,city,state_id,state_name,zcta,parent_zcta,population,density,county_fips,county_name,county_weights,county_names_all,county_fips_all,imprecise,military,timezone,Coord,distance_miles,market_total_population,market_id,market_center_lat,market_center_lng,radius_miles
02816,41.69035,-71.61954,Coventry,RI,Rhode Island,True,,32683.0,341.6,44003,Kent,"{""44003"": 100}",Kent,44003,False,False,America/New_York,"(41.69035, -71.61954)",4.981211843808284,184828.0,39515_0_no,41.71383473253326,-71.52824578683487,5.0
02818,41.64214,-71.49307,East Greenwich,RI,Rhode Island,True,,18790.0,341.8,44003,Kent,"{""44003"": 100}",Kent,44003,False,False,America/New_York,"(41.64214, -71.49307)",5.275762139668595,184828.0,39515_0_no,41.71383473253326,-71.52824578683487,5.0
02831,41.74461,-71.58442,Hope,RI,Rhode Island,True,,3725.0,133.8,44007,Providence,"{""44007"": 93.77, ""44003"": 6.23}",Providence|Kent,44007|44003,False,False,America/New_York,"(41.74461, -71.58442)",3.593278748805332,184828.0,39515_0_no,41.71383473253326,-71.52824578683487,5.0
02886,41.70493,-71.45892,Warwick,RI,Rhode Island,True,,29443.0,719.7,44003,Kent,"{""44003"": 100}",Kent,44003,False,False,America/New_York,"(41.70493, -71.45892)",3.6283863742946725,184828.0,39515_0_no,41.71383473253326,-71.52824578683487,5.0
02893,41.69856,-71.51566,West Warwick,RI,Rhode Island,True,,29283.0,1443.5,44003,Kent,"{""44003"": 100}",Kent,44003,False,False,America/New_York,"(41.69856, -71.51566)",1.2390755865469694,184828.0,39515_0_no,41.71383473253326,-71.52824578683487,5.0
02910,41.77552,-71.43564,Cranston,RI,Rhode Island,True,,21746.0,2445.6,44007,Providence,"{""44007"": 100}",Providence,44007,False,False,America/New_York,"(41.77552, -71.43564)",6.39970067263514,184828.0,39515_0_no,41.71383473253326,-71.52824578683487,5.0
02920,41.76719,-71.4655,Cranston,RI,Rhode Island,True,,36695.0,1583.4,44007,Providence,"{""44007"": 100}",Providence,44007,False,False,America/New_York,"(41.76719, -71.4655)",4.904557782359675,184828.0,39515_0_no,41.71383473253326,-71.52824578683487,5.0
02921,41.76292,-71.51571,Cranston,RI,Rhode Island,True,,12463.0,369.5,44007,Providence,"{""44007"": 100}",Providence,44007,False,False,America/New_York,"(41.76292, -71.51571)",3.452502687424388,184828.0,39515_0_no,41.71383473253326,-71.52824578683487,5.0
