zip,lat,lng,city,state_id,state_name,zcta,parent_zcta,population,density,county_fips,county_name,county_weights,county_names_all,county_fips_all,imprecise,military,timezone,Coord,distance_miles,market_total_population,market_id,market_center_lat,market_center_lng,radius_miles
06234,41.78938,-71.95266,Brooklyn,CT,Connecticut,True,,8311.0,104.7,9015,Windham,"{""09015"": 100}",Windham,09015,False,False,America/New_York,"(41.78938, -71.95266)",0.9274272585083447,27071.0,39544_0_yes,41.786516302463504,-71.93507217719153,5.0
06239,41.79116,-71.85711,Danielson,CT,Connecticut,True,,11356.0,189.5,9015,Windham,"{""09015"": 100}",Windham,09015,False,False,America/New_York,"(41.79116, -71.85711)",4.029130236477944,27071.0,39544_0_yes,41.786516302463504,-71.93507217719153,5.0
06241,41.85635,-71.84904,Dayville,CT,Connecticut,True,,6155.0,88.3,9015,Windham,"{""09015"": 100}",Windham,09015,False,False,America/New_York,"(41.85635, -71.84904)",6.550143580693283,27071.0,39544_0_yes,41.786516302463504,-71.93507217719153,5.0
06263,41.83738,-71.90444,Rogers,CT,Connecticut,True,,306.0,769.3,9015,Windham,"{""09015"": 100}",Windham,09015,False,False,America/New_York,"(41.83738, -71.90444)",3.8521570940059275,27071.0,39544_0_yes,41.786516302463504,-71.93507217719153,5.0
06332,41.72845,-71.91008,Central Village,CT,Connecticut,True,,324.0,100.7,9015,Windham,"{""09015"": 100}",Windham,09015,False,False,America/New_York,"(41.72845, -71.91008)",4.213720179824861,27071.0,39544_0_yes,41.786516302463504,-71.93507217719153,5.0
06387,41.74418,-71.90981,Wauregan,CT,Connecticut,True,,619.0,4124.2,9015,Windham,"{""09015"": 100}",Windham,09015,False,False,America/New_York,"(41.74418, -71.90981)",3.20179475083213,27071.0,39544_0_yes,41.786516302463504,-71.93507217719153,5.0
