zip,lat,lng,city,state_id,state_name,zcta,parent_zcta,population,density,county_fips,county_name,county_weights,county_names_all,county_fips_all,imprecise,military,timezone,Coord,distance_miles,market_total_population,market_id,market_center_lat,market_center_lng,radius_miles
12409,42.05662,-74.16655,Bearsville,NY,New York,True,,723.0,15.8,36111,Ulster,"{""36111"": 100}",Ulster,36111,False,False,America/New_York,"(42.05662, -74.16655)",3.9315328572184,10682.0,40138_0_no,42.00562946668671,-74.20054936058655,5.0
12412,42.01218,-74.27698,Boiceville,NY,New York,True,,460.0,26.9,36111,Ulster,"{""36111"": 100}",Ulster,36111,False,False,America/New_York,"(42.01218, -74.27698)",3.9499062227707626,10682.0,40138_0_no,42.00562946668671,-74.20054936058655,5.0
12433,42.00533,-74.15526,Glenford,NY,New York,True,,483.0,53.6,36111,Ulster,"{""36111"": 100}",Ulster,36111,False,False,America/New_York,"(42.00533, -74.15526)",2.325338151822104,10682.0,40138_0_no,42.00562946668671,-74.20054936058655,5.0
12457,42.03997,-74.24659,Mount Tremper,NY,New York,True,,911.0,30.7,36111,Ulster,"{""36111"": 100}",Ulster,36111,False,False,America/New_York,"(42.03997, -74.24659)",3.348779187692608,10682.0,40138_0_no,42.00562946668671,-74.20054936058655,5.0
12481,41.97519,-74.22718,Shokan,NY,New York,True,,1732.0,52.4,36111,Ulster,"{""36111"": 100}",Ulster,36111,False,False,America/New_York,"(41.97519, -74.22718)",2.5087095891913576,10682.0,40138_0_no,42.00562946668671,-74.20054936058655,5.0
12491,41.96957,-74.13311,West Hurley,NY,New York,True,,1660.0,64.7,36111,Ulster,"{""36111"": 100}",Ulster,36111,False,False,America/New_York,"(41.96957, -74.13311)",4.266482844993047,10682.0,40138_0_no,42.00562946668671,-74.20054936058655,5.0
12498,42.04772,-74.11007,Woodstock,NY,New York,True,,4713.0,82.1,36111,Ulster,"{""36111"": 100}",Ulster,36111,False,False,America/New_York,"(42.04772, -74.11007)",5.479304374481847,10682.0,40138_0_no,42.00562946668671,-74.20054936058655,5.0
