zip,lat,lng,city,state_id,state_name,zcta,parent_zcta,population,density,county_fips,county_name,county_weights,county_names_all,county_fips_all,imprecise,military,timezone,Coord,distance_miles,market_total_population,market_id,market_center_lat,market_center_lng,radius_miles
01501,42.19689,-71.84549,Auburn,MA,Massachusetts,True,,16627.0,420.8,25027,Worcester,"{""25027"": 100}",Worcester,25027,False,False,America/New_York,"(42.19689, -71.84549)",5.988943792843401,62379.0,40429_0_no,42.14831709409757,-71.74862282922565,5.0
01519,42.20077,-71.67892,Grafton,MA,Massachusetts,True,,7566.0,273.5,25027,Worcester,"{""25027"": 100}",Worcester,25027,False,False,America/New_York,"(42.20077, -71.67892)",5.086584801557247,62379.0,40429_0_no,42.14831709409757,-71.74862282922565,5.0
01527,42.19228,-71.77397,Millbury,MA,Massachusetts,True,,13822.0,342.5,25027,Worcester,"{""25027"": 100}",Worcester,25027,False,False,America/New_York,"(42.19228, -71.77397)",3.30325476364905,62379.0,40429_0_no,42.14831709409757,-71.74862282922565,5.0
01560,42.17496,-71.67762,South Grafton,MA,Massachusetts,True,,4467.0,484.2,25027,Worcester,"{""25027"": 100}",Worcester,25027,False,False,America/New_York,"(42.17496, -71.67762)",4.075856650186151,62379.0,40429_0_no,42.14831709409757,-71.74862282922565,5.0
01588,42.11837,-71.66836,Whitinsville,MA,Massachusetts,True,,10439.0,498.0,25027,Worcester,"{""25027"": 100}",Worcester,25027,False,False,America/New_York,"(42.11837, -71.66836)",4.603751705081537,62379.0,40429_0_no,42.14831709409757,-71.74862282922565,5.0
01590,42.13387,-71.75179,Sutton,MA,Massachusetts,True,,9458.0,112.5,25027,Worcester,"{""25027"": 100}",Worcester,25027,False,False,America/New_York,"(42.13387, -71.75179)",1.0113013321539521,62379.0,40429_0_no,42.14831709409757,-71.74862282922565,5.0
