zip,lat,lng,city,state_id,state_name,zcta,parent_zcta,population,density,county_fips,county_name,county_weights,county_names_all,county_fips_all,imprecise,military,timezone,Coord,distance_miles,market_total_population,market_id,market_center_lat,market_center_lng,radius_miles
12502,42.08324,-73.65409,Ancram,NY,New York,True,,1224.0,14.8,36021,Columbia,"{""36021"": 100}",Columbia,36021,False,False,America/New_York,"(42.08324, -73.65409)",5.078503226209655,5034.0,40439_0_no,42.149969086680585,-73.69563639811605,5.0
12513,42.21661,-73.71639,Claverack,NY,New York,True,,431.0,57.2,36021,Columbia,"{""36021"": 100}",Columbia,36021,False,False,America/New_York,"(42.21661, -73.71639)",4.725458146637779,5034.0,40439_0_no,42.149969086680585,-73.69563639811605,5.0
12521,42.17071,-73.65164,Craryville,NY,New York,True,,1522.0,18.3,36021,Columbia,"{""36021"": 100}",Columbia,36021,False,False,America/New_York,"(42.17071, -73.65164)",2.670445120004034,5034.0,40439_0_no,42.149969086680585,-73.69563639811605,5.0
12523,42.08627,-73.75311,Elizaville,NY,New York,True,,1810.0,31.3,36021,Columbia,"{""36021"": 100}",Columbia,36021,False,False,America/New_York,"(42.08627, -73.75311)",5.295931198162718,5034.0,40439_0_no,42.149969086680585,-73.69563639811605,5.0
12530,42.20692,-73.68413,Hollowville,NY,New York,True,,47.0,102.0,36021,Columbia,"{""36021"": 100}",Columbia,36021,False,False,America/New_York,"(42.20692, -73.68413)",3.9787939071592935,5034.0,40439_0_no,42.149969086680585,-73.69563639811605,5.0
