zip,lat,lng,city,state_id,state_name,zcta,parent_zcta,population,density,county_fips,county_name,county_weights,county_names_all,county_fips_all,imprecise,military,timezone,Coord,distance_miles,market_total_population,market_id,market_center_lat,market_center_lng,radius_miles
12407,42.30075,-74.35343,Ashland,NY,New York,True,,129.0,57.0,36039,Greene,"{""36039"": 100}",Greene,36039,False,False,America/New_York,"(42.30075, -74.35343)",0.4719064388774136,3408.0,40745_0_no,42.29529695585979,-74.35899006833704,5.0
12444,42.24942,-74.28993,Jewett,NY,New York,True,,555.0,10.9,36039,Greene,"{""36039"": 100}",Greene,36039,False,False,America/New_York,"(42.24942, -74.28993)",4.744885394420345,3408.0,40745_0_no,42.29529695585979,-74.35899006833704,5.0
12452,42.23891,-74.34986,Lexington,NY,New York,True,,253.0,296.4,36039,Greene,"{""36039"": 100}",Greene,36039,False,False,America/New_York,"(42.23891, -74.34986)",3.923835791924109,3408.0,40745_0_no,42.29529695585979,-74.35899006833704,5.0
12468,42.29998,-74.41375,Prattsville,NY,New York,True,,955.0,6.3,36039,Greene,"{""36039"": 83.75, ""36025"": 16.25}",Greene|Delaware,36039|36025,False,False,America/New_York,"(42.29998, -74.41375)",2.8171801758443538,3408.0,40745_0_no,42.29529695585979,-74.35899006833704,5.0
12496,42.32669,-74.27256,Windham,NY,New York,True,,1516.0,13.5,36039,Greene,"{""36039"": 100}",Greene,36039,False,False,America/New_York,"(42.32669, -74.27256)",4.92005101945231,3408.0,40745_0_no,42.29529695585979,-74.35899006833704,5.0
