zip,lat,lng,city,state_id,state_name,zcta,parent_zcta,population,density,county_fips,county_name,county_weights,county_names_all,county_fips_all,imprecise,military,timezone,Coord,distance_miles,market_total_population,market_id,market_center_lat,market_center_lng,radius_miles
01340,42.68805,-72.73205,Colrain,MA,Massachusetts,True,,1780.0,13.2,25011,Franklin,"{""25011"": 100}",Franklin,25011,False,False,America/New_York,"(42.68805, -72.73205)",5.626662008750566,4524.0,41642_0_no,42.72825870279037,-72.8284231894707,5.0
01346,42.6706,-72.81323,Heath,MA,Massachusetts,True,,544.0,15.7,25011,Franklin,"{""25011"": 100}",Franklin,25011,False,False,America/New_York,"(42.6706, -72.81323)",4.057849522909441,4524.0,41642_0_no,42.72825870279037,-72.8284231894707,5.0
01367,42.69674,-72.91387,Rowe,MA,Massachusetts,True,,519.0,8.2,25011,Franklin,"{""25011"": 100}",Franklin,25011,False,False,America/New_York,"(42.69674, -72.91387)",4.853876100129989,4524.0,41642_0_no,42.72825870279037,-72.8284231894707,5.0
05342,42.77468,-72.80015,Jacksonville,VT,Vermont,True,,466.0,10.3,50025,Windham,"{""50025"": 100}",Windham,50025,False,False,America/New_York,"(42.77468, -72.80015)",3.51356305210486,4524.0,41642_0_no,42.72825870279037,-72.8284231894707,5.0
05358,42.77396,-72.73164,West Halifax,VT,Vermont,True,,139.0,3.6,50025,Windham,"{""50025"": 100}",Windham,50025,False,False,America/New_York,"(42.77396, -72.73164)",5.838038922632671,4524.0,41642_0_no,42.72825870279037,-72.8284231894707,5.0
05361,42.78021,-72.87935,Whitingham,VT,Vermont,True,,1076.0,14.7,50025,Windham,"{""50025"": 100}",Windham,50025,False,False,America/New_York,"(42.78021, -72.87935)",4.422658487907604,4524.0,41642_0_no,42.72825870279037,-72.8284231894707,5.0
