zip,lat,lng,city,state_id,state_name,zcta,parent_zcta,population,density,county_fips,county_name,county_weights,county_names_all,county_fips_all,imprecise,military,timezone,Coord,distance_miles,market_total_population,market_id,market_center_lat,market_center_lng,radius_miles
03602,43.13751,-72.32938,Alstead,NH,New Hampshire,True,,2277.0,14.3,33005,Cheshire,"{""33005"": 63.49, ""33019"": 36.51}",Cheshire|Sullivan,33005|33019,False,False,America/New_York,"(43.13751, -72.32938)",5.029772514696745,7404.0,42267_0_yes,43.089708521459215,-72.40459007726751,5.0
03604,43.13232,-72.38984,Drewsville,NH,New Hampshire,True,,117.0,873.6,33005,Cheshire,"{""33005"": 98.78, ""33019"": 1.22}",Cheshire|Sullivan,33005|33019,False,False,America/New_York,"(43.13232, -72.38984)",3.036723107760952,7404.0,42267_0_yes,43.089708521459215,-72.40459007726751,5.0
03608,43.07128,-72.40604,Walpole,NH,New Hampshire,True,,3314.0,37.3,33005,Cheshire,"{""33005"": 100}",Cheshire,33005,False,False,America/New_York,"(43.07128, -72.40604)",1.2753902504036103,7404.0,42267_0_yes,43.089708521459215,-72.40459007726751,5.0
03609,43.1441,-72.44512,North Walpole,NH,New Hampshire,True,,560.0,240.8,33005,Cheshire,"{""33005"": 100}",Cheshire,33005,False,False,America/New_York,"(43.1441, -72.44512)",4.278059872872193,7404.0,42267_0_yes,43.089708521459215,-72.40459007726751,5.0
05158,43.10299,-72.47296,Westminster,VT,Vermont,True,,1136.0,42.7,50025,Windham,"{""50025"": 100}",Windham,50025,False,False,America/New_York,"(43.10299, -72.47296)",3.5694055760127394,7404.0,42267_0_yes,43.089708521459215,-72.40459007726751,5.0
