zip,lat,lng,city,state_id,state_name,zcta,parent_zcta,population,density,county_fips,county_name,county_weights,county_names_all,county_fips_all,imprecise,military,timezone,Coord,distance_miles,market_total_population,market_id,market_center_lat,market_center_lng,radius_miles
13029,43.2236,-76.14993,Brewerton,NY,New York,True,,7360.0,161.1,36067,Onondaga,"{""36067"": 100}",Onondaga,36067,False,False,America/New_York,"(43.2236, -76.14993)",5.371084818273282,93275.0,42558_0_no,43.16542582745206,-76.22065777798313,5.0
13041,43.19079,-76.19711,Clay,NY,New York,True,,11808.0,252.3,36067,Onondaga,"{""36067"": 100}",Onondaga,36067,False,False,America/New_York,"(43.19079, -76.19711)",2.116346426257778,93275.0,42558_0_no,43.16542582745206,-76.22065777798313,5.0
13088,43.10787,-76.19096,Liverpool,NY,New York,True,,20926.0,969.8,36067,Onondaga,"{""36067"": 100}",Onondaga,36067,False,False,America/New_York,"(43.10787, -76.19096)",4.249281569734665,93275.0,42558_0_no,43.16542582745206,-76.22065777798313,5.0
13090,43.15162,-76.21344,Liverpool,NY,New York,True,,29017.0,766.6,36067,Onondaga,"{""36067"": 100}",Onondaga,36067,False,False,America/New_York,"(43.15162, -76.21344)",1.0209058160828774,93275.0,42558_0_no,43.16542582745206,-76.22065777798313,5.0
13164,43.09377,-76.31626,Warners,NY,New York,True,,2607.0,90.4,36067,Onondaga,"{""36067"": 100}",Onondaga,36067,False,False,America/New_York,"(43.09377, -76.31626)",6.9102402542037,93275.0,42558_0_no,43.16542582745206,-76.22065777798313,5.0
13212,43.12839,-76.12889,Syracuse,NY,New York,True,,21557.0,749.5,36067,Onondaga,"{""36067"": 100}",Onondaga,36067,False,False,America/New_York,"(43.12839, -76.12889)",5.286658622475457,93275.0,42558_0_no,43.16542582745206,-76.22065777798313,5.0
