zip,lat,lng,city,state_id,state_name,zcta,parent_zcta,population,density,county_fips,county_name,county_weights,county_names_all,county_fips_all,imprecise,military,timezone,Coord,distance_miles,market_total_population,market_id,market_center_lat,market_center_lng,radius_miles
04344,44.2588,-69.82125,Farmingdale,ME,Maine,True,,2905.0,99.8,23011,Kennebec,"{""23011"": 100}",Kennebec,23011,False,False,America/New_York,"(44.2588, -69.82125)",2.6568904635198987,18861.0,44624_0_yes,44.24519754728464,-69.77103569737903,5.0
04345,44.19816,-69.7841,Gardiner,ME,Maine,True,,11534.0,62.1,23011,Kennebec,"{""23011"": 100}",Kennebec,23011,False,False,America/New_York,"(44.19816, -69.7841)",3.313738714145132,18861.0,44624_0_yes,44.24519754728464,-69.77103569737903,5.0
04346,44.23469,-69.75068,Randolph,ME,Maine,True,,1711.0,309.4,23011,Kennebec,"{""23011"": 100}",Kennebec,23011,False,False,America/New_York,"(44.23469, -69.75068)",1.2419178742523669,18861.0,44624_0_yes,44.24519754728464,-69.77103569737903,5.0
04347,44.29047,-69.81399,Hallowell,ME,Maine,True,,2444.0,160.9,23011,Kennebec,"{""23011"": 100}",Kennebec,23011,False,False,America/New_York,"(44.29047, -69.81399)",3.7816930103482007,18861.0,44624_0_yes,44.24519754728464,-69.77103569737903,5.0
04359,44.17947,-69.76134,South Gardiner,ME,Maine,True,,267.0,139.9,23011,Kennebec,"{""23011"": 100}",Kennebec,23011,False,False,America/New_York,"(44.17947, -69.76134)",4.566654721094173,18861.0,44624_0_yes,44.24519754728464,-69.77103569737903,5.0
