zip,lat,lng,city,state_id,state_name,zcta,parent_zcta,population,density,county_fips,county_name,county_weights,county_names_all,county_fips_all,imprecise,military,timezone,Coord,distance_miles,market_total_population,market_id,market_center_lat,market_center_lng,radius_miles
97027,45.38697,-122.59271,Gladstone,OR,Oregon,True,,12984.0,1998.3,41005,Clackamas,"{""41005"": 100}",Clackamas,41005,False,False,America/Los_Angeles,"(45.38697, -122.59271)",3.329891177718929,188792.0,47179_0_no,45.378005460121855,-122.66012876400954,5.0
97034,45.4095,-122.68467,Lake Oswego,OR,Oregon,True,,20108.0,1002.8,41005,Clackamas,"{""41005"": 96.63, ""41051"": 3.37}",Clackamas|Multnomah,41005|41051,False,False,America/Los_Angeles,"(45.4095, -122.68467)",2.4805435103969633,188792.0,47179_0_no,45.378005460121855,-122.66012876400954,5.0
97035,45.41291,-122.72616,Lake Oswego,OR,Oregon,True,,26721.0,1773.8,41005,Clackamas,"{""41005"": 88.03, ""41051"": 9.91, ""41067"": 2.06}",Clackamas|Multnomah|Washington,41005|41051|41067,False,False,America/Los_Angeles,"(45.41291, -122.72616)",4.009976194117751,188792.0,47179_0_no,45.378005460121855,-122.66012876400954,5.0
97062,45.36821,-122.76169,Tualatin,OR,Oregon,True,,28740.0,781.2,41067,Washington,"{""41067"": 72.62, ""41005"": 27.38}",Washington|Clackamas,41067|41005,False,False,America/Los_Angeles,"(45.36821, -122.76169)",4.975746026793021,188792.0,47179_0_no,45.378005460121855,-122.66012876400954,5.0
97068,45.35195,-122.66876,West Linn,OR,Oregon,True,,30085.0,518.8,41005,Clackamas,"{""41005"": 100}",Clackamas,41005,False,False,America/Los_Angeles,"(45.35195, -122.66876)",1.8483769006103852,188792.0,47179_0_no,45.378005460121855,-122.66012876400954,5.0
97222,45.44114,-122.61682,Portland,OR,Oregon,True,,36904.0,1647.5,41005,Clackamas,"{""41005"": 99.01, ""41051"": 0.99}",Clackamas|Multnomah,41005|41051,False,False,America/Los_Angeles,"(45.44114, -122.61682)",4.841662765603012,188792.0,47179_0_no,45.378005460121855,-122.66012876400954,5.0
97267,45.40744,-122.61472,Portland,OR,Oregon,True,,33250.0,1776.0,41005,Clackamas,"{""41005"": 100}",Clackamas,41005,False,False,America/Los_Angeles,"(45.40744, -122.61472)",2.9983973526038197,188792.0,47179_0_no,45.378005460121855,-122.66012876400954,5.0
