zip,lat,lng,city,state_id,state_name,zcta,parent_zcta,population,density,county_fips,county_name,county_weights,county_names_all,county_fips_all,imprecise,military,timezone,Coord,distance_miles,market_total_population,market_id,market_center_lat,market_center_lng,radius_miles
49812,45.59094,-87.50269,Carney,MI,Michigan,True,,808.0,3.7,26109,Menominee,"{""26109"": 100}",Menominee,26109,False,False,America/Menominee,"(45.59094, -87.50269)",3.844614019802252,3633.0,47582_0_no,45.63587076839556,-87.54961593490479,5.0
49847,45.70585,-87.63267,Hermansville,MI,Michigan,True,,1115.0,7.2,26109,Menominee,"{""26109"": 100}",Menominee,26109,False,False,America/Menominee,"(45.70585, -87.63267)",6.281545855362022,3633.0,47582_0_no,45.63587076839556,-87.54961593490479,5.0
49863,45.61295,-87.55163,Nadeau,MI,Michigan,True,,168.0,116.2,26109,Menominee,"{""26109"": 100}",Menominee,26109,False,False,America/Menominee,"(45.61295, -87.55163)",1.5866618046120635,3633.0,47582_0_no,45.63587076839556,-87.54961593490479,5.0
49874,45.70394,-87.50568,Powers,MI,Michigan,True,,1008.0,9.2,26109,Menominee,"{""26109"": 100}",Menominee,26109,False,False,America/Menominee,"(45.70394, -87.50568)",5.159402778741814,3633.0,47582_0_no,45.63587076839556,-87.54961593490479,5.0
49886,45.69748,-87.49409,Spalding,MI,Michigan,True,,534.0,51.9,26109,Menominee,"{""26109"": 100}",Menominee,26109,False,False,America/Menominee,"(45.69748, -87.49409)",5.030736584020229,3633.0,47582_0_no,45.63587076839556,-87.54961593490479,5.0
