zip,lat,lng,city,state_id,state_name,zcta,parent_zcta,population,density,county_fips,county_name,county_weights,county_names_all,county_fips_all,imprecise,military,timezone,Coord,distance_miles,market_total_population,market_id,market_center_lat,market_center_lng,radius_miles
32703,28.65579,-81.52139,Apopka,FL,Florida,True,,55239.0,664.2,12095,Orange,"{""12095"": 90.8, ""12117"": 9.2}",Orange|Seminole,12095|12117,False,False,America/New_York,"(28.65579, -81.52139)",4.082035462487213,167349.0,9224_0_yes,28.60479513941432,-81.55537798936359,5.0
32818,28.58518,-81.48716,Orlando,FL,Florida,True,,61027.0,2117.2,12095,Orange,"{""12095"": 100}",Orange,12095,False,False,America/New_York,"(28.58518, -81.48716)",4.354757591842392,167349.0,9224_0_yes,28.60479513941432,-81.55537798936359,5.0
34734,28.5376,-81.52204,Gotha,FL,Florida,True,,4529.0,939.3,12095,Orange,"{""12095"": 100}",Orange,12095,False,False,America/New_York,"(28.5376, -81.52204)",5.064316620323489,167349.0,9224_0_yes,28.60479513941432,-81.55537798936359,5.0
34760,28.55694,-81.62916,Oakland,FL,Florida,True,,805.0,555.1,12095,Orange,"{""12095"": 100}",Orange,12095,False,False,America/New_York,"(28.55694, -81.62916)",5.565347528570352,167349.0,9224_0_yes,28.60479513941432,-81.55537798936359,5.0
34761,28.57975,-81.53386,Ocoee,FL,Florida,True,,45749.0,1011.8,12095,Orange,"{""12095"": 100}",Orange,12095,False,False,America/New_York,"(28.57975, -81.53386)",2.16763502171551,167349.0,9224_0_yes,28.60479513941432,-81.55537798936359,5.0
