zip,lat,lng,city,state_id,state_name,zcta,parent_zcta,population,density,county_fips,county_name,county_weights,county_names_all,county_fips_all,imprecise,military,timezone,Coord,distance_miles,market_total_population,market_id,market_center_lat,market_center_lng,radius_miles
32701,28.66509,-81.36916,Altamonte Springs,FL,Florida,True,,24060.0,1649.0,12117,Seminole,"{""12117"": 100}",Seminole,12117,False,False,America/New_York,"(28.66509, -81.36916)",4.7193337556108315,206626.0,9575_0_no,28.67729868854607,-81.44575524680869,5.0
32703,28.65579,-81.52139,Apopka,FL,Florida,True,,55239.0,664.2,12095,Orange,"{""12095"": 90.8, ""12117"": 9.2}",Orange|Seminole,12095|12117,False,False,America/New_York,"(28.65579, -81.52139)",4.820123874437989,206626.0,9575_0_no,28.67729868854607,-81.44575524680869,5.0
32714,28.66237,-81.4115,Altamonte Springs,FL,Florida,True,,37983.0,1728.2,12117,Seminole,"{""12117"": 100}",Seminole,12117,False,False,America/New_York,"(28.66237, -81.4115)",2.3186990758994344,206626.0,9575_0_no,28.67729868854607,-81.44575524680869,5.0
32751,28.631,-81.36457,Maitland,FL,Florida,True,,21478.0,1181.5,12095,Orange,"{""12095"": 76.68, ""12117"": 23.32}",Orange|Seminole,12095|12117,False,False,America/New_York,"(28.631, -81.36457)",5.8705268245428694,206626.0,9575_0_no,28.67729868854607,-81.44575524680869,5.0
32779,28.71632,-81.41343,Longwood,FL,Florida,True,,29618.0,606.0,12117,Seminole,"{""12117"": 100}",Seminole,12117,False,False,America/New_York,"(28.71632, -81.41343)",3.332752491705491,206626.0,9575_0_no,28.67729868854607,-81.44575524680869,5.0
32810,28.62113,-81.42863,Orlando,FL,Florida,True,,38248.0,1610.8,12095,Orange,"{""12095"": 99.89, ""12117"": 0.11}",Orange|Seminole,12095|12117,False,False,America/New_York,"(28.62113, -81.42863)",4.017401303378919,206626.0,9575_0_no,28.67729868854607,-81.44575524680869,5.0
