zip,lat,lng,city,state_id,state_name,zcta,parent_zcta,population,density,county_fips,county_name,county_weights,county_names_all,county_fips_all,imprecise,military,timezone,Coord,distance_miles,market_total_population,market_id,market_center_lat,market_center_lng,radius_miles
14707,42.08256,-78.06196,Allentown,NY,New York,True,,90.0,39.7,36003,Allegany,"{""36003"": 100}",Allegany,36003,False,False,America/New_York,"(42.08256, -78.06196)",7.219642901863217,15534.0,10087_0_yes,42.04126140020518,-77.93267579034006,10.0
14708,42.01424,-78.06988,Alma,NY,New York,True,,239.0,10.2,36003,Allegany,"{""36003"": 100}",Allegany,36003,False,False,America/New_York,"(42.01424, -78.06988)",7.285165155739594,15534.0,10087_0_yes,42.04126140020518,-77.93267579034006,10.0
14806,42.15543,-77.78662,Andover,NY,New York,True,,2060.0,13.0,36003,Allegany,"{""36003"": 85.2, ""36101"": 14.8}",Allegany|Steuben,36003|36101,False,False,America/New_York,"(42.15543, -77.78662)",10.876255337670097,15534.0,10087_0_yes,42.04126140020518,-77.93267579034006,10.0
14880,42.17363,-77.97334,Scio,NY,New York,True,,1847.0,13.7,36003,Allegany,"{""36003"": 100}",Allegany,36003,False,False,America/New_York,"(42.17363, -77.97334)",9.380324764175,15534.0,10087_0_yes,42.04126140020518,-77.93267579034006,10.0
14895,42.07772,-77.93387,Wellsville,NY,New York,True,,8957.0,29.8,36003,Allegany,"{""36003"": 100}",Allegany,36003,False,False,America/New_York,"(42.07772, -77.93387)",2.5197941077717076,15534.0,10087_0_yes,42.04126140020518,-77.93267579034006,10.0
14897,42.02949,-77.79076,Whitesville,NY,New York,True,,772.0,12.1,36003,Allegany,"{""36003"": 92.01, ""36101"": 7.99}",Allegany|Steuben,36003|36101,False,False,America/New_York,"(42.02949, -77.79076)",7.328088453842675,15534.0,10087_0_yes,42.04126140020518,-77.93267579034006,10.0
16923,41.94103,-77.8761,Genesee,PA,Pennsylvania,True,,1481.0,7.4,42105,Potter,"{""42105"": 100}",Potter,42105,False,False,America/New_York,"(41.94103, -77.8761)",7.51008352889549,15534.0,10087_0_yes,42.04126140020518,-77.93267579034006,10.0
16941,41.98841,-77.75796,Genesee,PA,Pennsylvania,True,,88.0,14.0,42105,Potter,"{""42105"": 100}",Potter,42105,False,False,America/New_York,"(41.98841, -77.75796)",9.683831685776006,15534.0,10087_0_yes,42.04126140020518,-77.93267579034006,10.0
