zip,lat,lng,city,state_id,state_name,zcta,parent_zcta,population,density,county_fips,county_name,county_weights,county_names_all,county_fips_all,imprecise,military,timezone,Coord,distance_miles,market_total_population,market_id,market_center_lat,market_center_lng,radius_miles
49045,42.1038,-86.00219,Decatur,MI,Michigan,True,,5569.0,24.9,26159,Van Buren,"{""26159"": 80.0, ""26027"": 20.0}",Van Buren|Cass,26159|26027,False,False,America/Detroit,"(42.1038, -86.00219)",5.920043758827117,38359.0,10108_0_yes,42.05508943473712,-86.09716041443828,10.0
49047,42.00437,-86.12138,Dowagiac,MI,Michigan,True,,14578.0,47.2,26027,Cass,"{""26027"": 90.33, ""26159"": 7.84, ""26021"": 1.83}",Cass|Van Buren|Berrien,26027|26159|26021,False,False,America/Detroit,"(42.00437, -86.12138)",3.7182981582758505,38359.0,10108_0_yes,42.05508943473712,-86.09716041443828,10.0
49057,42.18647,-86.16691,Hartford,MI,Michigan,True,,6320.0,49.6,26159,Van Buren,"{""26159"": 100}",Van Buren,26159,False,False,America/Detroit,"(42.18647, -86.16691)",9.755984719558416,38359.0,10108_0_yes,42.05508943473712,-86.09716041443828,10.0
49098,42.16756,-86.2425,Watervliet,MI,Michigan,True,,6447.0,76.4,26021,Berrien,"{""26021"": 77.07, ""26159"": 22.93}",Berrien|Van Buren,26021|26159,False,False,America/Detroit,"(42.16756, -86.2425)",10.764965818674117,38359.0,10108_0_yes,42.05508943473712,-86.09716041443828,10.0
49102,41.95194,-86.26037,Berrien Center,MI,Michigan,True,,1954.0,50.3,26021,Berrien,"{""26021"": 95.79, ""26027"": 4.21}",Berrien|Cass,26021|26027,False,False,America/Detroit,"(41.95194, -86.26037)",11.000624624869847,38359.0,10108_0_yes,42.05508943473712,-86.09716041443828,10.0
49111,42.02544,-86.28621,Eau Claire,MI,Michigan,True,,3491.0,31.0,26021,Berrien,"{""26021"": 95.95, ""26027"": 4.05}",Berrien|Cass,26021|26027,False,False,America/Detroit,"(42.02544, -86.28621)",9.914817097634431,38359.0,10108_0_yes,42.05508943473712,-86.09716041443828,10.0
