zip,lat,lng,city,state_id,state_name,zcta,parent_zcta,population,density,county_fips,county_name,county_weights,county_names_all,county_fips_all,imprecise,military,timezone,Coord,distance_miles,market_total_population,market_id,market_center_lat,market_center_lng,radius_miles
48158,42.15564,-84.03031,Manchester,MI,Michigan,True,,7840.0,31.8,26161,Washtenaw,"{""26161"": 98.54, ""26075"": 1.46}",Washtenaw|Jackson,26161|26075,False,False,America/Detroit,"(42.15564, -84.03031)",9.543807701602528,30914.0,10103_0_yes,42.051796440919965,-84.15307488737153,10.0
49220,41.99511,-84.34108,Addison,MI,Michigan,True,,2513.0,30.3,26091,Lenawee,"{""26091"": 71.95, ""26059"": 28.05}",Lenawee|Hillsdale,26091|26059,False,False,America/Detroit,"(41.99511, -84.34108)",10.414383504291886,30914.0,10103_0_yes,42.051796440919965,-84.15307488737153,10.0
49230,42.09701,-84.22266,Brooklyn,MI,Michigan,True,,10178.0,61.4,26075,Jackson,"{""26075"": 72.62, ""26091"": 27.38}",Jackson|Lenawee,26075|26091,False,False,America/Detroit,"(42.09701, -84.22266)",4.742911195573681,30914.0,10103_0_yes,42.051796440919965,-84.15307488737153,10.0
49253,41.96443,-84.2697,Manitou Beach,MI,Michigan,True,,2864.0,46.9,26091,Lenawee,"{""26091"": 100}",Lenawee,26091,False,False,America/Detroit,"(41.96443, -84.2697)",8.502295276463975,30914.0,10103_0_yes,42.051796440919965,-84.15307488737153,10.0
49261,42.16174,-84.2472,Napoleon,MI,Michigan,True,,245.0,129.7,26075,Jackson,"{""26075"": 100}",Jackson,26075,False,False,America/Detroit,"(42.16174, -84.2472)",8.999126385116423,30914.0,10103_0_yes,42.051796440919965,-84.15307488737153,10.0
49263,42.15817,-84.18225,Norvell,MI,Michigan,True,,51.0,478.0,26075,Jackson,"{""26075"": 100}",Jackson,26075,False,False,America/Detroit,"(42.15817, -84.18225)",7.500332489464763,30914.0,10103_0_yes,42.051796440919965,-84.15307488737153,10.0
49265,42.01022,-84.17432,Onsted,MI,Michigan,True,,5017.0,59.9,26091,Lenawee,"{""26091"": 100}",Lenawee,26091,False,False,America/Detroit,"(42.01022, -84.17432)",3.0726182685365733,30914.0,10103_0_yes,42.051796440919965,-84.15307488737153,10.0
49287,42.02177,-84.08263,Tipton,MI,Michigan,True,,2206.0,30.4,26091,Lenawee,"{""26091"": 94.36, ""26161"": 5.64}",Lenawee|Washtenaw,26091|26161,False,False,America/Detroit,"(42.02177, -84.08263)",4.168011214676911,30914.0,10103_0_yes,42.051796440919965,-84.15307488737153,10.0
