zip,lat,lng,city,state_id,state_name,zcta,parent_zcta,population,density,county_fips,county_name,county_weights,county_names_all,county_fips_all,imprecise,military,timezone,Coord,distance_miles,market_total_population,market_id,market_center_lat,market_center_lng,radius_miles
50026,41.85823,-94.44958,Bagley,IA,Iowa,True,,461.0,3.2,19077,Guthrie,"{""19077"": 57.06, ""19073"": 42.94}",Guthrie|Greene,19077|19073,False,False,America/Chicago,"(41.85823, -94.44958)",7.379730320779916,9085.0,10117_0_no,41.92486798549883,-94.56170980136224,10.0
50029,41.82497,-94.55075,Bayard,IA,Iowa,True,,537.0,5.4,19077,Guthrie,"{""19077"": 92.13, ""19073"": 7.87}",Guthrie|Greene,19077|19073,False,False,America/Chicago,"(41.82497, -94.55075)",6.925285684036543,9085.0,10117_0_no,41.92486798549883,-94.56170980136224,10.0
50058,41.85773,-94.69044,Coon Rapids,IA,Iowa,True,,1864.0,5.2,19077,Guthrie,"{""19077"": 39.45, ""19027"": 39.02, ""19009"": 12.08, ""19073"": 9.45}",Guthrie|Carroll|Audubon|Greene,19077|19027|19009|19073,False,False,America/Chicago,"(41.85773, -94.69044)",8.08439988131302,9085.0,10117_0_no,41.92486798549883,-94.56170980136224,10.0
50129,42.01335,-94.3764,Jefferson,IA,Iowa,True,,5119.0,12.0,19073,Greene,"{""19073"": 99.84, ""19077"": 0.16}",Greene|Guthrie,19073|19077,False,False,America/Chicago,"(42.01335, -94.3764)",11.313624624989373,9085.0,10117_0_no,41.92486798549883,-94.56170980136224,10.0
51459,42.04495,-94.63779,Ralston,IA,Iowa,True,,90.0,62.9,19027,Carroll,"{""19027"": 100}",Carroll,19027,False,False,America/Chicago,"(42.04495, -94.63779)",9.170916086681094,9085.0,10117_0_no,41.92486798549883,-94.56170980136224,10.0
51462,42.01319,-94.55744,Scranton,IA,Iowa,True,,1014.0,3.4,19073,Greene,"{""19073"": 97.41, ""19027"": 2.59}",Greene|Carroll,19073|19027,False,False,America/Chicago,"(42.01319, -94.55744)",6.106410731877561,9085.0,10117_0_no,41.92486798549883,-94.56170980136224,10.0
