zip,lat,lng,city,state_id,state_name,zcta,parent_zcta,population,density,county_fips,county_name,county_weights,county_names_all,county_fips_all,imprecise,military,timezone,Coord,distance_miles,market_total_population,market_id,market_center_lat,market_center_lng,radius_miles
50675,42.19884,-92.4928,Traer,IA,Iowa,True,,2525.0,8.7,19171,Tama,"{""19171"": 97.77, ""19013"": 2.23}",Tama|Black Hawk,19171|19013,False,False,America/Chicago,"(42.19884, -92.4928)",12.810253101541575,6980.0,10124_0_yes,42.06562955581528,-92.3189091606834,10.0
52217,42.07948,-92.41067,Clutier,IA,Iowa,True,,593.0,4.2,19171,Tama,"{""19171"": 100}",Tama,19171,False,False,America/Chicago,"(42.07948, -92.41067)",4.802525532975401,6980.0,10124_0_yes,42.06562955581528,-92.3189091606834,10.0
52224,42.16386,-92.29836,Dysart,IA,Iowa,True,,1788.0,7.0,19011,Benton,"{""19011"": 52.18, ""19171"": 47.82}",Benton|Tama,19011|19171,False,False,America/Chicago,"(42.16386, -92.29836)",6.868310638642027,6980.0,10124_0_yes,42.06562955581528,-92.3189091606834,10.0
52225,42.01289,-92.32636,Elberon,IA,Iowa,True,,323.0,3.3,19171,Tama,"{""19171"": 72.35, ""19011"": 27.65}",Tama|Benton,19171|19011,False,False,America/Chicago,"(42.01289, -92.32636)",3.663959487164467,6980.0,10124_0_yes,42.06562955581528,-92.3189091606834,10.0
52229,42.14609,-92.16884,Garrison,IA,Iowa,True,,730.0,5.4,19011,Benton,"{""19011"": 100}",Benton,19011,False,False,America/Chicago,"(42.14609, -92.16884)",9.491205264178188,6980.0,10124_0_yes,42.06562955581528,-92.3189091606834,10.0
52249,42.01202,-92.20517,Keystone,IA,Iowa,True,,941.0,7.3,19011,Benton,"{""19011"": 100}",Benton,19011,False,False,America/Chicago,"(42.01202, -92.20517)",6.91268609489296,6980.0,10124_0_yes,42.06562955581528,-92.3189091606834,10.0
52348,41.99331,-92.38597,Vining,IA,Iowa,True,,80.0,107.0,19171,Tama,"{""19171"": 100}",Tama,19171,False,False,America/Chicago,"(41.99331, -92.38597)",6.067423097876752,6980.0,10124_0_yes,42.06562955581528,-92.3189091606834,10.0
