zip,lat,lng,city,state_id,state_name,zcta,parent_zcta,population,density,county_fips,county_name,county_weights,county_names_all,county_fips_all,imprecise,military,timezone,Coord,distance_miles,market_total_population,market_id,market_center_lat,market_center_lng,radius_miles
52030,42.15322,-90.59219,Andrew,IA,Iowa,True,,451.0,702.2,19097,Jackson,"{""19097"": 100}",Jackson,19097,False,False,America/Chicago,"(42.15322, -90.59219)",10.763836498557819,12433.0,10120_0_yes,42.06299416247573,-90.76337550615844,10.0
52037,41.96712,-90.62899,Delmar,IA,Iowa,True,,959.0,5.4,19045,Clinton,"{""19045"": 97.77, ""19097"": 2.23}",Clinton|Jackson,19045|19097,False,False,America/Chicago,"(41.96712, -90.62899)",9.564066959138952,12433.0,10120_0_yes,42.06299416247573,-90.76337550615844,10.0
52060,42.10217,-90.67961,Maquoketa,IA,Iowa,True,,8107.0,19.7,19097,Jackson,"{""19097"": 88.17, ""19045"": 11.83}",Jackson|Clinton,19097|19045,False,False,America/Chicago,"(42.10217, -90.67961)",5.077184683159022,12433.0,10120_0_yes,42.06299416247573,-90.76337550615844,10.0
52207,42.09286,-90.83,Baldwin,IA,Iowa,True,,412.0,4.3,19097,Jackson,"{""19097"": 87.22, ""19045"": 12.78}",Jackson|Clinton,19097|19045,False,False,America/Chicago,"(42.09286, -90.83)",3.99152284256341,12433.0,10120_0_yes,42.06299416247573,-90.76337550615844,10.0
52254,41.95232,-90.80538,Lost Nation,IA,Iowa,True,,796.0,5.2,19045,Clinton,"{""19045"": 100}",Clinton,19045,False,False,America/Chicago,"(41.95232, -90.80538)",7.945123499604188,12433.0,10120_0_yes,42.06299416247573,-90.76337550615844,10.0
52309,42.12415,-90.88733,Monmouth,IA,Iowa,True,,629.0,7.1,19097,Jackson,"{""19097"": 72.13, ""19105"": 27.87}",Jackson|Jones,19097|19105,False,False,America/Chicago,"(42.12415, -90.88733)",7.631760207599999,12433.0,10120_0_yes,42.06299416247573,-90.76337550615844,10.0
52323,41.98445,-90.95344,Oxford Junction,IA,Iowa,True,,1079.0,8.8,19105,Jones,"{""19105"": 78.31, ""19045"": 13.11, ""19031"": 8.58}",Jones|Clinton|Cedar,19105|19045|19031,False,False,America/Chicago,"(41.98445, -90.95344)",11.163360011905402,12433.0,10120_0_yes,42.06299416247573,-90.76337550615844,10.0
