zip,lat,lng,city,state_id,state_name,zcta,parent_zcta,population,density,county_fips,county_name,county_weights,county_names_all,county_fips_all,imprecise,military,timezone,Coord,distance_miles,market_total_population,market_id,market_center_lat,market_center_lng,radius_miles
50064,42.10671,-94.229,Dana,IA,Iowa,True,,140.0,2.8,19073,Greene,"{""19073"": 89.45, ""19015"": 10.55}",Greene|Boone,19073|19015,False,False,America/Chicago,"(42.10671, -94.229)",3.151241428857441,7185.0,10129_0_yes,42.06892413797157,-94.2634167033288,10.0
50107,42.03547,-94.2191,Grand Junction,IA,Iowa,True,,1025.0,7.7,19073,Greene,"{""19073"": 88.16, ""19015"": 11.84}",Greene|Boone,19073|19015,False,False,America/Chicago,"(42.03547, -94.2191)",3.2422635453666278,7185.0,10129_0_yes,42.06892413797157,-94.2634167033288,10.0
50129,42.01335,-94.3764,Jefferson,IA,Iowa,True,,5119.0,12.0,19073,Greene,"{""19073"": 99.84, ""19077"": 0.16}",Greene|Guthrie,19073|19077,False,False,America/Chicago,"(42.01335, -94.3764)",6.953813651821293,7185.0,10129_0_yes,42.06892413797157,-94.2634167033288,10.0
50217,42.17206,-94.24984,Paton,IA,Iowa,True,,570.0,3.1,19073,Greene,"{""19073"": 84.36, ""19015"": 15.64}",Greene|Boone,19073|19015,False,False,America/Chicago,"(42.17206, -94.24984)",7.159897841494754,7185.0,10129_0_yes,42.06892413797157,-94.2634167033288,10.0
50235,41.92974,-94.20873,Rippey,IA,Iowa,True,,331.0,2.7,19073,Greene,"{""19073"": 85.56, ""19015"": 10.42, ""19049"": 4.02}",Greene|Boone|Dallas,19073|19015|19049,False,False,America/Chicago,"(41.92974, -94.20873)",10.01827821957278,7185.0,10129_0_yes,42.06892413797157,-94.2634167033288,10.0
