zip,lat,lng,city,state_id,state_name,zcta,parent_zcta,population,density,county_fips,county_name,county_weights,county_names_all,county_fips_all,imprecise,military,timezone,Coord,distance_miles,market_total_population,market_id,market_center_lat,market_center_lng,radius_miles
13733,42.30459,-75.4793,Bainbridge,NY,New York,True,,5112.0,22.4,36017,Chenango,"{""36017"": 88.53, ""36025"": 9.23, ""36077"": 2.24}",Chenango|Delaware|Otsego,36017|36025|36077,False,False,America/New_York,"(42.30459, -75.4793)",11.47823050990004,19508.0,10219_0_no,42.18168909134429,-75.32831564922917,10.0
13754,42.09387,-75.43625,Deposit,NY,New York,True,,2883.0,14.3,36007,Broome,"{""36007"": 64.65, ""36025"": 35.35}",Broome|Delaware,36007|36025,False,False,America/New_York,"(42.09387, -75.43625)",8.209653434959336,19508.0,10219_0_no,42.18168909134429,-75.32831564922917,10.0
13804,42.20708,-75.37562,Masonville,NY,New York,True,,332.0,12.2,36025,Delaware,"{""36025"": 100}",Delaware,36025,False,False,America/New_York,"(42.20708, -75.37562)",2.990195154423901,19508.0,10219_0_no,42.18168909134429,-75.32831564922917,10.0
13838,42.28423,-75.39595,Sidney,NY,New York,True,,3873.0,173.4,36025,Delaware,"{""36025"": 95.63, ""36077"": 4.37}",Delaware|Otsego,36025|36077,False,False,America/New_York,"(42.28423, -75.39595)",7.884649338156682,19508.0,10219_0_no,42.18168909134429,-75.32831564922917,10.0
13839,42.24824,-75.26007,Sidney Center,NY,New York,True,,1251.0,9.5,36025,Delaware,"{""36025"": 100}",Delaware,36025,False,False,America/New_York,"(42.24824, -75.26007)",5.774073243406332,19508.0,10219_0_no,42.18168909134429,-75.32831564922917,10.0
13847,42.20443,-75.27777,Trout Creek,NY,New York,True,,58.0,567.9,36025,Delaware,"{""36025"": 100}",Delaware,36025,False,False,America/New_York,"(42.20443, -75.27777)",3.027162079171276,19508.0,10219_0_no,42.18168909134429,-75.32831564922917,10.0
13856,42.16666,-75.16633,Walton,NY,New York,True,,5999.0,12.9,36025,Delaware,"{""36025"": 100}",Delaware,36025,False,False,America/New_York,"(42.16666, -75.16633)",8.359324439242256,19508.0,10219_0_no,42.18168909134429,-75.32831564922917,10.0
