zip,lat,lng,city,state_id,state_name,zcta,parent_zcta,population,density,county_fips,county_name,county_weights,county_names_all,county_fips_all,imprecise,military,timezone,Coord,distance_miles,market_total_population,market_id,market_center_lat,market_center_lng,radius_miles
50634,42.4181,-92.21422,Gilbertville,IA,Iowa,True,,771.0,831.6,19013,Black Hawk,"{""19013"": 100}",Black Hawk,19013,False,False,America/Chicago,"(42.4181, -92.21422)",4.93827303308032,69089.0,10276_0_yes,42.35483514536421,-92.169197156127,10.0
50648,42.45182,-92.09465,Jesup,IA,Iowa,True,,4223.0,19.6,19013,Black Hawk,"{""19013"": 58.35, ""19019"": 41.65}",Black Hawk|Buchanan,19013|19019,False,False,America/Chicago,"(42.45182, -92.09465)",7.705143801929458,69089.0,10276_0_yes,42.35483514536421,-92.169197156127,10.0
50651,42.32271,-92.19993,La Porte City,IA,Iowa,True,,3657.0,12.3,19013,Black Hawk,"{""19013"": 71.71, ""19011"": 25.54, ""19171"": 2.75}",Black Hawk|Benton|Tama,19013|19011|19171,False,False,America/Chicago,"(42.32271, -92.19993)",2.7185300783562756,69089.0,10276_0_yes,42.35483514536421,-92.169197156127,10.0
50667,42.47003,-92.22545,Raymond,IA,Iowa,True,,818.0,166.1,19013,Black Hawk,"{""19013"": 100}",Black Hawk,19013,False,False,America/Chicago,"(42.47003, -92.22545)",8.460702274045484,69089.0,10276_0_yes,42.35483514536421,-92.169197156127,10.0
50701,42.4171,-92.34448,Waterloo,IA,Iowa,True,,30515.0,148.9,19013,Black Hawk,"{""19013"": 100}",Black Hawk,19013,False,False,America/Chicago,"(42.4171, -92.34448)",9.926089744583104,69089.0,10276_0_yes,42.35483514536421,-92.169197156127,10.0
50702,42.45745,-92.31283,Waterloo,IA,Iowa,True,,19833.0,783.3,19013,Black Hawk,"{""19013"": 100}",Black Hawk,19013,False,False,America/Chicago,"(42.45745, -92.31283)",10.196297842082934,69089.0,10276_0_yes,42.35483514536421,-92.169197156127,10.0
50707,42.4771,-92.27918,Evansdale,IA,Iowa,True,,8132.0,382.3,19013,Black Hawk,"{""19013"": 100}",Black Hawk,19013,False,False,America/Chicago,"(42.4771, -92.27918)",10.140879678491373,69089.0,10276_0_yes,42.35483514536421,-92.169197156127,10.0
52210,42.33905,-92.00537,Brandon,IA,Iowa,True,,903.0,10.1,19019,Buchanan,"{""19019"": 98.62, ""19011"": 1.38}",Buchanan|Benton,19019|19011,False,False,America/Chicago,"(42.33905, -92.00537)",8.436711966791918,69089.0,10276_0_yes,42.35483514536421,-92.169197156127,10.0
52313,42.25955,-92.09726,Mount Auburn,IA,Iowa,True,,237.0,3.0,19011,Benton,"{""19011"": 100}",Benton,19011,False,False,America/Chicago,"(42.25955, -92.09726)",7.540238623710464,69089.0,10276_0_yes,42.35483514536421,-92.169197156127,10.0
