zip,lat,lng,city,state_id,state_name,zcta,parent_zcta,population,density,county_fips,county_name,county_weights,county_names_all,county_fips_all,imprecise,military,timezone,Coord,distance_miles,market_total_population,market_id,market_center_lat,market_center_lng,radius_miles
12018,42.62926,-73.52662,Averill Park,NY,New York,True,,7112.0,59.4,36083,Rensselaer,"{""36083"": 100}",Rensselaer,36083,False,False,America/New_York,"(42.62926, -73.52662)",2.7507808707549115,183122.0,10380_0_yes,42.61244092599925,-73.57565896387189,10.0
12033,42.53665,-73.70558,Castleton On Hudson,NY,New York,True,,8152.0,110.4,36083,Rensselaer,"{""36083"": 100}",Rensselaer,36083,False,False,America/New_York,"(42.53665, -73.70558)",8.433272031041664,183122.0,10380_0_yes,42.61244092599925,-73.57565896387189,10.0
12061,42.59915,-73.65658,East Greenbush,NY,New York,True,,9725.0,186.9,36083,Rensselaer,"{""36083"": 100}",Rensselaer,36083,False,False,America/New_York,"(42.59915, -73.65658)",4.216434378861945,183122.0,10380_0_yes,42.61244092599925,-73.57565896387189,10.0
12062,42.52871,-73.501,East Nassau,NY,New York,True,,1601.0,18.6,36083,Rensselaer,"{""36083"": 90.47, ""36021"": 9.53}",Rensselaer|Columbia,36083|36021,False,False,America/New_York,"(42.52871, -73.501)",6.921045808357444,183122.0,10380_0_yes,42.61244092599925,-73.57565896387189,10.0
12063,42.56442,-73.63826,East Schodack,NY,New York,True,,770.0,232.4,36083,Rensselaer,"{""36083"": 100}",Rensselaer,36083,False,False,America/New_York,"(42.56442, -73.63826)",4.598842769868676,183122.0,10380_0_yes,42.61244092599925,-73.57565896387189,10.0
12123,42.52239,-73.60636,Nassau,NY,New York,True,,5120.0,62.2,36083,Rensselaer,"{""36083"": 98.08, ""36021"": 1.92}",Rensselaer|Columbia,36083|36021,False,False,America/New_York,"(42.52239, -73.60636)",6.415060806234212,183122.0,10380_0_yes,42.61244092599925,-73.57565896387189,10.0
12125,42.47633,-73.40394,New Lebanon,NY,New York,True,,1084.0,26.2,36021,Columbia,"{""36021"": 100}",Columbia,36021,False,False,America/New_York,"(42.47633, -73.40394)",12.839500859647943,183122.0,10380_0_yes,42.61244092599925,-73.57565896387189,10.0
12132,42.47102,-73.63362,North Chatham,NY,New York,True,,352.0,270.4,36021,Columbia,"{""36021"": 100}",Columbia,36021,False,False,America/New_York,"(42.47102, -73.63362)",10.207036163467459,183122.0,10380_0_yes,42.61244092599925,-73.57565896387189,10.0
12140,42.689,-73.56689,Poestenkill,NY,New York,True,,1681.0,90.7,36083,Rensselaer,"{""36083"": 100}",Rensselaer,36083,False,False,America/New_York,"(42.689, -73.56689)",5.308465191112423,183122.0,10380_0_yes,42.61244092599925,-73.57565896387189,10.0
12144,42.63106,-73.71801,Rensselaer,NY,New York,True,,20604.0,434.3,36083,Rensselaer,"{""36083"": 100}",Rensselaer,36083,False,False,America/New_York,"(42.63106, -73.71801)",7.350814472542317,183122.0,10380_0_yes,42.61244092599925,-73.57565896387189,10.0
12153,42.63606,-73.46692,Sand Lake,NY,New York,True,,809.0,18.4,36083,Rensselaer,"{""36083"": 100}",Rensselaer,36083,False,False,America/New_York,"(42.63606, -73.46692)",5.764090714541232,183122.0,10380_0_yes,42.61244092599925,-73.57565896387189,10.0
12156,42.47764,-73.74354,Schodack Landing,NY,New York,True,,752.0,20.0,36083,Rensselaer,"{""36083"": 72.48, ""36021"": 27.52}",Rensselaer|Columbia,36083|36021,False,False,America/New_York,"(42.47764, -73.74354)",12.640396686050112,183122.0,10380_0_yes,42.61244092599925,-73.57565896387189,10.0
12169,42.58249,-73.43559,Stephentown,NY,New York,True,,353.0,11.8,36083,Rensselaer,"{""36083"": 100}",Rensselaer,36083,False,False,America/New_York,"(42.58249, -73.43559)",7.418596081545256,183122.0,10380_0_yes,42.61244092599925,-73.57565896387189,10.0
12180,42.7516,-73.59997,Troy,NY,New York,True,,53181.0,365.2,36083,Rensselaer,"{""36083"": 100}",Rensselaer,36083,False,False,America/New_York,"(42.7516, -73.59997)",9.693943407627728,183122.0,10380_0_yes,42.61244092599925,-73.57565896387189,10.0
12183,42.74742,-73.69259,Troy,NY,New York,True,,2647.0,1363.6,36001,Albany,"{""36001"": 100}",Albany,36001,False,False,America/New_York,"(42.74742, -73.69259)",11.056851065304393,183122.0,10380_0_yes,42.61244092599925,-73.57565896387189,10.0
12189,42.73618,-73.71688,Watervliet,NY,New York,True,,17945.0,1114.0,36001,Albany,"{""36001"": 100}",Albany,36001,False,False,America/New_York,"(42.73618, -73.71688)",11.1606005885625,183122.0,10380_0_yes,42.61244092599925,-73.57565896387189,10.0
12195,42.47876,-73.46505,West Lebanon,NY,New York,True,,245.0,120.7,36021,Columbia,"{""36021"": 100}",Columbia,36021,False,False,America/New_York,"(42.47876, -73.46505)",10.817301469141363,183122.0,10380_0_yes,42.61244092599925,-73.57565896387189,10.0
12196,42.63149,-73.61708,West Sand Lake,NY,New York,True,,4072.0,175.6,36083,Rensselaer,"{""36083"": 100}",Rensselaer,36083,False,False,America/New_York,"(42.63149, -73.61708)",2.483373536687118,183122.0,10380_0_yes,42.61244092599925,-73.57565896387189,10.0
12198,42.67819,-73.63285,Wynantskill,NY,New York,True,,7119.0,207.5,36083,Rensselaer,"{""36083"": 100}",Rensselaer,36083,False,False,America/New_York,"(42.67819, -73.63285)",5.393101697265616,183122.0,10380_0_yes,42.61244092599925,-73.57565896387189,10.0
12202,42.63355,-73.763,Albany,NY,New York,True,,7753.0,1491.8,36001,Albany,"{""36001"": 100}",Albany,36001,False,False,America/New_York,"(42.63355, -73.763)",9.635568639060596,183122.0,10380_0_yes,42.61244092599925,-73.57565896387189,10.0
12204,42.68723,-73.72869,Albany,NY,New York,True,,7497.0,699.5,36001,Albany,"{""36001"": 100}",Albany,36001,False,False,America/New_York,"(42.68723, -73.72869)",9.3371135146195,183122.0,10380_0_yes,42.61244092599925,-73.57565896387189,10.0
12207,42.65657,-73.74749,Albany,NY,New York,True,,2264.0,886.7,36001,Albany,"{""36001"": 100}",Albany,36001,False,False,America/New_York,"(42.65657, -73.74749)",9.251278902502937,183122.0,10380_0_yes,42.61244092599925,-73.57565896387189,10.0
12210,42.66399,-73.75985,Albany,NY,New York,True,,11057.0,3772.6,36001,Albany,"{""36001"": 100}",Albany,36001,False,False,America/New_York,"(42.66399, -73.75985)",10.016724235969718,183122.0,10380_0_yes,42.61244092599925,-73.57565896387189,10.0
12211,42.7083,-73.76393,Albany,NY,New York,True,,11227.0,534.1,36001,Albany,"{""36001"": 100}",Albany,36001,False,False,America/New_York,"(42.7083, -73.76393)",11.635161710413918,183122.0,10380_0_yes,42.61244092599925,-73.57565896387189,10.0
