zip,lat,lng,city,state_id,state_name,zcta,parent_zcta,population,density,county_fips,county_name,county_weights,county_names_all,county_fips_all,imprecise,military,timezone,Coord,distance_miles,market_total_population,market_id,market_center_lat,market_center_lng,radius_miles
53586,42.57271,-90.22702,Shullsburg,WI,Wisconsin,True,,2133.0,8.2,55065,Lafayette,"{""55065"": 100}",Lafayette,55065,False,False,America/Chicago,"(42.57271, -90.22702)",8.89088832755069,23649.0,10409_0_no,42.4966699946775,-90.36789841772494,10.0
53803,42.55915,-90.35508,Benton,WI,Wisconsin,True,,1183.0,36.2,55065,Lafayette,"{""55065"": 100}",Lafayette,55065,False,False,America/Chicago,"(42.55915, -90.35508)",4.366019417329377,23649.0,10409_0_no,42.4966699946775,-90.36789841772494,10.0
53807,42.61123,-90.46668,Cuba City,WI,Wisconsin,True,,4742.0,17.4,55043,Grant,"{""55043"": 59.18, ""55065"": 40.82}",Grant|Lafayette,55043|55065,False,False,America/Chicago,"(42.61123, -90.46668)",9.377114589076752,23649.0,10409_0_no,42.4966699946775,-90.36789841772494,10.0
53811,42.53576,-90.51541,Hazel Green,WI,Wisconsin,True,,3325.0,27.3,55043,Grant,"{""55043"": 83.34, ""55065"": 16.55, ""19061"": 0.11}",Grant|Lafayette|Dubuque,55043|55065|19061,False,False,America/Chicago,"(42.53576, -90.51541)",7.983194435148734,23649.0,10409_0_no,42.4966699946775,-90.36789841772494,10.0
61025,42.46958,-90.55904,East Dubuque,IL,Illinois,True,,4590.0,49.8,17085,Jo Daviess,"{""17085"": 99.81, ""19061"": 0.19}",Jo Daviess|Dubuque,17085|19061,False,False,America/Chicago,"(42.46958, -90.55904)",9.917794531334264,23649.0,10409_0_no,42.4966699946775,-90.36789841772494,10.0
61036,42.4172,-90.39816,Galena,IL,Illinois,True,,6652.0,26.8,17085,Jo Daviess,"{""17085"": 100}",Jo Daviess,17085,False,False,America/Chicago,"(42.4172, -90.39816)",5.703432236226011,23649.0,10409_0_no,42.4966699946775,-90.36789841772494,10.0
61075,42.46546,-90.26444,Scales Mound,IL,Illinois,True,,1024.0,7.6,17085,Jo Daviess,"{""17085"": 100}",Jo Daviess,17085,False,False,America/Chicago,"(42.46546, -90.26444)",5.69585060127572,23649.0,10409_0_no,42.4966699946775,-90.36789841772494,10.0
