zip,lat,lng,city,state_id,state_name,zcta,parent_zcta,population,density,county_fips,county_name,county_weights,county_names_all,county_fips_all,imprecise,military,timezone,Coord,distance_miles,market_total_population,market_id,market_center_lat,market_center_lng,radius_miles
53530,42.69356,-90.11163,Darlington,WI,Wisconsin,True,,4455.0,13.2,55065,Lafayette,"{""55065"": 100}",Lafayette,55065,False,False,America/Chicago,"(42.69356, -90.11163)",4.653145555218187,8759.0,10422_0_yes,42.64065969003994,-90.05494952740369,10.0
53541,42.56969,-90.02963,Gratiot,WI,Wisconsin,True,,916.0,5.6,55065,Lafayette,"{""55065"": 100}",Lafayette,55065,False,False,America/Chicago,"(42.56969, -90.02963)",5.069781261124284,8759.0,10422_0_yes,42.64065969003994,-90.05494952740369,10.0
53586,42.57271,-90.22702,Shullsburg,WI,Wisconsin,True,,2133.0,8.2,55065,Lafayette,"{""55065"": 100}",Lafayette,55065,False,False,America/Chicago,"(42.57271, -90.22702)",9.930387010526125,8759.0,10422_0_yes,42.64065969003994,-90.05494952740369,10.0
53587,42.57736,-89.90511,South Wayne,WI,Wisconsin,True,,1210.0,7.9,55065,Lafayette,"{""55065"": 100}",Lafayette,55065,False,False,America/Chicago,"(42.57736, -89.90511)",8.785637680823493,8759.0,10422_0_yes,42.64065969003994,-90.05494952740369,10.0
53599,42.64765,-89.85986,Woodford,WI,Wisconsin,True,,45.0,72.1,55065,Lafayette,"{""55065"": 100}",Lafayette,55065,False,False,America/Chicago,"(42.64765, -89.85986)",9.92686900657576,8759.0,10422_0_yes,42.64065969003994,-90.05494952740369,10.0
