zip,lat,lng,city,state_id,state_name,zcta,parent_zcta,population,density,county_fips,county_name,county_weights,county_names_all,county_fips_all,imprecise,military,timezone,Coord,distance_miles,market_total_population,market_id,market_center_lat,market_center_lng,radius_miles
48414,42.86391,-84.08098,Bancroft,MI,Michigan,True,,2853.0,34.8,26155,Shiawassee,"{""26155"": 100}",Shiawassee,26155,False,False,America/Detroit,"(42.86391, -84.08098)",10.447376093443882,100865.0,10543_0_no,42.77501106563642,-83.91422756398683,10.0
48418,42.80427,-83.97066,Byron,MI,Michigan,True,,4164.0,39.3,26155,Shiawassee,"{""26155"": 65.8, ""26049"": 25.22, ""26093"": 8.98}",Shiawassee|Genesee|Livingston,26155|26049|26093,False,False,America/Detroit,"(42.80427, -83.97066)",3.503472084713035,100865.0,10543_0_no,42.77501106563642,-83.91422756398683,10.0
48429,42.90774,-84.00544,Durand,MI,Michigan,True,,8934.0,64.9,26155,Shiawassee,"{""26155"": 96.77, ""26049"": 3.23}",Shiawassee|Genesee,26155|26049,False,False,America/Detroit,"(42.90774, -84.00544)",10.269143142741193,100865.0,10543_0_no,42.77501106563642,-83.91422756398683,10.0
48430,42.75752,-83.74208,Fenton,MI,Michigan,True,,36369.0,168.8,26093,Livingston,"{""26093"": 65.68, ""26049"": 24.43, ""26125"": 9.89}",Livingston|Genesee|Oakland,26093|26049|26125,False,False,America/Detroit,"(42.75752, -83.74208)",8.815165544908853,100865.0,10543_0_no,42.77501106563642,-83.91422756398683,10.0
48436,42.87017,-83.87704,Gaines,MI,Michigan,True,,3882.0,45.9,26049,Genesee,"{""26049"": 90.5, ""26155"": 9.5}",Genesee|Shiawassee,26049|26155,False,False,America/Detroit,"(42.87017, -83.87704)",6.839614711166562,100865.0,10543_0_no,42.77501106563642,-83.91422756398683,10.0
48451,42.80365,-83.81683,Linden,MI,Michigan,True,,14547.0,164.9,26049,Genesee,"{""26049"": 74.72, ""26093"": 25.28}",Genesee|Livingston,26049|26093,False,False,America/Detroit,"(42.80365, -83.81683)",5.320184705664927,100865.0,10543_0_no,42.77501106563642,-83.91422756398683,10.0
48816,42.76151,-83.95172,Cohoctah,MI,Michigan,True,,381.0,220.3,26093,Livingston,"{""26093"": 100}",Livingston,26093,False,False,America/Detroit,"(42.76151, -83.95172)",2.1181587975538627,100865.0,10543_0_no,42.77501106563642,-83.91422756398683,10.0
48836,42.66899,-84.07421,Fowlerville,MI,Michigan,True,,14091.0,57.9,26093,Livingston,"{""26093"": 100}",Livingston,26093,False,False,America/Detroit,"(42.66899, -84.07421)",10.936456481548197,100865.0,10543_0_no,42.77501106563642,-83.91422756398683,10.0
48855,42.68759,-83.91331,Howell,MI,Michigan,True,,15644.0,66.3,26093,Livingston,"{""26093"": 100}",Livingston,26093,False,False,America/Detroit,"(42.68759, -83.91331)",6.040399827647197,100865.0,10543_0_no,42.77501106563642,-83.91422756398683,10.0
