zip,lat,lng,city,state_id,state_name,zcta,parent_zcta,population,density,county_fips,county_name,county_weights,county_names_all,county_fips_all,imprecise,military,timezone,Coord,distance_miles,market_total_population,market_id,market_center_lat,market_center_lng,radius_miles
48815,42.84155,-85.25387,Clarksville,MI,Michigan,True,,2362.0,34.0,26067,Ionia,"{""26067"": 98.06, ""26081"": 1.94}",Ionia|Kent,26067|26081,False,False,America/Detroit,"(42.84155, -85.25387)",9.242042907201526,27879.0,10546_0_no,42.77703719935856,-85.09414664125802,10.0
48849,42.7984,-85.13298,Lake Odessa,MI,Michigan,True,,5990.0,27.6,26067,Ionia,"{""26067"": 77.17, ""26015"": 17.89, ""26045"": 4.94}",Ionia|Barry|Eaton,26067|26015|26045,False,False,America/Detroit,"(42.7984, -85.13298)",2.4608837835924664,27879.0,10546_0_no,42.77703719935856,-85.09414664125802,10.0
48861,42.73002,-84.91741,Mulliken,MI,Michigan,True,,1738.0,25.6,26045,Eaton,"{""26045"": 91.49, ""26067"": 8.51}",Eaton|Ionia,26045|26067,False,False,America/Detroit,"(42.73002, -84.91741)",9.536888768612169,27879.0,10546_0_no,42.77703719935856,-85.09414664125802,10.0
48875,42.8578,-84.93201,Portland,MI,Michigan,True,,10887.0,49.3,26067,Ionia,"{""26067"": 90.06, ""26037"": 9.94}",Ionia|Clinton,26067|26037,False,False,America/Detroit,"(42.8578, -84.93201)",9.932932949340596,27879.0,10546_0_no,42.77703719935856,-85.09414664125802,10.0
48890,42.76878,-84.97167,Sunfield,MI,Michigan,True,,1976.0,24.1,26045,Eaton,"{""26045"": 53.34, ""26067"": 46.66}",Eaton|Ionia,26045|26067,False,False,America/Detroit,"(42.76878, -84.97167)",6.237926003835891,27879.0,10546_0_no,42.77703719935856,-85.09414664125802,10.0
48897,42.70498,-85.13193,Woodland,MI,Michigan,True,,1585.0,18.9,26015,Barry,"{""26015"": 97.38, ""26045"": 2.62}",Barry|Eaton,26015|26045,False,False,America/Detroit,"(42.70498, -85.13193)",5.33509363335033,27879.0,10546_0_no,42.77703719935856,-85.09414664125802,10.0
49096,42.63794,-85.01409,Vermontville,MI,Michigan,True,,3341.0,20.3,26045,Eaton,"{""26045"": 100}",Eaton,26045,False,False,America/Detroit,"(42.63794, -85.01409)",10.434872937331285,27879.0,10546_0_no,42.77703719935856,-85.09414664125802,10.0
