zip,lat,lng,city,state_id,state_name,zcta,parent_zcta,population,density,county_fips,county_name,county_weights,county_names_all,county_fips_all,imprecise,military,timezone,Coord,distance_miles,market_total_population,market_id,market_center_lat,market_center_lng,radius_miles
53510,42.74065,-90.32147,Belmont,WI,Wisconsin,True,,1517.0,13.9,55065,Lafayette,"{""55065"": 100}",Lafayette,55065,False,False,America/Chicago,"(42.74065, -90.32147)",6.566522959662634,11901.0,10559_0_no,42.78581876233172,-90.207573924458,10.0
53530,42.69356,-90.11163,Darlington,WI,Wisconsin,True,,4455.0,13.2,55065,Lafayette,"{""55065"": 100}",Lafayette,55065,False,False,America/Chicago,"(42.69356, -90.11163)",8.02110671670121,11901.0,10559_0_no,42.78581876233172,-90.207573924458,10.0
53553,42.91235,-90.29693,Linden,WI,Wisconsin,True,,717.0,40.5,55049,Iowa,"{""55049"": 100}",Iowa,55049,False,False,America/Chicago,"(42.91235, -90.29693)",9.844748580534842,11901.0,10559_0_no,42.78581876233172,-90.207573924458,10.0
53565,42.84025,-90.16982,Mineral Point,WI,Wisconsin,True,,4685.0,9.7,55049,Iowa,"{""55049"": 70.82, ""55065"": 29.18}",Iowa|Lafayette,55049|55065,False,False,America/Chicago,"(42.84025, -90.16982)",4.219674641615043,11901.0,10559_0_no,42.78581876233172,-90.207573924458,10.0
53580,42.85943,-90.38131,Rewey,WI,Wisconsin,True,,527.0,11.0,55049,Iowa,"{""55049"": 100}",Iowa,55049,False,False,America/Chicago,"(42.85943, -90.38131)",10.167931919981251,11901.0,10559_0_no,42.78581876233172,-90.207573924458,10.0
