zip,lat,lng,city,state_id,state_name,zcta,parent_zcta,population,density,county_fips,county_name,county_weights,county_names_all,county_fips_all,imprecise,military,timezone,Coord,distance_miles,market_total_population,market_id,market_center_lat,market_center_lng,radius_miles
48809,43.0646,-85.25712,Belding,MI,Michigan,True,,11090.0,53.5,26067,Ionia,"{""26067"": 77.37, ""26081"": 20.73, ""26117"": 1.9}",Ionia|Kent|Montcalm,26067|26081|26117,False,False,America/Detroit,"(43.0646, -85.25712)",11.01790233138577,63269.0,10560_0_yes,42.92164472312826,-85.16051853756278,10.0
48815,42.84155,-85.25387,Clarksville,MI,Michigan,True,,2362.0,34.0,26067,Ionia,"{""26067"": 98.06, ""26081"": 1.94}",Ionia|Kent,26067|26081,False,False,America/Detroit,"(42.84155, -85.25387)",7.27757987583515,63269.0,10560_0_yes,42.92164472312826,-85.16051853756278,10.0
48846,42.98611,-85.05754,Ionia,MI,Michigan,True,,20142.0,70.3,26067,Ionia,"{""26067"": 100}",Ionia,26067,False,False,America/Detroit,"(42.98611, -85.05754)",6.852605389704994,63269.0,10560_0_yes,42.92164472312826,-85.16051853756278,10.0
48849,42.7984,-85.13298,Lake Odessa,MI,Michigan,True,,5990.0,27.6,26067,Ionia,"{""26067"": 77.17, ""26015"": 17.89, ""26045"": 4.94}",Ionia|Barry|Eaton,26067|26015|26045,False,False,America/Detroit,"(42.7984, -85.13298)",8.628864984724814,63269.0,10560_0_yes,42.92164472312826,-85.16051853756278,10.0
48881,42.934,-85.20214,Saranac,MI,Michigan,True,,5567.0,39.8,26067,Ionia,"{""26067"": 100}",Ionia,26067,False,False,America/Detroit,"(42.934, -85.20214)",2.272137763542051,63269.0,10560_0_yes,42.92164472312826,-85.16051853756278,10.0
49331,42.95161,-85.35139,Lowell,MI,Michigan,True,,18118.0,76.5,26081,Kent,"{""26081"": 78.74, ""26067"": 21.26}",Kent|Ionia,26081|26067,False,False,America/Detroit,"(42.95161, -85.35139)",9.874496560335825,63269.0,10560_0_yes,42.92164472312826,-85.16051853756278,10.0
