zip,lat,lng,city,state_id,state_name,zcta,parent_zcta,population,density,county_fips,county_name,county_weights,county_names_all,county_fips_all,imprecise,military,timezone,Coord,distance_miles,market_total_population,market_id,market_center_lat,market_center_lng,radius_miles
51001,42.83854,-96.54551,Akron,IA,Iowa,True,,2167.0,5.1,19149,Plymouth,"{""19149"": 60.08, ""46127"": 39.92}",Plymouth|Union,19149|46127,False,False,America/Chicago,"(42.83854, -96.54551)",3.6392534269743275,7337.0,10575_0_no,42.796630522774414,-96.5020153367894,10.0
51011,42.91562,-96.51388,Chatsworth,IA,Iowa,True,,56.0,51.6,19167,Sioux,"{""19167"": 100}",Sioux,19167,False,False,America/Chicago,"(42.91562, -96.51388)",8.243323570008977,7337.0,10575_0_no,42.796630522774414,-96.5020153367894,10.0
51038,42.7056,-96.31569,Merrill,IA,Iowa,True,,1831.0,7.9,19149,Plymouth,"{""19149"": 100}",Plymouth,19149,False,False,America/Chicago,"(42.7056, -96.31569)",11.354545095960892,7337.0,10575_0_no,42.796630522774414,-96.5020153367894,10.0
51062,42.70623,-96.53511,Westfield,IA,Iowa,True,,389.0,2.7,19149,Plymouth,"{""19149"": 99.44, ""46127"": 0.56}",Plymouth|Union,19149|46127,False,False,America/Chicago,"(42.70623, -96.53511)",6.467831079996001,7337.0,10575_0_no,42.796630522774414,-96.5020153367894,10.0
57025,42.71718,-96.68894,Elk Point,SD,South Dakota,True,,2894.0,9.0,46127,Union,"{""46127"": 99.57, ""19149"": 0.43}",Union|Plymouth,46127|19149,False,False,America/Chicago,"(42.71718, -96.68894)",10.95720045395887,7337.0,10575_0_no,42.796630522774414,-96.5020153367894,10.0
