zip,lat,lng,city,state_id,state_name,zcta,parent_zcta,population,density,county_fips,county_name,county_weights,county_names_all,county_fips_all,imprecise,military,timezone,Coord,distance_miles,market_total_population,market_id,market_center_lat,market_center_lng,radius_miles
53523,42.98338,-89.03172,Cambridge,WI,Wisconsin,True,,5008.0,41.3,55025,Dane,"{""55025"": 64.28, ""55055"": 35.72}",Dane|Jefferson,55025|55055,False,False,America/Chicago,"(42.98338, -89.03172)",5.236680279549807,65258.0,10570_0_yes,42.92843358741273,-89.10304822919767,10.0
53527,43.06346,-89.19141,Cottage Grove,WI,Wisconsin,True,,11112.0,119.9,55025,Dane,"{""55025"": 100}",Dane,55025,False,False,America/Chicago,"(43.06346, -89.19141)",10.343010056166227,65258.0,10570_0_yes,42.92843358741273,-89.10304822919767,10.0
53531,43.05696,-89.10114,Deerfield,WI,Wisconsin,True,,4465.0,41.9,55025,Dane,"{""55025"": 100}",Dane,55025,False,False,America/Chicago,"(43.05696, -89.10114)",8.880852900236505,65258.0,10570_0_yes,42.92843358741273,-89.10304822919767,10.0
53534,42.84763,-89.09032,Edgerton,WI,Wisconsin,True,,11764.0,53.3,55105,Rock,"{""55105"": 51.82, ""55025"": 43.37, ""55055"": 4.81}",Rock|Dane|Jefferson,55105|55025|55055,False,False,America/Chicago,"(42.84763, -89.09032)",5.620056290397842,65258.0,10570_0_yes,42.92843358741273,-89.10304822919767,10.0
53558,43.00286,-89.28409,Mcfarland,WI,Wisconsin,True,,12609.0,280.6,55025,Dane,"{""55025"": 100}",Dane,55025,False,False,America/Chicago,"(43.00286, -89.28409)",10.499042977605974,65258.0,10570_0_yes,42.92843358741273,-89.10304822919767,10.0
53589,42.92684,-89.21182,Stoughton,WI,Wisconsin,True,,20300.0,92.3,55025,Dane,"{""55025"": 98.08, ""55105"": 1.92}",Dane|Rock,55025|55105,False,False,America/Chicago,"(42.92684, -89.21182)",5.50399556119633,65258.0,10570_0_yes,42.92843358741273,-89.10304822919767,10.0
