zip,lat,lng,city,state_id,state_name,zcta,parent_zcta,population,density,county_fips,county_name,county_weights,county_names_all,county_fips_all,imprecise,military,timezone,Coord,distance_miles,market_total_population,market_id,market_center_lat,market_center_lng,radius_miles
50527,42.96899,-94.79288,Curlew,IA,Iowa,True,,178.0,1.4,19147,Palo Alto,"{""19147"": 100}",Palo Alto,19147,False,False,America/Chicago,"(42.96899, -94.79288)",8.83906934896574,2860.0,10584_0_yes,42.93794068997023,-94.6233173529326,10.0
50546,42.84388,-94.70347,Havelock,IA,Iowa,True,,327.0,2.4,19151,Pocahontas,"{""19151"": 95.25, ""19147"": 4.75}",Pocahontas|Palo Alto,19151|19147,False,False,America/Chicago,"(42.84388, -94.70347)",7.661556003544982,2860.0,10584_0_yes,42.93794068997023,-94.6233173529326,10.0
50562,42.96158,-94.64173,Mallard,IA,Iowa,True,,355.0,2.2,19147,Palo Alto,"{""19147"": 92.87, ""19151"": 7.13}",Palo Alto|Pocahontas,19147|19151,False,False,America/Chicago,"(42.96158, -94.64173)",1.8801167403029093,2860.0,10584_0_yes,42.93794068997023,-94.6233173529326,10.0
50573,42.8768,-94.62255,Plover,IA,Iowa,True,,97.0,88.0,19151,Pocahontas,"{""19151"": 100}",Pocahontas,19151,False,False,America/Chicago,"(42.8768, -94.62255)",4.224597801536129,2860.0,10584_0_yes,42.93794068997023,-94.6233173529326,10.0
50581,42.84735,-94.54506,Rolfe,IA,Iowa,True,,865.0,3.5,19151,Pocahontas,"{""19151"": 91.8, ""19147"": 8.2}",Pocahontas|Palo Alto,19151|19147,False,False,America/Chicago,"(42.84735, -94.54506)",7.407453934416184,2860.0,10584_0_yes,42.93794068997023,-94.6233173529326,10.0
50597,42.97379,-94.45048,West Bend,IA,Iowa,True,,1038.0,4.8,19147,Palo Alto,"{""19147"": 55.54, ""19109"": 42.19, ""19091"": 1.34, ""19151"": 0.93}",Palo Alto|Kossuth|Humboldt|Pocahontas,19147|19109|19091|19151,False,False,America/Chicago,"(42.97379, -94.45048)",9.084248439437003,2860.0,10584_0_yes,42.93794068997023,-94.6233173529326,10.0
