zip,lat,lng,city,state_id,state_name,zcta,parent_zcta,population,density,county_fips,county_name,county_weights,county_names_all,county_fips_all,imprecise,military,timezone,Coord,distance_miles,market_total_population,market_id,market_center_lat,market_center_lng,radius_miles
48809,43.0646,-85.25712,Belding,MI,Michigan,True,,11090.0,53.5,26067,Ionia,"{""26067"": 77.37, ""26081"": 20.73, ""26117"": 1.9}",Ionia|Kent|Montcalm,26067|26081|26117,False,False,America/Detroit,"(43.0646, -85.25712)",2.302007855903633,113088.0,10696_0_no,43.06675925799295,-85.30262859828899,10.0
48838,43.18268,-85.25943,Greenville,MI,Michigan,True,,17573.0,72.9,26117,Montcalm,"{""26117"": 77.28, ""26081"": 21.26, ""26067"": 1.46}",Montcalm|Kent|Ionia,26117|26081|26067,False,False,America/Detroit,"(43.18268, -85.25943)",8.300334439108058,113088.0,10696_0_no,43.06675925799295,-85.30262859828899,10.0
48865,43.08785,-85.10725,Orleans,MI,Michigan,True,,2090.0,37.8,26067,Ionia,"{""26067"": 100}",Ionia,26067,False,False,America/Detroit,"(43.08785, -85.10725)",9.967482981499769,113088.0,10696_0_no,43.06675925799295,-85.30262859828899,10.0
48881,42.934,-85.20214,Saranac,MI,Michigan,True,,5567.0,39.8,26067,Ionia,"{""26067"": 100}",Ionia,26067,False,False,America/Detroit,"(42.934, -85.20214)",10.484484704817067,113088.0,10696_0_no,43.06675925799295,-85.30262859828899,10.0
49301,42.97716,-85.47671,Ada,MI,Michigan,True,,19922.0,135.4,26081,Kent,"{""26081"": 100}",Kent,26081,False,False,America/Detroit,"(42.97716, -85.47671)",10.754086383230927,113088.0,10696_0_no,43.06675925799295,-85.30262859828899,10.0
49331,42.95161,-85.35139,Lowell,MI,Michigan,True,,18118.0,76.5,26081,Kent,"{""26081"": 78.74, ""26067"": 21.26}",Kent|Ionia,26081|26067,False,False,America/Detroit,"(42.95161, -85.35139)",8.32876273986191,113088.0,10696_0_no,43.06675925799295,-85.30262859828899,10.0
49341,43.12433,-85.49246,Rockford,MI,Michigan,True,,38728.0,176.9,26081,Kent,"{""26081"": 100}",Kent,26081,False,False,America/Detroit,"(43.12433, -85.49246)",10.370752945570857,113088.0,10696_0_no,43.06675925799295,-85.30262859828899,10.0
