zip,lat,lng,city,state_id,state_name,zcta,parent_zcta,population,density,county_fips,county_name,county_weights,county_names_all,county_fips_all,imprecise,military,timezone,Coord,distance_miles,market_total_population,market_id,market_center_lat,market_center_lng,radius_miles
52047,42.96401,-91.34301,Farmersburg,IA,Iowa,True,,829.0,8.4,19043,Clayton,"{""19043"": 100}",Clayton,19043,False,False,America/Chicago,"(42.96401, -91.34301)",9.655589731549021,15350.0,10711_0_no,43.07699466087035,-91.2305213833285,10.0
52146,43.18826,-91.19588,Harpers Ferry,IA,Iowa,True,,783.0,3.7,19005,Allamakee,"{""19005"": 100}",Allamakee,19005,False,False,America/Chicago,"(43.18826, -91.19588)",7.883638122009248,15350.0,10711_0_no,43.07699466087035,-91.2305213833285,10.0
52157,43.01661,-91.23216,McGregor,IA,Iowa,True,,1825.0,12.4,19043,Clayton,"{""19043"": 100}",Clayton,19043,False,False,America/Chicago,"(43.01661, -91.23216)",4.173002996481529,15350.0,10711_0_no,43.07699466087035,-91.2305213833285,10.0
52158,43.04388,-91.18647,Marquette,IA,Iowa,True,,250.0,75.4,19043,Clayton,"{""19043"": 100}",Clayton,19043,False,False,America/Chicago,"(43.04388, -91.18647)",3.1906521007550195,15350.0,10711_0_no,43.07699466087035,-91.2305213833285,10.0
52159,43.07979,-91.36134,Monona,IA,Iowa,True,,2412.0,12.8,19005,Allamakee,"{""19005"": 50.78, ""19043"": 49.22}",Allamakee|Clayton,19005|19043,False,False,America/Chicago,"(43.07979, -91.36134)",6.604874223960566,15350.0,10711_0_no,43.07699466087035,-91.2305213833285,10.0
53821,43.04769,-91.06569,Prairie Du Chien,WI,Wisconsin,True,,7962.0,31.8,55023,Crawford,"{""55023"": 78.66, ""55043"": 21.34}",Crawford|Grant,55023|55043,False,False,America/Chicago,"(43.04769, -91.06569)",8.563564840835179,15350.0,10711_0_no,43.07699466087035,-91.2305213833285,10.0
54626,43.2162,-91.03608,Eastman,WI,Wisconsin,True,,1289.0,7.0,55023,Crawford,"{""55023"": 100}",Crawford,55023,False,False,America/Chicago,"(43.2162, -91.03608)",13.732731814353903,15350.0,10711_0_no,43.07699466087035,-91.2305213833285,10.0
