zip,lat,lng,city,state_id,state_name,zcta,parent_zcta,population,density,county_fips,county_name,county_weights,county_names_all,county_fips_all,imprecise,military,timezone,Coord,distance_miles,market_total_population,market_id,market_center_lat,market_center_lng,radius_miles
53004,43.4995,-87.8805,Belgium,WI,Wisconsin,True,,3428.0,39.4,55089,Ozaukee,"{""55089"": 100}",Ozaukee,55089,False,False,America/Chicago,"(43.4995, -87.8805)",9.621621173636473,90238.0,10852_0_no,43.36060905364938,-87.89436125704879,10.0
53012,43.31369,-88.03704,Cedarburg,WI,Wisconsin,True,,18532.0,211.3,55089,Ozaukee,"{""55089"": 68.64, ""55131"": 31.36}",Ozaukee|Washington,55089|55131,False,False,America/Chicago,"(43.31369, -88.03704)",7.86891375948102,90238.0,10852_0_no,43.36060905364938,-87.89436125704879,10.0
53021,43.49425,-88.00111,Fredonia,WI,Wisconsin,True,,4619.0,53.4,55089,Ozaukee,"{""55089"": 80.86, ""55131"": 18.3, ""55117"": 0.84}",Ozaukee|Washington|Sheboygan,55089|55131|55117,False,False,America/Chicago,"(43.49425, -88.00111)",10.674909306389377,90238.0,10852_0_no,43.36060905364938,-87.89436125704879,10.0
53024,43.33233,-87.93299,Grafton,WI,Wisconsin,True,,17977.0,252.2,55089,Ozaukee,"{""55089"": 100}",Ozaukee,55089,False,False,America/Chicago,"(43.33233, -87.93299)",2.75407652948608,90238.0,10852_0_no,43.36060905364938,-87.89436125704879,10.0
53074,43.42716,-87.88265,Port Washington,WI,Wisconsin,True,,12788.0,163.2,55089,Ozaukee,"{""55089"": 100}",Ozaukee,55089,False,False,America/Chicago,"(43.42716, -87.88265)",4.635673033802911,90238.0,10852_0_no,43.36060905364938,-87.89436125704879,10.0
53080,43.40733,-87.98789,Saukville,WI,Wisconsin,True,,5388.0,72.8,55089,Ozaukee,"{""55089"": 100}",Ozaukee,55089,False,False,America/Chicago,"(43.40733, -87.98789)",5.698952649954735,90238.0,10852_0_no,43.36060905364938,-87.89436125704879,10.0
53092,43.22139,-87.95351,Mequon,WI,Wisconsin,True,,20625.0,392.2,55089,Ozaukee,"{""55089"": 100}",Ozaukee,55089,False,False,America/Chicago,"(43.22139, -87.95351)",10.068578082817561,90238.0,10852_0_no,43.36060905364938,-87.89436125704879,10.0
53097,43.24574,-88.0069,Mequon,WI,Wisconsin,True,,6881.0,98.3,55089,Ozaukee,"{""55089"": 100}",Ozaukee,55089,False,False,America/Chicago,"(43.24574, -88.0069)",9.747372485276903,90238.0,10852_0_no,43.36060905364938,-87.89436125704879,10.0
