zip,lat,lng,city,state_id,state_name,zcta,parent_zcta,population,density,county_fips,county_name,county_weights,county_names_all,county_fips_all,imprecise,military,timezone,Coord,distance_miles,market_total_population,market_id,market_center_lat,market_center_lng,radius_miles
48801,43.37871,-84.67667,Alma,MI,Michigan,True,,13172.0,71.8,26057,Gratiot,"{""26057"": 100}",Gratiot,26057,False,False,America/Detroit,"(43.37871, -84.67667)",9.877561585629351,77343.0,10858_0_yes,43.49968195798421,-84.78158444468579,10.0
48832,43.41212,-84.77767,Elwell,MI,Michigan,True,,1257.0,18.9,26057,Gratiot,"{""26057"": 100}",Gratiot,26057,False,False,America/Detroit,"(43.41212, -84.77767)",6.05313979967649,77343.0,10858_0_yes,43.49968195798421,-84.78158444468579,10.0
48858,43.61483,-84.79576,Mount Pleasant,MI,Michigan,True,,50340.0,111.5,26073,Isabella,"{""26073"": 98.61, ""26111"": 1.39}",Isabella|Midland,26073|26111,False,False,America/Detroit,"(43.61483, -84.79576)",7.987570528634058,77343.0,10858_0_yes,43.49968195798421,-84.78158444468579,10.0
48877,43.40068,-84.84316,Riverdale,MI,Michigan,True,,2022.0,21.1,26057,Gratiot,"{""26057"": 46.02, ""26117"": 41.45, ""26073"": 12.52}",Gratiot|Montcalm|Isabella,26057|26117|26073,False,False,America/Detroit,"(43.40068, -84.84316)",7.505361342033894,77343.0,10858_0_yes,43.49968195798421,-84.78158444468579,10.0
48883,43.54336,-84.66771,Shepherd,MI,Michigan,True,,7114.0,23.9,26073,Isabella,"{""26073"": 64.7, ""26111"": 35.02, ""26057"": 0.28}",Isabella|Midland|Gratiot,26073|26111|26057,False,False,America/Detroit,"(43.54336, -84.66771)",6.454201839872409,77343.0,10858_0_yes,43.49968195798421,-84.78158444468579,10.0
48891,43.39676,-84.91469,Vestaburg,MI,Michigan,True,,3066.0,29.4,26117,Montcalm,"{""26117"": 100}",Montcalm,26117,False,False,America/Detroit,"(43.39676, -84.91469)",9.75443248176442,77343.0,10858_0_yes,43.49968195798421,-84.78158444468579,10.0
48896,43.52127,-84.90101,Winn,MI,Michigan,True,,372.0,530.8,26073,Isabella,"{""26073"": 100}",Isabella,26073,False,False,America/Detroit,"(43.52127, -84.90101)",6.167488191137655,77343.0,10858_0_yes,43.49968195798421,-84.78158444468579,10.0
