zip,lat,lng,city,state_id,state_name,zcta,parent_zcta,population,density,county_fips,county_name,county_weights,county_names_all,county_fips_all,imprecise,military,timezone,Coord,distance_miles,market_total_population,market_id,market_center_lat,market_center_lng,radius_miles
57015,43.42182,-96.98006,Chancellor,SD,South Dakota,True,,728.0,5.7,46125,Turner,"{""46125"": 97.97, ""46099"": 2.03}",Turner|Minnehaha,46125|46099,False,False,America/Chicago,"(43.42182, -96.98006)",3.9503457570142815,62748.0,10875_0_no,43.37646592056221,-97.02797173869396,10.0
57021,43.2723,-96.97797,Davis,SD,South Dakota,True,,408.0,5.2,46125,Turner,"{""46125"": 100}",Turner,46125,False,False,America/Chicago,"(43.2723, -96.97797)",7.623387418599206,62748.0,10875_0_no,43.37646592056221,-97.02797173869396,10.0
57036,43.27067,-97.14364,Hurley,SD,South Dakota,True,,576.0,2.4,46125,Turner,"{""46125"": 100}",Turner,46125,False,False,America/Chicago,"(43.27067, -97.14364)",9.340035539665754,62748.0,10875_0_no,43.37646592056221,-97.02797173869396,10.0
57039,43.33659,-96.86755,Lennox,SD,South Dakota,True,,3796.0,15.9,46083,Lincoln,"{""46083"": 92.11, ""46125"": 7.89}",Lincoln|Turner,46083|46125,False,False,America/Chicago,"(43.33659, -96.86755)",8.51712859642948,62748.0,10875_0_no,43.37646592056221,-97.02797173869396,10.0
57047,43.51755,-97.21525,Monroe,SD,South Dakota,True,,339.0,8.9,46087,McCook,"{""46087"": 77.04, ""46125"": 22.96}",McCook|Turner,46087|46125,False,False,America/Chicago,"(43.51755, -97.21525)",13.537979586265287,62748.0,10875_0_no,43.37646592056221,-97.02797173869396,10.0
57053,43.40963,-97.13716,Parker,SD,South Dakota,True,,1813.0,4.9,46125,Turner,"{""46125"": 92.03, ""46087"": 5.85, ""46099"": 2.12}",Turner|McCook|Minnehaha,46125|46087|46099,False,False,America/Chicago,"(43.40963, -97.13716)",5.941668974320293,62748.0,10875_0_no,43.37646592056221,-97.02797173869396,10.0
57064,43.45563,-96.87489,Tea,SD,South Dakota,True,,7233.0,109.0,46083,Lincoln,"{""46083"": 85.67, ""46125"": 14.33}",Lincoln|Turner,46083|46125,False,False,America/Chicago,"(43.45563, -96.87489)",9.43105116910528,62748.0,10875_0_no,43.37646592056221,-97.02797173869396,10.0
57106,43.50953,-96.83919,Sioux Falls,SD,South Dakota,True,,47855.0,610.5,46099,Minnehaha,"{""46099"": 66.7, ""46083"": 33.3}",Minnehaha|Lincoln,46099|46083,False,False,America/Chicago,"(43.50953, -96.83919)",13.199063325322046,62748.0,10875_0_no,43.37646592056221,-97.02797173869396,10.0
