zip,lat,lng,city,state_id,state_name,zcta,parent_zcta,population,density,county_fips,county_name,county_weights,county_names_all,county_fips_all,imprecise,military,timezone,Coord,distance_miles,market_total_population,market_id,market_center_lat,market_center_lng,radius_miles
51243,43.4425,-95.90287,Little Rock,IA,Iowa,True,,639.0,4.7,19119,Lyon,"{""19119"": 85.95, ""19143"": 14.05}",Lyon|Osceola,19119|19143,False,False,America/Chicago,"(43.4425, -95.90287)",5.423130685920678,7563.0,10886_0_yes,43.51908061153731,-95.92658330397308,10.0
51249,43.41068,-95.73203,Sibley,IA,Iowa,True,,3186.0,9.7,19143,Osceola,"{""19143"": 100}",Osceola,19143,False,False,America/Chicago,"(43.41068, -95.73203)",12.299755719058474,7563.0,10886_0_yes,43.51908061153731,-95.92658330397308,10.0
56110,43.62115,-95.94093,Adrian,MN,Minnesota,True,,1741.0,6.1,27105,Nobles,"{""27105"": 100}",Nobles,27105,False,False,America/Chicago,"(43.62115, -95.94093)",7.088799035203065,7563.0,10886_0_yes,43.51908061153731,-95.92658330397308,10.0
56129,43.52775,-96.04327,Ellsworth,MN,Minnesota,True,,813.0,6.6,27105,Nobles,"{""27105"": 52.8, ""27133"": 47.1, ""19119"": 0.1}",Nobles|Rock|Lyon,27105|27133|19119,False,False,America/Chicago,"(43.52775, -96.04327)",5.8765121613353895,7563.0,10886_0_yes,43.51908061153731,-95.92658330397308,10.0
56146,43.58006,-96.10343,Kanaranzi,MN,Minnesota,True,,69.0,26.8,27133,Rock,"{""27133"": 100}",Rock,27133,False,False,America/Chicago,"(43.58006, -96.10343)",9.807183741600399,7563.0,10886_0_yes,43.51908061153731,-95.92658330397308,10.0
56158,43.6337,-96.07465,Magnolia,MN,Minnesota,True,,346.0,3.6,27133,Rock,"{""27133"": 75.57, ""27105"": 24.43}",Rock|Nobles,27133|27105,False,False,America/Chicago,"(43.6337, -96.07465)",10.846559515657962,7563.0,10886_0_yes,43.51908061153731,-95.92658330397308,10.0
56168,43.61552,-95.80358,Rushmore,MN,Minnesota,True,,769.0,3.1,27105,Nobles,"{""27105"": 100}",Nobles,27105,False,False,America/Chicago,"(43.61552, -95.80358)",9.07300037579602,7563.0,10886_0_yes,43.51908061153731,-95.92658330397308,10.0
