zip,lat,lng,city,state_id,state_name,zcta,parent_zcta,population,density,county_fips,county_name,county_weights,county_names_all,county_fips_all,imprecise,military,timezone,Coord,distance_miles,market_total_population,market_id,market_center_lat,market_center_lng,radius_miles
49304,43.91027,-85.87417,Baldwin,MI,Michigan,True,,4015.0,13.6,26085,Lake,"{""26085"": 100}",Lake,26085,False,False,America/Detroit,"(43.91027, -85.87417)",9.317335466245348,9455.0,11009_0_yes,43.79076730626482,-85.78752804465674,10.0
49309,43.76021,-85.87842,Bitely,MI,Michigan,True,,1477.0,4.5,26123,Newaygo,"{""26123"": 95.02, ""26085"": 4.98}",Newaygo|Lake,26123|26085,False,False,America/Detroit,"(43.76021, -85.87842)",5.001966355421221,9455.0,11009_0_yes,43.79076730626482,-85.78752804465674,10.0
49312,43.69009,-85.79992,Brohman,MI,Michigan,True,,278.0,4.1,26123,Newaygo,"{""26123"": 100}",Newaygo,26123,False,False,America/Detroit,"(43.69009, -85.79992)",6.983589744493731,9455.0,11009_0_yes,43.79076730626482,-85.78752804465674,10.0
49338,43.75888,-85.61033,Paris,MI,Michigan,True,,1602.0,10.9,26123,Newaygo,"{""26123"": 70.14, ""26107"": 29.67, ""26133"": 0.19}",Newaygo|Mecosta|Osceola,26123|26107|26133,False,False,America/Detroit,"(43.75888, -85.61033)",9.110794734981784,9455.0,11009_0_yes,43.79076730626482,-85.78752804465674,10.0
49623,43.90367,-85.68285,Chase,MI,Michigan,True,,1165.0,6.5,26085,Lake,"{""26085"": 100}",Lake,26085,False,False,America/Detroit,"(43.90367, -85.68285)",9.38403620726475,9455.0,11009_0_yes,43.79076730626482,-85.78752804465674,10.0
49642,43.87927,-85.77059,Idlewild,MI,Michigan,True,,918.0,23.3,26085,Lake,"{""26085"": 100}",Lake,26085,False,False,America/Detroit,"(43.87927, -85.77059)",6.172949732949765,9455.0,11009_0_yes,43.79076730626482,-85.78752804465674,10.0
