zip,lat,lng,city,state_id,state_name,zcta,parent_zcta,population,density,county_fips,county_name,county_weights,county_names_all,county_fips_all,imprecise,military,timezone,Coord,distance_miles,market_total_population,market_id,market_center_lat,market_center_lng,radius_miles
56009,43.66125,-93.55904,Alden,MN,Minnesota,True,,1437.0,5.7,27047,Freeborn,"{""27047"": 98.48, ""27043"": 1.52}",Freeborn|Faribault,27047|27043,False,False,America/Chicago,"(43.66125, -93.55904)",7.155678441710869,7665.0,11015_0_no,43.660106737869945,-93.70218775171848,10.0
56014,43.58363,-93.82568,Bricelyn,MN,Minnesota,True,,646.0,3.3,27043,Faribault,"{""27043"": 100}",Faribault,27043,False,False,America/Chicago,"(43.58363, -93.82568)",8.128548446865855,7665.0,11015_0_no,43.660106737869945,-93.70218775171848,10.0
56020,43.6146,-93.53019,Conger,MN,Minnesota,True,,107.0,656.1,27047,Freeborn,"{""27047"": 100}",Freeborn,27047,False,False,America/Chicago,"(43.6146, -93.53019)",9.157360027271455,7665.0,11015_0_no,43.660106737869945,-93.70218775171848,10.0
56029,43.52519,-93.53003,Emmons,MN,Minnesota,True,,661.0,6.1,27047,Freeborn,"{""27047"": 100}",Freeborn,27047,False,False,America/Chicago,"(43.52519, -93.53003)",12.693149313720825,7665.0,11015_0_no,43.660106737869945,-93.70218775171848,10.0
56032,43.77583,-93.56078,Freeborn,MN,Minnesota,True,,331.0,41.6,27047,Freeborn,"{""27047"": 100}",Freeborn,27047,False,False,America/Chicago,"(43.77583, -93.56078)",10.667543210337858,7665.0,11015_0_no,43.660106737869945,-93.70218775171848,10.0
56051,43.53649,-93.70868,Kiester,MN,Minnesota,True,,713.0,9.4,27043,Faribault,"{""27043"": 100}",Faribault,27043,False,False,America/Chicago,"(43.53649, -93.70868)",8.547278531665247,7665.0,11015_0_no,43.660106737869945,-93.70218775171848,10.0
56097,43.72261,-93.71593,Wells,MN,Minnesota,True,,3770.0,8.3,27043,Faribault,"{""27043"": 82.0, ""27047"": 15.27, ""27161"": 2.73}",Faribault|Freeborn|Waseca,27043|27047|27161,False,False,America/Chicago,"(43.72261, -93.71593)",4.372797035733405,7665.0,11015_0_no,43.660106737869945,-93.70218775171848,10.0
