zip,lat,lng,city,state_id,state_name,zcta,parent_zcta,population,density,county_fips,county_name,county_weights,county_names_all,county_fips_all,imprecise,military,timezone,Coord,distance_miles,market_total_population,market_id,market_center_lat,market_center_lng,radius_miles
53011,43.65755,-88.08123,Cascade,WI,Wisconsin,True,,2051.0,20.7,55117,Sheboygan,"{""55117"": 98.66, ""55039"": 1.34}",Sheboygan|Fond du Lac,55117|55039,False,False,America/Chicago,"(43.65755, -88.08123)",10.864460099431206,30844.0,11015_0_yes,43.79496526657851,-88.18700148548366,10.0
53019,43.69667,-88.30752,Eden,WI,Wisconsin,True,,1763.0,19.2,55039,Fond du Lac,"{""55039"": 100}",Fond du Lac,55039,False,False,America/Chicago,"(43.69667, -88.30752)",9.072612110201547,30844.0,11015_0_yes,43.79496526657851,-88.18700148548366,10.0
53020,43.86231,-88.01364,Elkhart Lake,WI,Wisconsin,True,,3845.0,23.7,55117,Sheboygan,"{""55117"": 95.28, ""55071"": 2.98, ""55015"": 1.74}",Sheboygan|Manitowoc|Calumet,55117|55071|55015,False,False,America/Chicago,"(43.86231, -88.01364)",9.814345950830983,30844.0,11015_0_yes,43.79496526657851,-88.18700148548366,10.0
53023,43.78198,-88.10745,Glenbeulah,WI,Wisconsin,True,,2435.0,24.1,55117,Sheboygan,"{""55117"": 100}",Sheboygan,55117,False,False,America/Chicago,"(43.78198, -88.10745)",4.068078350562421,30844.0,11015_0_yes,43.79496526657851,-88.18700148548366,10.0
53049,43.8853,-88.28917,Malone,WI,Wisconsin,True,,2704.0,27.3,55039,Fond du Lac,"{""55039"": 95.57, ""55015"": 4.43}",Fond du Lac|Calumet,55039|55015,False,False,America/Chicago,"(43.8853, -88.28917)",8.054886365603284,30844.0,11015_0_yes,43.79496526657851,-88.18700148548366,10.0
53057,43.79099,-88.24671,Mount Calvary,WI,Wisconsin,True,,1712.0,20.9,55039,Fond du Lac,"{""55039"": 100}",Fond du Lac,55039,False,False,America/Chicago,"(43.79099, -88.24671)",2.9905864793647807,30844.0,11015_0_yes,43.79496526657851,-88.18700148548366,10.0
53073,43.75011,-87.99191,Plymouth,WI,Wisconsin,True,,14913.0,68.1,55117,Sheboygan,"{""55117"": 100}",Sheboygan,55117,False,False,America/Chicago,"(43.75011, -87.99191)",10.214956775659486,30844.0,11015_0_yes,43.79496526657851,-88.18700148548366,10.0
53079,43.81132,-88.1888,Saint Cloud,WI,Wisconsin,True,,1421.0,14.9,55039,Fond du Lac,"{""55039"": 96.39, ""55117"": 3.61}",Fond du Lac|Sheboygan,55039|55117,False,False,America/Chicago,"(43.81132, -88.1888)",1.1335578887701543,30844.0,11015_0_yes,43.79496526657851,-88.18700148548366,10.0
