zip,lat,lng,city,state_id,state_name,zcta,parent_zcta,population,density,county_fips,county_name,county_weights,county_names_all,county_fips_all,imprecise,military,timezone,Coord,distance_miles,market_total_population,market_id,market_center_lat,market_center_lng,radius_miles
56007,43.66085,-93.3238,Albert Lea,MN,Minnesota,True,,20994.0,47.9,27047,Freeborn,"{""27047"": 100}",Freeborn,27047,False,False,America/Chicago,"(43.66085, -93.3238)",10.377456074496601,30161.0,11028_0_yes,43.80406294582546,-93.3864369820655,10.0
56009,43.66125,-93.55904,Alden,MN,Minnesota,True,,1437.0,5.7,27047,Freeborn,"{""27047"": 98.48, ""27043"": 1.52}",Freeborn|Faribault,27047|27043,False,False,America/Chicago,"(43.66125, -93.55904)",13.10047701643419,30161.0,11028_0_yes,43.80406294582546,-93.3864369820655,10.0
56016,43.76378,-93.34855,Clarks Grove,MN,Minnesota,True,,909.0,13.6,27047,Freeborn,"{""27047"": 100}",Freeborn,27047,False,False,America/Chicago,"(43.76378, -93.34855)",3.364277982902377,30161.0,11028_0_yes,43.80406294582546,-93.3864369820655,10.0
56026,43.87485,-93.29124,Ellendale,MN,Minnesota,True,,2139.0,8.0,27147,Steele,"{""27147"": 60.45, ""27047"": 38.9, ""27161"": 0.65}",Steele|Freeborn|Waseca,27147|27047|27161,False,False,America/Chicago,"(43.87485, -93.29124)",6.8138687482654365,30161.0,11028_0_yes,43.80406294582546,-93.3864369820655,10.0
56032,43.77583,-93.56078,Freeborn,MN,Minnesota,True,,331.0,41.6,27047,Freeborn,"{""27047"": 100}",Freeborn,27047,False,False,America/Chicago,"(43.77583, -93.56078)",8.91186735195825,30161.0,11028_0_yes,43.80406294582546,-93.3864369820655,10.0
56035,43.82187,-93.26875,Geneva,MN,Minnesota,True,,446.0,316.6,27047,Freeborn,"{""27047"": 100}",Freeborn,27047,False,False,America/Chicago,"(43.82187, -93.26875)",5.995248568584274,30161.0,11028_0_yes,43.80406294582546,-93.3864369820655,10.0
56042,43.80408,-93.48387,Hartland,MN,Minnesota,True,,787.0,5.7,27047,Freeborn,"{""27047"": 100}",Freeborn,27047,False,False,America/Chicago,"(43.80408, -93.48387)",4.858544403019928,30161.0,11028_0_yes,43.80406294582546,-93.3864369820655,10.0
56045,43.75977,-93.20948,Hollandale,MN,Minnesota,True,,975.0,12.9,27047,Freeborn,"{""27047"": 100}",Freeborn,27047,False,False,America/Chicago,"(43.75977, -93.20948)",9.342763794195657,30161.0,11028_0_yes,43.80406294582546,-93.3864369820655,10.0
56072,43.89677,-93.5125,New Richland,MN,Minnesota,True,,2143.0,6.8,27161,Waseca,"{""27161"": 77.62, ""27147"": 14.16, ""27047"": 7.97, ""27043"": 0.25}",Waseca|Steele|Freeborn|Faribault,27161|27147|27047|27043,False,False,America/Chicago,"(43.89677, -93.5125)",8.971322497373386,30161.0,11028_0_yes,43.80406294582546,-93.3864369820655,10.0
