zip,lat,lng,city,state_id,state_name,zcta,parent_zcta,population,density,county_fips,county_name,county_weights,county_names_all,county_fips_all,imprecise,military,timezone,Coord,distance_miles,market_total_population,market_id,market_center_lat,market_center_lng,radius_miles
12928,43.9539,-73.52898,Crown Point,NY,New York,True,,2029.0,10.8,36031,Essex,"{""36031"": 100}",Essex,36031,False,False,America/New_York,"(43.9539, -73.52898)",7.268208570341666,8105.0,11126_0_yes,44.05856153580712,-73.54367569964676,10.0
12956,44.09301,-73.49628,Mineville,NY,New York,True,,1180.0,48.3,36031,Essex,"{""36031"": 100}",Essex,36031,False,False,America/New_York,"(44.09301, -73.49628)",3.346648270408737,8105.0,11126_0_yes,44.05856153580712,-73.54367569964676,10.0
12960,44.02226,-73.54123,Moriah,NY,New York,True,,635.0,10.0,36031,Essex,"{""36031"": 100}",Essex,36031,False,False,America/New_York,"(44.02226, -73.54123)",2.5111369679760744,8105.0,11126_0_yes,44.05856153580712,-73.54367569964676,10.0
12961,44.06103,-73.57972,Moriah Center,NY,New York,True,,243.0,6.2,36031,Essex,"{""36031"": 100}",Essex,36031,False,False,America/New_York,"(44.06103, -73.57972)",1.7977631805649756,8105.0,11126_0_yes,44.05856153580712,-73.54367569964676,10.0
12964,44.13224,-73.63625,New Russia,NY,New York,True,,67.0,0.8,36031,Essex,"{""36031"": 100}",Essex,36031,False,False,America/New_York,"(44.13224, -73.63625)",6.856907117574373,8105.0,11126_0_yes,44.05856153580712,-73.54367569964676,10.0
12974,44.05582,-73.46931,Port Henry,NY,New York,True,,2152.0,122.1,36031,Essex,"{""36031"": 100}",Essex,36031,False,False,America/New_York,"(44.05582, -73.46931)",3.697388348497432,8105.0,11126_0_yes,44.05856153580712,-73.54367569964676,10.0
12993,44.19711,-73.48097,Westport,NY,New York,True,,1486.0,8.9,36031,Essex,"{""36031"": 100}",Essex,36031,False,False,America/New_York,"(44.19711, -73.48097)",10.065258296457834,8105.0,11126_0_yes,44.05856153580712,-73.54367569964676,10.0
12998,44.0879,-73.57584,Witherbee,NY,New York,True,,313.0,16.2,36031,Essex,"{""36031"": 100}",Essex,36031,False,False,America/New_York,"(44.0879, -73.57584)",2.5803848458315075,8105.0,11126_0_yes,44.05856153580712,-73.54367569964676,10.0
