zip,lat,lng,city,state_id,state_name,zcta,parent_zcta,population,density,county_fips,county_name,county_weights,county_names_all,county_fips_all,imprecise,military,timezone,Coord,distance_miles,market_total_population,market_id,market_center_lat,market_center_lng,radius_miles
55920,44.01246,-92.62111,Byron,MN,Minnesota,True,,7555.0,42.4,27109,Olmsted,"{""27109"": 100}",Olmsted,27109,False,False,America/Chicago,"(44.01246, -92.62111)",7.78760131850185,25427.0,11160_0_no,43.947837139996906,-92.74944250867038,10.0
55927,44.0335,-92.87291,Dodge Center,MN,Minnesota,True,,4286.0,20.6,27039,Dodge,"{""27039"": 100}",Dodge,27039,False,False,America/Chicago,"(44.0335, -92.87291)",8.526452164784612,25427.0,11160_0_no,43.947837139996906,-92.74944250867038,10.0
55940,43.89417,-92.80775,Hayfield,MN,Minnesota,True,,2744.0,11.4,27039,Dodge,"{""27039"": 90.08, ""27109"": 8.63, ""27099"": 1.29}",Dodge|Olmsted|Mower,27039|27109|27099,False,False,America/Chicago,"(43.89417, -92.80775)",4.708528926400327,25427.0,11160_0_no,43.947837139996906,-92.74944250867038,10.0
55944,43.98754,-92.73758,Kasson,MN,Minnesota,True,,7552.0,49.2,27039,Dodge,"{""27039"": 93.76, ""27109"": 6.24}",Dodge|Olmsted,27039|27109,False,False,America/Chicago,"(43.98754, -92.73758)",2.8059172261394023,25427.0,11160_0_no,43.947837139996906,-92.74944250867038,10.0
55955,44.09179,-92.73985,Mantorville,MN,Minnesota,True,,2594.0,29.3,27039,Dodge,"{""27039"": 96.87, ""27109"": 3.13}",Dodge|Olmsted,27039|27109,False,False,America/Chicago,"(44.09179, -92.73985)",9.957607719417434,25427.0,11160_0_no,43.947837139996906,-92.74944250867038,10.0
55973,43.80794,-92.772,Sargeant,MN,Minnesota,True,,217.0,2.8,27099,Mower,"{""27099"": 96.57, ""27039"": 3.43}",Mower|Dodge,27099|27039,False,False,America/Chicago,"(43.80794, -92.772)",9.731040291521984,25427.0,11160_0_no,43.947837139996906,-92.74944250867038,10.0
55982,43.81582,-92.886,Waltham,MN,Minnesota,True,,479.0,6.6,27099,Mower,"{""27099"": 100}",Mower,27099,False,False,America/Chicago,"(43.81582, -92.886)",11.377636155344783,25427.0,11160_0_no,43.947837139996906,-92.74944250867038,10.0
