zip,lat,lng,city,state_id,state_name,zcta,parent_zcta,population,density,county_fips,county_name,county_weights,county_names_all,county_fips_all,imprecise,military,timezone,Coord,distance_miles,market_total_population,market_id,market_center_lat,market_center_lng,radius_miles
56010,43.89112,-94.17869,Amboy,MN,Minnesota,True,,1198.0,5.7,27013,Blue Earth,"{""27013"": 100}",Blue Earth,27013,False,False,America/Chicago,"(43.89112, -94.17869)",9.613331399832136,8071.0,11164_0_no,43.95065100755198,-94.35327944928144,10.0
56034,44.03036,-94.18285,Garden City,MN,Minnesota,True,,431.0,5.9,27013,Blue Earth,"{""27013"": 100}",Blue Earth,27013,False,False,America/Chicago,"(44.03036, -94.18285)",10.104724529267132,8071.0,11164_0_no,43.95065100755198,-94.35327944928144,10.0
56060,43.93221,-94.43691,Lewisville,MN,Minnesota,True,,527.0,5.7,27165,Watonwan,"{""27165"": 94.09, ""27013"": 5.91}",Watonwan|Blue Earth,27165|27013,False,False,America/Chicago,"(43.93221, -94.43691)",4.351401563606558,8071.0,11164_0_no,43.95065100755198,-94.35327944928144,10.0
56062,44.0483,-94.41469,Madelia,MN,Minnesota,True,,3467.0,10.8,27165,Watonwan,"{""27165"": 64.1, ""27013"": 28.76, ""27015"": 7.14}",Watonwan|Blue Earth|Brown,27165|27013|27015,False,False,America/Chicago,"(44.0483, -94.41469)",7.405188088129251,8071.0,11164_0_no,43.95065100755198,-94.35327944928144,10.0
56088,43.82647,-94.45031,Truman,MN,Minnesota,True,,1811.0,5.6,27091,Martin,"{""27091"": 68.34, ""27165"": 23.83, ""27013"": 7.83}",Martin|Watonwan|Blue Earth,27091|27165|27013,False,False,America/Chicago,"(43.82647, -94.45031)",9.846955529243578,8071.0,11164_0_no,43.95065100755198,-94.35327944928144,10.0
56090,43.9584,-94.23303,Vernon Center,MN,Minnesota,True,,637.0,5.7,27013,Blue Earth,"{""27013"": 100}",Blue Earth,27013,False,False,America/Chicago,"(43.9584, -94.23303)",6.005089435160057,8071.0,11164_0_no,43.95065100755198,-94.35327944928144,10.0
