zip,lat,lng,city,state_id,state_name,zcta,parent_zcta,population,density,county_fips,county_name,county_weights,county_names_all,county_fips_all,imprecise,military,timezone,Coord,distance_miles,market_total_population,market_id,market_center_lat,market_center_lng,radius_miles
03575,44.28946,-71.41722,Bretton Woods,NH,New Hampshire,True,,52.0,0.6,33007,Coos,"{""33007"": 100}",Coos,33007,False,False,America/New_York,"(44.28946, -71.41722)",10.553198443260191,10914.0,11254_0_no,44.19930707946983,-71.24511075776495,10.0
03581,44.34227,-71.13413,Gorham,NH,New Hampshire,True,,3190.0,7.9,33007,Coos,"{""33007"": 100}",Coos,33007,False,False,America/New_York,"(44.34227, -71.13413)",11.301260419610635,10914.0,11254_0_no,44.19930707946983,-71.24511075776495,10.0
03593,44.29816,-71.31774,Randolph,NH,New Hampshire,True,,384.0,1.1,33007,Coos,"{""33007"": 100}",Coos,33007,False,False,America/New_York,"(44.29816, -71.31774)",7.718251043036581,10914.0,11254_0_no,44.19930707946983,-71.24511075776495,10.0
03812,44.08148,-71.29643,Bartlett,NH,New Hampshire,True,,485.0,3.2,33003,Carroll,"{""33003"": 100}",Carroll,33003,False,False,America/New_York,"(44.08148, -71.29643)",8.52948615015992,10914.0,11254_0_no,44.19930707946983,-71.24511075776495,10.0
03813,44.09408,-71.04573,Center Conway,NH,New Hampshire,True,,3044.0,12.0,33003,Carroll,"{""33003"": 100}",Carroll,33003,False,False,America/New_York,"(44.09408, -71.04573)",12.270843183960128,10914.0,11254_0_no,44.19930707946983,-71.24511075776495,10.0
03838,44.11257,-71.24036,Glen,NH,New Hampshire,True,,1191.0,20.2,33003,Carroll,"{""33003"": 100}",Carroll,33003,False,False,America/New_York,"(44.11257, -71.24036)",5.997586662311104,10914.0,11254_0_no,44.19930707946983,-71.24511075776495,10.0
03845,44.10317,-71.1271,Intervale,NH,New Hampshire,True,,1213.0,39.8,33003,Carroll,"{""33003"": 100}",Carroll,33003,False,False,America/New_York,"(44.10317, -71.1271)",8.851477247944015,10914.0,11254_0_no,44.19930707946983,-71.24511075776495,10.0
03846,44.18445,-71.18899,Jackson,NH,New Hampshire,True,,979.0,5.7,33003,Carroll,"{""33003"": 100}",Carroll,33003,False,False,America/New_York,"(44.18445, -71.18899)",2.9637121322164353,10914.0,11254_0_no,44.19930707946983,-71.24511075776495,10.0
03847,44.06875,-71.12162,Kearsarge,NH,New Hampshire,True,,376.0,176.9,33003,Carroll,"{""33003"": 100}",Carroll,33003,False,False,America/New_York,"(44.06875, -71.12162)",10.902883252968751,10914.0,11254_0_no,44.19930707946983,-71.24511075776495,10.0
