zip,lat,lng,city,state_id,state_name,zcta,parent_zcta,population,density,county_fips,county_name,county_weights,county_names_all,county_fips_all,imprecise,military,timezone,Coord,distance_miles,market_total_population,market_id,market_center_lat,market_center_lng,radius_miles
13607,44.33233,-75.91187,Alexandria Bay,NY,New York,True,,1445.0,34.1,36045,Jefferson,"{""36045"": 100}",Jefferson,36045,False,False,America/New_York,"(44.33233, -75.91187)",9.917210308987823,9987.0,11279_0_yes,44.35159269435872,-75.71299034644179,10.0
13608,44.23879,-75.62508,Antwerp,NY,New York,True,,1698.0,16.1,36045,Jefferson,"{""36045"": 88.34, ""36089"": 11.66}",Jefferson|St. Lawrence,36045|36089,False,False,America/New_York,"(44.23879, -75.62508)",8.92445600213999,9987.0,11279_0_yes,44.35159269435872,-75.71299034644179,10.0
13623,44.44877,-75.75299,Chippewa Bay,NY,New York,True,,13.0,11.3,36089,St. Lawrence,"{""36089"": 100}",St. Lawrence,36089,False,False,America/New_York,"(44.44877, -75.75299)",6.998642456842653,9987.0,11279_0_yes,44.35159269435872,-75.71299034644179,10.0
13646,44.44144,-75.69379,Hammond,NY,New York,True,,1879.0,6.9,36089,St. Lawrence,"{""36089"": 99.08, ""36045"": 0.92}",St. Lawrence|Jefferson,36089|36045,False,False,America/New_York,"(44.44144, -75.69379)",6.279807875498139,9987.0,11279_0_yes,44.35159269435872,-75.71299034644179,10.0
13675,44.28227,-75.83872,Plessis,NY,New York,True,,250.0,64.5,36045,Jefferson,"{""36045"": 100}",Jefferson,36045,False,False,America/New_York,"(44.28227, -75.83872)",7.846909118532638,9987.0,11279_0_yes,44.35159269435872,-75.71299034644179,10.0
13679,44.32664,-75.76554,Redwood,NY,New York,True,,1686.0,10.7,36045,Jefferson,"{""36045"": 76.09, ""36089"": 23.91}",Jefferson|St. Lawrence,36045|36089,False,False,America/New_York,"(44.32664, -75.76554)",3.1170394890259083,9987.0,11279_0_yes,44.35159269435872,-75.71299034644179,10.0
13691,44.22747,-75.78208,Theresa,NY,New York,True,,3016.0,16.4,36045,Jefferson,"{""36045"": 98.51, ""36089"": 1.49}",Jefferson|St. Lawrence,36045|36089,False,False,America/New_York,"(44.22747, -75.78208)",9.23174788588618,9987.0,11279_0_yes,44.35159269435872,-75.71299034644179,10.0
