zip,lat,lng,city,state_id,state_name,zcta,parent_zcta,population,density,county_fips,county_name,county_weights,county_names_all,county_fips_all,imprecise,military,timezone,Coord,distance_miles,market_total_population,market_id,market_center_lat,market_center_lng,radius_miles
57050,44.15725,-97.01467,Nunda,SD,South Dakota,True,,315.0,3.0,46079,Lake,"{""46079"": 100}",Lake,46079,False,False,America/Chicago,"(44.15725, -97.01467)",6.066530721721895,5951.0,11318_0_no,44.24475702277249,-97.0246984981306,10.0
57057,44.10261,-96.95717,Rutland,SD,South Dakota,True,,324.0,3.9,46079,Lake,"{""46079"": 93.98, ""46101"": 6.02}",Lake|Moody,46079|46101,False,False,America/Chicago,"(44.10261, -96.95717)",10.375884756478591,5951.0,11318_0_no,44.24475702277249,-97.0246984981306,10.0
57061,44.24452,-97.04399,Sinai,SD,South Dakota,True,,144.0,151.2,46011,Brookings,"{""46011"": 100}",Brookings,46011,False,False,America/Chicago,"(44.24452, -97.04399)",0.9549976491300891,5951.0,11318_0_no,44.24475702277249,-97.0246984981306,10.0
57071,44.26986,-96.95934,Volga,SD,South Dakota,True,,3030.0,9.8,46011,Brookings,"{""46011"": 92.04, ""46079"": 6.38, ""46101"": 1.58}",Brookings|Lake|Moody,46011|46079|46101,False,False,America/Chicago,"(44.26986, -96.95934)",3.6700194804016792,5951.0,11318_0_no,44.24475702277249,-97.0246984981306,10.0
57212,44.38111,-97.14344,Arlington,SD,South Dakota,True,,2138.0,3.6,46077,Kingsbury,"{""46077"": 53.94, ""46011"": 41.72, ""46057"": 3.54, ""46079"": 0.8}",Kingsbury|Brookings|Hamlin|Lake,46077|46011|46057|46079,False,False,America/Chicago,"(44.38111, -97.14344)",11.10040161701972,5951.0,11318_0_no,44.24475702277249,-97.0246984981306,10.0
