zip,lat,lng,city,state_id,state_name,zcta,parent_zcta,population,density,county_fips,county_name,county_weights,county_names_all,county_fips_all,imprecise,military,timezone,Coord,distance_miles,market_total_population,market_id,market_center_lat,market_center_lng,radius_miles
54759,44.48936,-92.1232,Pepin,WI,Wisconsin,True,,1437.0,10.9,55091,Pepin,"{""55091"": 100}",Pepin,55091,False,False,America/Chicago,"(44.48936, -92.1232)",10.37261389283291,12362.0,11320_0_yes,44.380855041288434,-92.26849911921632,10.0
54769,44.50897,-92.23304,Stockholm,WI,Wisconsin,True,,539.0,6.4,55091,Pepin,"{""55091"": 79.65, ""55093"": 20.35}",Pepin|Pierce,55091|55093,False,False,America/Chicago,"(44.50897, -92.23304)",9.023054721338314,12362.0,11320_0_yes,44.380855041288434,-92.26849911921632,10.0
55026,44.52179,-92.3369,Frontenac,MN,Minnesota,True,,426.0,45.9,27049,Goodhue,"{""27049"": 100}",Goodhue,27049,False,False,America/Chicago,"(44.52179, -92.3369)",10.305532873524594,12362.0,11320_0_yes,44.380855041288434,-92.26849911921632,10.0
55041,44.39544,-92.31923,Lake City,MN,Minnesota,True,,7498.0,20.1,27157,Wabasha,"{""27157"": 83.44, ""27049"": 16.56}",Wabasha|Goodhue,27157|27049,False,False,America/Chicago,"(44.39544, -92.31923)",2.6999647417240684,12362.0,11320_0_yes,44.380855041288434,-92.26849911921632,10.0
55957,44.25494,-92.28373,Millville,MN,Minnesota,True,,794.0,7.5,27157,Wabasha,"{""27157"": 100}",Wabasha,27157,False,False,America/Chicago,"(44.25494, -92.28373)",8.732421102590278,12362.0,11320_0_yes,44.380855041288434,-92.26849911921632,10.0
55968,44.39793,-92.0898,Reads Landing,MN,Minnesota,True,,122.0,29.4,27157,Wabasha,"{""27157"": 100}",Wabasha,27157,False,False,America/Chicago,"(44.39793, -92.0898)",8.901669248116326,12362.0,11320_0_yes,44.380855041288434,-92.26849911921632,10.0
55991,44.25903,-92.41986,Zumbro Falls,MN,Minnesota,True,,1546.0,11.0,27157,Wabasha,"{""27157"": 99.1, ""27109"": 0.9}",Wabasha|Olmsted,27157|27109,False,False,America/Chicago,"(44.25903, -92.41986)",11.262074396261818,12362.0,11320_0_yes,44.380855041288434,-92.26849911921632,10.0
