zip,lat,lng,city,state_id,state_name,zcta,parent_zcta,population,density,county_fips,county_name,county_weights,county_names_all,county_fips_all,imprecise,military,timezone,Coord,distance_miles,market_total_population,market_id,market_center_lat,market_center_lng,radius_miles
04438,44.59856,-68.91904,Frankfort,ME,Maine,True,,1211.0,19.0,23027,Waldo,"{""23027"": 100}",Waldo,23027,False,False,America/New_York,"(44.59856, -68.91904)",3.5761609208587055,26825.0,11409_0_yes,44.62883720386837,-68.97801069791376,10.0
04444,44.72591,-68.94585,Hampden,ME,Maine,True,,8994.0,50.3,23019,Penobscot,"{""23019"": 100}",Penobscot,23019,False,False,America/New_York,"(44.72591, -68.94585)",6.890698301937094,26825.0,11409_0_yes,44.62883720386837,-68.97801069791376,10.0
04474,44.71501,-68.77901,Orrington,ME,Maine,True,,3674.0,56.8,23019,Penobscot,"{""23019"": 100}",Penobscot,23019,False,False,America/New_York,"(44.71501, -68.77901)",11.448076346639159,26825.0,11409_0_yes,44.62883720386837,-68.97801069791376,10.0
04496,44.65839,-68.91189,Winterport,ME,Maine,True,,3985.0,43.3,23027,Waldo,"{""23027"": 100}",Waldo,23027,False,False,America/New_York,"(44.65839, -68.91189)",3.8385943855996,26825.0,11409_0_yes,44.62883720386837,-68.97801069791376,10.0
04921,44.57256,-69.13326,Brooks,ME,Maine,True,,1509.0,11.7,23027,Waldo,"{""23027"": 100}",Waldo,23027,False,False,America/New_York,"(44.57256, -69.13326)",8.570440780604391,26825.0,11409_0_yes,44.62883720386837,-68.97801069791376,10.0
04932,44.6957,-69.13335,Dixmont,ME,Maine,True,,1289.0,13.7,23019,Penobscot,"{""23019"": 100}",Penobscot,23019,False,False,America/New_York,"(44.6957, -69.13335)",8.922956194290721,26825.0,11409_0_yes,44.62883720386837,-68.97801069791376,10.0
04951,44.60716,-69.04575,Monroe,ME,Maine,True,,1082.0,10.7,23027,Waldo,"{""23027"": 100}",Waldo,23027,False,False,America/New_York,"(44.60716, -69.04575)",3.6526833467263238,26825.0,11409_0_yes,44.62883720386837,-68.97801069791376,10.0
04974,44.4893,-68.92996,Searsport,ME,Maine,True,,2575.0,34.7,23027,Waldo,"{""23027"": 100}",Waldo,23027,False,False,America/New_York,"(44.4893, -68.92996)",9.92707531155679,26825.0,11409_0_yes,44.62883720386837,-68.97801069791376,10.0
04981,44.53228,-68.85941,Stockton Springs,ME,Maine,True,,2506.0,25.6,23027,Waldo,"{""23027"": 100}",Waldo,23027,False,False,America/New_York,"(44.53228, -68.85941)",8.864262306305397,26825.0,11409_0_yes,44.62883720386837,-68.97801069791376,10.0
