zip,lat,lng,city,state_id,state_name,zcta,parent_zcta,population,density,county_fips,county_name,county_weights,county_names_all,county_fips_all,imprecise,military,timezone,Coord,distance_miles,market_total_population,market_id,market_center_lat,market_center_lng,radius_miles
04917,44.48959,-69.84167,Belgrade,ME,Maine,True,,2840.0,25.7,23011,Kennebec,"{""23011"": 100}",Kennebec,23011,False,False,America/New_York,"(44.48959, -69.84167)",10.05745570538774,22031.0,11411_0_yes,44.63027773019552,-69.78923941569978,10.0
04918,44.55027,-69.86651,Belgrade Lakes,ME,Maine,True,,308.0,197.3,23011,Kennebec,"{""23011"": 100}",Kennebec,23011,False,False,America/New_York,"(44.55027, -69.86651)",6.709288366252794,22031.0,11411_0_yes,44.63027773019552,-69.78923941569978,10.0
04937,44.63546,-69.67635,Fairfield,ME,Maine,True,,6473.0,48.1,23025,Somerset,"{""23025"": 100}",Somerset,23025,False,False,America/New_York,"(44.63546, -69.67635)",5.562136917622291,22031.0,11411_0_yes,44.63027773019552,-69.78923941569978,10.0
04944,44.68737,-69.64237,Hinckley,ME,Maine,True,,55.0,12.3,23025,Somerset,"{""23025"": 100}",Somerset,23025,False,False,America/New_York,"(44.68737, -69.64237)",8.225679863391166,22031.0,11411_0_yes,44.63027773019552,-69.78923941569978,10.0
04957,44.70419,-69.8471,Norridgewock,ME,Maine,True,,4153.0,20.9,23025,Somerset,"{""23025"": 100}",Somerset,23025,False,False,America/New_York,"(44.70419, -69.8471)",5.844988661565268,22031.0,11411_0_yes,44.63027773019552,-69.78923941569978,10.0
04963,44.56621,-69.81463,Oakland,ME,Maine,True,,7311.0,55.3,23011,Kennebec,"{""23011"": 100}",Kennebec,23011,False,False,America/New_York,"(44.56621, -69.81463)",4.5995334584554275,22031.0,11411_0_yes,44.63027773019552,-69.78923941569978,10.0
04975,44.62549,-69.58837,Shawmut,ME,Maine,True,,29.0,205.1,23025,Somerset,"{""23025"": 100}",Somerset,23025,False,False,America/New_York,"(44.62549, -69.58837)",9.882826473231646,22031.0,11411_0_yes,44.63027773019552,-69.78923941569978,10.0
04978,44.63466,-69.80789,Smithfield,ME,Maine,True,,862.0,16.7,23025,Somerset,"{""23025"": 100}",Somerset,23025,False,False,America/New_York,"(44.63466, -69.80789)",0.9657215264494365,22031.0,11411_0_yes,44.63027773019552,-69.78923941569978,10.0
