zip,lat,lng,city,state_id,state_name,zcta,parent_zcta,population,density,county_fips,county_name,county_weights,county_names_all,county_fips_all,imprecise,military,timezone,Coord,distance_miles,market_total_population,market_id,market_center_lat,market_center_lng,radius_miles
49614,44.43886,-86.10879,Bear Lake,MI,Michigan,True,,3014.0,12.7,26101,Manistee,"{""26101"": 100}",Manistee,26101,False,False,America/Detroit,"(44.43886, -86.10879)",9.196558390026569,20548.0,11437_0_no,44.514542364660784,-85.95533894826414,10.0
49616,44.57491,-86.08448,Benzonia,MI,Michigan,True,,2193.0,23.4,26019,Benzie,"{""26019"": 100}",Benzie,26019,False,False,America/Detroit,"(44.57491, -86.08448)",7.605131734441415,20548.0,11437_0_no,44.514542364660784,-85.95533894826414,10.0
49617,44.64105,-86.03505,Beulah,MI,Michigan,True,,3360.0,28.6,26019,Benzie,"{""26019"": 100}",Benzie,26019,False,False,America/Detroit,"(44.64105, -86.03505)",9.580823731934743,20548.0,11437_0_no,44.514542364660784,-85.95533894826414,10.0
49625,44.42785,-85.87348,Copemish,MI,Michigan,True,,1198.0,6.1,26101,Manistee,"{""26101"": 91.76, ""26165"": 8.24}",Manistee|Wexford,26101|26165,False,False,America/Detroit,"(44.42785, -85.87348)",7.222773812755265,20548.0,11437_0_no,44.514542364660784,-85.95533894826414,10.0
49643,44.63959,-85.83357,Interlochen,MI,Michigan,True,,7066.0,45.8,26019,Benzie,"{""26019"": 57.45, ""26055"": 42.55}",Benzie|Grand Traverse,26019|26055,False,False,America/Detroit,"(44.63959, -85.83357)",10.514961537819827,20548.0,11437_0_no,44.514542364660784,-85.95533894826414,10.0
49645,44.37157,-86.02411,Kaleva,MI,Michigan,True,,1617.0,14.1,26101,Manistee,"{""26101"": 100}",Manistee,26101,False,False,America/Detroit,"(44.37157, -86.02411)",10.444719999246571,20548.0,11437_0_no,44.514542364660784,-85.95533894826414,10.0
49683,44.53948,-85.93009,Thompsonville,MI,Michigan,True,,2100.0,9.4,26019,Benzie,"{""26019"": 70.7, ""26101"": 22.66, ""26055"": 5.38, ""26165"": 1.26}",Benzie|Manistee|Grand Traverse|Wexford,26019|26101|26055|26165,False,False,America/Detroit,"(44.53948, -85.93009)",2.1250049884154962,20548.0,11437_0_no,44.514542364660784,-85.95533894826414,10.0
