zip,lat,lng,city,state_id,state_name,zcta,parent_zcta,population,density,county_fips,county_name,county_weights,county_names_all,county_fips_all,imprecise,military,timezone,Coord,distance_miles,market_total_population,market_id,market_center_lat,market_center_lng,radius_miles
54423,44.58049,-89.41642,Custer,WI,Wisconsin,True,,2422.0,19.3,55097,Portage,"{""55097"": 100}",Portage,55097,False,False,America/Chicago,"(44.58049, -89.41642)",9.879697225584179,58838.0,11446_0_no,44.52099965407266,-89.59888171870593,10.0
54443,44.61243,-89.75264,Junction City,WI,Wisconsin,True,,2156.0,9.3,55097,Portage,"{""55097"": 99.1, ""55141"": 0.8, ""55073"": 0.1}",Portage|Wood|Marathon,55097|55141|55073,False,False,America/Chicago,"(44.61243, -89.75264)",9.858610702742736,58838.0,11446_0_no,44.52099965407266,-89.59888171870593,10.0
54467,44.41575,-89.54062,Plover,WI,Wisconsin,True,,13893.0,80.8,55097,Portage,"{""55097"": 100}",Portage,55097,False,False,America/Chicago,"(44.41575, -89.54062)",7.818919573517031,58838.0,11446_0_no,44.52099965407266,-89.59888171870593,10.0
54475,44.48204,-89.78825,Rudolph,WI,Wisconsin,True,,1484.0,15.4,55141,Wood,"{""55141"": 82.39, ""55097"": 17.61}",Wood|Portage,55141|55097,False,False,America/Chicago,"(44.48204, -89.78825)",9.712477981421502,58838.0,11446_0_no,44.52099965407266,-89.59888171870593,10.0
54481,44.51935,-89.63678,Stevens Point,WI,Wisconsin,True,,28166.0,165.9,55097,Portage,"{""55097"": 100}",Portage,55097,False,False,America/Chicago,"(44.51935, -89.63678)",1.8704914593602302,58838.0,11446_0_no,44.52099965407266,-89.59888171870593,10.0
54482,44.55174,-89.5092,Stevens Point,WI,Wisconsin,True,,10717.0,45.5,55097,Portage,"{""55097"": 100}",Portage,55097,False,False,America/Chicago,"(44.55174, -89.5092)",4.900984729544431,58838.0,11446_0_no,44.52099965407266,-89.59888171870593,10.0
