zip,lat,lng,city,state_id,state_name,zcta,parent_zcta,population,density,county_fips,county_name,county_weights,county_names_all,county_fips_all,imprecise,military,timezone,Coord,distance_miles,market_total_population,market_id,market_center_lat,market_center_lng,radius_miles
55009,44.48378,-92.86686,Cannon Falls,MN,Minnesota,True,,8017.0,25.3,27049,Goodhue,"{""27049"": 81.65, ""27037"": 18.35}",Goodhue|Dakota,27049|27037,False,False,America/Chicago,"(44.48378, -92.86686)",3.2930003686672626,13576.0,11454_0_no,44.52674068098926,-92.83792430349014,10.0
55018,44.41832,-92.98822,Dennison,MN,Minnesota,True,,839.0,7.3,27049,Goodhue,"{""27049"": 91.16, ""27131"": 8.84}",Goodhue|Rice,27049|27131,False,False,America/Chicago,"(44.41832, -92.98822)",10.536999712557927,13576.0,11454_0_no,44.52674068098926,-92.83792430349014,10.0
55031,44.60772,-92.96647,Hampton,MN,Minnesota,True,,1848.0,17.5,27037,Dakota,"{""27037"": 100}",Dakota,27037,False,False,America/Chicago,"(44.60772, -92.96647)",8.446496302220527,13576.0,11454_0_no,44.52674068098926,-92.83792430349014,10.0
55065,44.54662,-93.01835,Randolph,MN,Minnesota,True,,1328.0,15.7,27037,Dakota,"{""27037"": 98.36, ""27049"": 1.64}",Dakota|Goodhue,27037|27049,False,False,America/Chicago,"(44.54662, -93.01835)",8.991474216260539,13576.0,11454_0_no,44.52674068098926,-92.83792430349014,10.0
55089,44.59296,-92.70223,Welch,MN,Minnesota,True,,1544.0,8.9,27049,Goodhue,"{""27049"": 97.24, ""27037"": 2.76}",Goodhue|Dakota,27049|27037,False,False,America/Chicago,"(44.59296, -92.70223)",8.096884337133192,13576.0,11454_0_no,44.52674068098926,-92.83792430349014,10.0
