zip,lat,lng,city,state_id,state_name,zcta,parent_zcta,population,density,county_fips,county_name,county_weights,county_names_all,county_fips_all,imprecise,military,timezone,Coord,distance_miles,market_total_population,market_id,market_center_lat,market_center_lng,radius_miles
54486,44.72595,-89.05124,Tigerton,WI,Wisconsin,True,,1851.0,5.8,55115,Shawano,"{""55115"": 81.22, ""55135"": 18.78}",Shawano|Waupaca,55115|55135,False,False,America/Chicago,"(44.72595, -89.05124)",10.367252605919706,15484.0,11458_0_yes,44.664150829332506,-88.85889632803419,10.0
54922,44.54281,-88.74529,Bear Creek,WI,Wisconsin,True,,1195.0,10.0,55087,Outagamie,"{""55087"": 54.8, ""55135"": 45.2}",Outagamie|Waupaca,55087|55135,False,False,America/Chicago,"(44.54281, -88.74529)",10.075825305011408,15484.0,11458_0_yes,44.664150829332506,-88.85889632803419,10.0
54928,44.73894,-88.88546,Caroline,WI,Wisconsin,True,,541.0,18.9,55115,Shawano,"{""55115"": 100}",Shawano,55115,False,False,America/Chicago,"(44.73894, -88.88546)",5.329566341241043,15484.0,11458_0_yes,44.664150829332506,-88.85889632803419,10.0
54929,44.63704,-88.7372,Clintonville,WI,Wisconsin,True,,8511.0,26.9,55135,Waupaca,"{""55135"": 72.29, ""55115"": 25.81, ""55087"": 1.9}",Waupaca|Shawano|Outagamie,55135|55115|55087,False,False,America/Chicago,"(44.63704, -88.7372)",6.26822649660846,15484.0,11458_0_yes,44.664150829332506,-88.85889632803419,10.0
54933,44.66535,-88.70966,Embarrass,WI,Wisconsin,True,,353.0,191.7,55135,Waupaca,"{""55135"": 100}",Waupaca,55135,False,False,America/Chicago,"(44.66535, -88.70966)",7.3341574908646185,15484.0,11458_0_yes,44.664150829332506,-88.85889632803419,10.0
54948,44.7774,-88.88823,Leopolis,WI,Wisconsin,True,,207.0,7.7,55115,Shawano,"{""55115"": 100}",Shawano,55115,False,False,America/Chicago,"(44.7774, -88.88823)",7.956190318010478,15484.0,11458_0_yes,44.664150829332506,-88.85889632803419,10.0
54950,44.65408,-88.90614,Marion,WI,Wisconsin,True,,2826.0,13.3,55135,Waupaca,"{""55135"": 67.7, ""55115"": 32.3}",Waupaca|Shawano,55135|55115,False,False,America/Chicago,"(44.65408, -88.90614)",2.423872297407436,15484.0,11458_0_yes,44.664150829332506,-88.85889632803419,10.0
