zip,lat,lng,city,state_id,state_name,zcta,parent_zcta,population,density,county_fips,county_name,county_weights,county_names_all,county_fips_all,imprecise,military,timezone,Coord,distance_miles,market_total_population,market_id,market_center_lat,market_center_lng,radius_miles
54721,44.6304,-92.07098,Arkansaw,WI,Wisconsin,True,,1425.0,8.4,55091,Pepin,"{""55091"": 85.86, ""55033"": 11.9, ""55093"": 2.24}",Pepin|Dunn|Pierce,55091|55033|55093,False,False,America/Chicago,"(44.6304, -92.07098)",3.2253097039780667,10504.0,11466_0_yes,44.6699204276267,-92.10590138140743,10.0
54736,44.60345,-91.90455,Durand,WI,Wisconsin,True,,4193.0,12.6,55091,Pepin,"{""55091"": 50.29, ""55011"": 44.79, ""55033"": 4.92}",Pepin|Buffalo|Dunn,55091|55011|55033,False,False,America/Chicago,"(44.60345, -91.90455)",10.912946627217101,10504.0,11466_0_yes,44.6699204276267,-92.10590138140743,10.0
54737,44.71593,-91.98298,Eau Galle,WI,Wisconsin,True,,679.0,12.4,55033,Dunn,"{""55033"": 94.83, ""55091"": 5.17}",Dunn|Pepin,55033|55091,False,False,America/Chicago,"(44.71593, -91.98298)",6.823369166767905,10504.0,11466_0_yes,44.6699204276267,-92.10590138140743,10.0
54740,44.74427,-92.15853,Elmwood,WI,Wisconsin,True,,1964.0,9.1,55093,Pierce,"{""55093"": 57.61, ""55033"": 42.39}",Pierce|Dunn,55093|55033,False,False,America/Chicago,"(44.74427, -92.15853)",5.7505083630303435,10504.0,11466_0_yes,44.6699204276267,-92.10590138140743,10.0
54750,44.62052,-92.29513,Maiden Rock,WI,Wisconsin,True,,936.0,5.5,55093,Pierce,"{""55093"": 100}",Pierce,55093,False,False,America/Chicago,"(44.62052, -92.29513)",9.908545940376555,10504.0,11466_0_yes,44.6699204276267,-92.10590138140743,10.0
54761,44.62667,-92.17908,Plum City,WI,Wisconsin,True,,1307.0,12.5,55093,Pierce,"{""55093"": 100}",Pierce,55093,False,False,America/Chicago,"(44.62667, -92.17908)",4.6764684772247085,10504.0,11466_0_yes,44.6699204276267,-92.10590138140743,10.0
