zip,lat,lng,city,state_id,state_name,zcta,parent_zcta,population,density,county_fips,county_name,county_weights,county_names_all,county_fips_all,imprecise,military,timezone,Coord,distance_miles,market_total_population,market_id,market_center_lat,market_center_lng,radius_miles
57221,44.60654,-97.44853,Bryant,SD,South Dakota,True,,973.0,3.2,46057,Hamlin,"{""46057"": 73.24, ""46025"": 26.76}",Hamlin|Clark,46057|46025,False,False,America/Chicago,"(44.60654, -97.44853)",5.971494468665725,3847.0,11479_0_yes,44.67929848735612,-97.38297179366586,10.0
57241,44.69742,-97.21747,Hayti,SD,South Dakota,True,,1012.0,3.8,46057,Hamlin,"{""46057"": 100}",Hamlin,46057,False,False,America/Chicago,"(44.69742, -97.21747)",8.225537731410336,3847.0,11479_0_yes,44.67929848735612,-97.38297179366586,10.0
57242,44.77352,-97.35902,Hazel,SD,South Dakota,True,,482.0,2.1,46057,Hamlin,"{""46057"": 79.66, ""46029"": 20.34}",Hamlin|Codington,46057|46029,False,False,America/Chicago,"(44.77352, -97.35902)",6.615411362320749,3847.0,11479_0_yes,44.67929848735612,-97.38297179366586,10.0
57248,44.58063,-97.19328,Lake Norden,SD,South Dakota,True,,1101.0,6.3,46057,Hamlin,"{""46057"": 83.26, ""46077"": 16.74}",Hamlin|Kingsbury,46057|46077,False,False,America/Chicago,"(44.58063, -97.19328)",11.553137988951502,3847.0,11479_0_yes,44.67929848735612,-97.38297179366586,10.0
57271,44.75179,-97.55161,Vienna,SD,South Dakota,True,,279.0,1.7,46025,Clark,"{""46025"": 83.01, ""46057"": 16.99}",Clark|Hamlin,46025|46057,False,False,America/Chicago,"(44.75179, -97.55161)",9.676931515755983,3847.0,11479_0_yes,44.67929848735612,-97.38297179366586,10.0
