zip,lat,lng,city,state_id,state_name,zcta,parent_zcta,population,density,county_fips,county_name,county_weights,county_names_all,county_fips_all,imprecise,military,timezone,Coord,distance_miles,market_total_population,market_id,market_center_lat,market_center_lng,radius_miles
12910,44.8546,-73.64593,Altona,NY,New York,True,,2190.0,13.0,36019,Clinton,"{""36019"": 100}",Clinton,36019,False,False,America/New_York,"(44.8546, -73.64593)",5.671211603105628,14889.0,11566_0_yes,44.92619973304233,-73.58928154914103,10.0
12919,44.96793,-73.45072,Champlain,NY,New York,True,,2805.0,28.9,36019,Clinton,"{""36019"": 100}",Clinton,36019,False,False,America/New_York,"(44.96793, -73.45072)",7.36381590995293,14889.0,11566_0_yes,44.92619973304233,-73.58928154914103,10.0
12921,44.89188,-73.43574,Chazy,NY,New York,True,,2835.0,34.5,36019,Clinton,"{""36019"": 100}",Clinton,36019,False,False,America/New_York,"(44.89188, -73.43574)",7.8787008832636,14889.0,11566_0_yes,44.92619973304233,-73.58928154914103,10.0
12958,44.95661,-73.57419,Mooers,NY,New York,True,,2020.0,22.0,36019,Clinton,"{""36019"": 100}",Clinton,36019,False,False,America/New_York,"(44.95661, -73.57419)",2.2270114160596415,14889.0,11566_0_yes,44.92619973304233,-73.58928154914103,10.0
12959,44.96073,-73.7014,Mooers Forks,NY,New York,True,,1474.0,13.4,36019,Clinton,"{""36019"": 100}",Clinton,36019,False,False,America/New_York,"(44.96073, -73.7014)",5.97968105039119,14889.0,11566_0_yes,44.92619973304233,-73.58928154914103,10.0
12992,44.81822,-73.51582,West Chazy,NY,New York,True,,3565.0,20.9,36019,Clinton,"{""36019"": 100}",Clinton,36019,False,False,America/New_York,"(44.81822, -73.51582)",8.28255621243854,14889.0,11566_0_yes,44.92619973304233,-73.58928154914103,10.0
