zip,lat,lng,city,state_id,state_name,zcta,parent_zcta,population,density,county_fips,county_name,county_weights,county_names_all,county_fips_all,imprecise,military,timezone,Coord,distance_miles,market_total_population,market_id,market_center_lat,market_center_lng,radius_miles
54427,44.82401,-89.25789,Eland,WI,Wisconsin,True,,1298.0,11.3,55073,Marathon,"{""55073"": 76.02, ""55115"": 23.98}",Marathon|Shawano,55073|55115,False,False,America/Chicago,"(44.82401, -89.25789)",8.147816692659598,28933.0,11591_0_no,44.81001142270563,-89.42295512447438,10.0
54440,44.80621,-89.38838,Hatley,WI,Wisconsin,True,,2844.0,13.3,55073,Marathon,"{""55073"": 100}",Marathon,55073,False,False,America/Chicago,"(44.80621, -89.38838)",1.7150957900568282,28933.0,11591_0_no,44.81001142270563,-89.42295512447438,10.0
54471,44.93361,-89.41914,Ringle,WI,Wisconsin,True,,1786.0,15.4,55073,Marathon,"{""55073"": 100}",Marathon,55073,False,False,America/Chicago,"(44.93361, -89.41914)",8.5418912806094,28933.0,11591_0_no,44.81001142270563,-89.42295512447438,10.0
54474,44.87395,-89.62223,Rothschild,WI,Wisconsin,True,,4004.0,308.2,55073,Marathon,"{""55073"": 100}",Marathon,55073,False,False,America/Chicago,"(44.87395, -89.62223)",10.715692240929775,28933.0,11591_0_no,44.81001142270563,-89.42295512447438,10.0
54476,44.88816,-89.52389,Schofield,WI,Wisconsin,True,,19001.0,174.6,55073,Marathon,"{""55073"": 100}",Marathon,55073,False,False,America/Chicago,"(44.88816, -89.52389)",7.321279993118488,28933.0,11591_0_no,44.81001142270563,-89.42295512447438,10.0
