zip,lat,lng,city,state_id,state_name,zcta,parent_zcta,population,density,county_fips,county_name,county_weights,county_names_all,county_fips_all,imprecise,military,timezone,Coord,distance_miles,market_total_population,market_id,market_center_lat,market_center_lng,radius_miles
57238,44.87287,-96.86231,Goodwin,SD,South Dakota,True,,517.0,2.7,46039,Deuel,"{""46039"": 64.03, ""46029"": 31.23, ""46057"": 4.74}",Deuel|Codington|Hamlin,46039|46029|46057,False,False,America/Chicago,"(44.87287, -96.86231)",6.674706025106743,1383.0,11623_0_yes,44.967709043099326,-96.8363497809718,10.0
57245,44.89365,-96.91835,Kranzburg,SD,South Dakota,True,,182.0,282.8,46029,Codington,"{""46029"": 100}",Codington,46029,False,False,America/Chicago,"(44.89365, -96.91835)",6.501721151602381,1383.0,11623_0_yes,44.967709043099326,-96.8363497809718,10.0
57246,45.05639,-96.66914,Labolt,SD,South Dakota,True,,210.0,2.7,46051,Grant,"{""46051"": 100}",Grant,46051,False,False,America/Chicago,"(45.05639, -96.66914)",10.210401761653936,1383.0,11623_0_yes,44.967709043099326,-96.8363497809718,10.0
57264,45.10863,-96.80254,Stockholm,SD,South Dakota,True,,282.0,2.5,46051,Grant,"{""46051"": 100}",Grant,46051,False,False,America/Chicago,"(45.10863, -96.80254)",9.875647858073451,1383.0,11623_0_yes,44.967709043099326,-96.8363497809718,10.0
57265,44.98866,-96.79591,Strandburg,SD,South Dakota,True,,192.0,0.9,46051,Grant,"{""46051"": 58.57, ""46039"": 38.01, ""46029"": 3.42}",Grant|Deuel|Codington,46051|46039|46029,False,False,America/Chicago,"(44.98866, -96.79591)",2.4498982697876284,1383.0,11623_0_yes,44.967709043099326,-96.8363497809718,10.0
