zip,lat,lng,city,state_id,state_name,zcta,parent_zcta,population,density,county_fips,county_name,county_weights,county_names_all,county_fips_all,imprecise,military,timezone,Coord,distance_miles,market_total_population,market_id,market_center_lat,market_center_lng,radius_miles
55301,45.24448,-93.66219,Albertville,MN,Minnesota,True,,13708.0,647.4,27171,Wright,"{""27171"": 100}",Wright,27171,False,False,America/Chicago,"(45.24448, -93.66219)",7.852198483593081,103968.0,11760_0_yes,45.25166907235774,-93.8232870206264,10.0
55309,45.37758,-93.74107,Big Lake,MN,Minnesota,True,,19733.0,122.3,27141,Sherburne,"{""27141"": 100}",Sherburne,27141,False,False,America/Chicago,"(45.37758, -93.74107)",9.572931766179066,103968.0,11760_0_yes,45.25166907235774,-93.8232870206264,10.0
55313,45.17382,-93.84859,Buffalo,MN,Minnesota,True,,25150.0,90.1,27171,Wright,"{""27171"": 99.9, ""27053"": 0.1}",Wright|Hennepin,27171|27053,False,False,America/Chicago,"(45.17382, -93.84859)",5.518060593275034,103968.0,11760_0_yes,45.25166907235774,-93.8232870206264,10.0
55341,45.15917,-93.65913,Hanover,MN,Minnesota,True,,3300.0,262.7,27171,Wright,"{""27171"": 57.56, ""27053"": 42.44}",Wright|Hennepin,27171|27053,False,False,America/Chicago,"(45.15917, -93.65913)",10.232642749568209,103968.0,11760_0_yes,45.25166907235774,-93.8232870206264,10.0
55358,45.24637,-94.00049,Maple Lake,MN,Minnesota,True,,5031.0,35.6,27171,Wright,"{""27171"": 100}",Wright,27171,False,False,America/Chicago,"(45.24637, -94.00049)",8.627565672980195,103968.0,11760_0_yes,45.25166907235774,-93.8232870206264,10.0
55362,45.30099,-93.83563,Monticello,MN,Minnesota,True,,19253.0,113.9,27171,Wright,"{""27171"": 100}",Wright,27171,False,False,America/Chicago,"(45.30099, -93.83563)",3.460189666859299,103968.0,11760_0_yes,45.25166907235774,-93.8232870206264,10.0
55376,45.21161,-93.68508,Saint Michael,MN,Minnesota,True,,17793.0,234.9,27171,Wright,"{""27171"": 100}",Wright,27171,False,False,America/Chicago,"(45.21161, -93.68508)",7.272256434607714,103968.0,11760_0_yes,45.25166907235774,-93.8232870206264,10.0
