zip,lat,lng,city,state_id,state_name,zcta,parent_zcta,population,density,county_fips,county_name,county_weights,county_names_all,county_fips_all,imprecise,military,timezone,Coord,distance_miles,market_total_population,market_id,market_center_lat,market_center_lng,radius_miles
54001,45.33417,-92.38703,Amery,WI,Wisconsin,True,,7648.0,25.0,55095,Polk,"{""55095"": 100}",Polk,55095,False,False,America/Chicago,"(45.33417, -92.38703)",4.477234402171489,17473.0,11887_0_no,45.39388799339231,-92.35122750245029,10.0
54810,45.46126,-92.38403,Balsam Lake,WI,Wisconsin,True,,2625.0,21.8,55095,Polk,"{""55095"": 100}",Polk,55095,False,False,America/Chicago,"(45.46126, -92.38403)",4.919218274624167,17473.0,11887_0_no,45.39388799339231,-92.35122750245029,10.0
54824,45.4753,-92.54017,Centuria,WI,Wisconsin,True,,2326.0,23.1,55095,Polk,"{""55095"": 100}",Polk,55095,False,False,America/Chicago,"(45.4753, -92.54017)",10.749913827119183,17473.0,11887_0_no,45.39388799339231,-92.35122750245029,10.0
54826,45.49971,-92.16422,Comstock,WI,Wisconsin,True,,675.0,5.6,55095,Polk,"{""55095"": 54.99, ""55005"": 45.01}",Polk|Barron,55095|55005,False,False,America/Chicago,"(45.49971, -92.16422)",11.64618085104271,17473.0,11887_0_no,45.39388799339231,-92.35122750245029,10.0
54858,45.51824,-92.46031,Milltown,WI,Wisconsin,True,,1685.0,37.0,55095,Polk,"{""55095"": 100}",Polk,55095,False,False,America/Chicago,"(45.51824, -92.46031)",10.088159029819181,17473.0,11887_0_no,45.39388799339231,-92.35122750245029,10.0
54889,45.41374,-92.17112,Turtle Lake,WI,Wisconsin,True,,2514.0,13.2,55095,Polk,"{""55095"": 55.03, ""55005"": 44.97}",Polk|Barron,55095|55005,False,False,America/Chicago,"(45.41374, -92.17112)",8.844182815223059,17473.0,11887_0_no,45.39388799339231,-92.35122750245029,10.0
