zip,lat,lng,city,state_id,state_name,zcta,parent_zcta,population,density,county_fips,county_name,county_weights,county_names_all,county_fips_all,imprecise,military,timezone,Coord,distance_miles,market_total_population,market_id,market_center_lat,market_center_lng,radius_miles
54004,45.30699,-92.12414,Clayton,WI,Wisconsin,True,,2317.0,11.5,55005,Barron,"{""55005"": 66.73, ""55095"": 33.27}",Barron|Polk,55005|55095,False,False,America/Chicago,"(45.30699, -92.12414)",10.734252729336019,11856.0,11886_0_no,45.393148396286186,-91.94018469708756,10.0
54733,45.28331,-91.85641,Dallas,WI,Wisconsin,True,,1216.0,10.5,55005,Barron,"{""55005"": 100}",Barron,55005,False,False,America/Chicago,"(45.28331, -91.85641)",8.610974966991726,11856.0,11886_0_no,45.393148396286186,-91.94018469708756,10.0
54762,45.25107,-91.98967,Prairie Farm,WI,Wisconsin,True,,1235.0,9.0,55005,Barron,"{""55005"": 86.91, ""55033"": 13.09}",Barron|Dunn,55005|55033,False,False,America/Chicago,"(45.25107, -91.98967)",10.106763522876582,11856.0,11886_0_no,45.393148396286186,-91.94018469708756,10.0
54805,45.41465,-92.02311,Almena,WI,Wisconsin,True,,1534.0,19.0,55005,Barron,"{""55005"": 100}",Barron,55005,False,False,America/Chicago,"(45.41465, -92.02311)",4.288329286095644,11856.0,11886_0_no,45.393148396286186,-91.94018469708756,10.0
54812,45.39911,-91.88103,Barron,WI,Wisconsin,True,,5554.0,23.8,55005,Barron,"{""55005"": 100}",Barron,55005,False,False,America/Chicago,"(45.39911, -91.88103)",2.8994444982396144,11856.0,11886_0_no,45.393148396286186,-91.94018469708756,10.0
