zip,lat,lng,city,state_id,state_name,zcta,parent_zcta,population,density,county_fips,county_name,county_weights,county_names_all,county_fips_all,imprecise,military,timezone,Coord,distance_miles,market_total_population,market_id,market_center_lat,market_center_lng,radius_miles
56235,45.70588,-96.01079,Donnelly,MN,Minnesota,True,,502.0,2.4,27149,Stevens,"{""27149"": 100}",Stevens,27149,False,False,America/Chicago,"(45.70588, -96.01079)",5.338127812856838,9910.0,12039_0_no,45.68962017188988,-95.90265066963818,10.0
56267,45.58512,-95.9322,Morris,MN,Minnesota,True,,6955.0,13.8,27149,Stevens,"{""27149"": 100}",Stevens,27149,False,False,America/Chicago,"(45.58512, -95.9322)",7.3600398664352875,9910.0,12039_0_no,45.68962017188988,-95.90265066963818,10.0
56323,45.63321,-95.72586,Cyrus,MN,Minnesota,True,,512.0,4.6,27121,Pope,"{""27121"": 79.94, ""27149"": 20.06}",Pope|Stevens,27121|27149,False,False,America/Chicago,"(45.63321, -95.72586)",9.384706482162912,9910.0,12039_0_no,45.68962017188988,-95.90265066963818,10.0
56339,45.8258,-95.82129,Hoffman,MN,Minnesota,True,,988.0,6.3,27051,Grant,"{""27051"": 85.72, ""27041"": 14.28}",Grant|Douglas,27051|27041,False,False,America/Chicago,"(45.8258, -95.82129)",10.193840796260144,9910.0,12039_0_no,45.68962017188988,-95.90265066963818,10.0
56343,45.79088,-95.69765,Kensington,MN,Minnesota,True,,953.0,5.3,27041,Douglas,"{""27041"": 67.75, ""27121"": 16.8, ""27149"": 10.17, ""27051"": 5.28}",Douglas|Pope|Stevens|Grant,27041|27121|27149|27051,False,False,America/Chicago,"(45.79088, -95.69765)",12.110730060624823,9910.0,12039_0_no,45.68962017188988,-95.90265066963818,10.0
