zip,lat,lng,city,state_id,state_name,zcta,parent_zcta,population,density,county_fips,county_name,county_weights,county_names_all,county_fips_all,imprecise,military,timezone,Coord,distance_miles,market_total_population,market_id,market_center_lat,market_center_lng,radius_miles
98604,45.80013,-122.5054,Battle Ground,WA,Washington,True,,37333.0,200.1,53011,Clark,"{""53011"": 100}",Clark,53011,False,False,America/Los_Angeles,"(45.80013, -122.5054)",8.272632888828461,237402.0,12103_0_no,45.73748264059324,-122.35912684866165,10.0
98606,45.72921,-122.45615,Brush Prairie,WA,Washington,True,,9203.0,93.5,53011,Clark,"{""53011"": 100}",Clark,53011,False,False,America/Los_Angeles,"(45.72921, -122.45615)",4.7139280250827165,237402.0,12103_0_no,45.73748264059324,-122.35912684866165,10.0
98607,45.64395,-122.38242,Camas,WA,Washington,True,,32897.0,266.7,53011,Clark,"{""53011"": 100}",Clark,53011,False,False,America/Los_Angeles,"(45.64395, -122.38242)",6.55954589280137,237402.0,12103_0_no,45.73748264059324,-122.35912684866165,10.0
98671,45.61143,-122.24955,Washougal,WA,Washington,True,,23116.0,110.1,53011,Clark,"{""53011"": 50.27, ""53059"": 49.73}",Clark|Skamania,53011|53059,False,False,America/Los_Angeles,"(45.61143, -122.24955)",10.19016020954145,237402.0,12103_0_no,45.73748264059324,-122.35912684866165,10.0
98675,45.86349,-122.33104,Yacolt,WA,Washington,True,,7604.0,18.9,53011,Clark,"{""53011"": 100}",Clark,53011,False,False,America/Los_Angeles,"(45.86349, -122.33104)",8.81077088036619,237402.0,12103_0_no,45.73748264059324,-122.35912684866165,10.0
98682,45.67296,-122.48327,Vancouver,WA,Washington,True,,63768.0,863.5,53011,Clark,"{""53011"": 100}",Clark,53011,False,False,America/Los_Angeles,"(45.67296, -122.48327)",7.466967319132526,237402.0,12103_0_no,45.73748264059324,-122.35912684866165,10.0
98683,45.6027,-122.50984,Vancouver,WA,Washington,True,,31676.0,1685.4,53011,Clark,"{""53011"": 100}",Clark,53011,False,False,America/Los_Angeles,"(45.6027, -122.50984)",11.818395407915624,237402.0,12103_0_no,45.73748264059324,-122.35912684866165,10.0
98684,45.6308,-122.51615,Vancouver,WA,Washington,True,,31805.0,1733.5,53011,Clark,"{""53011"": 100}",Clark,53011,False,False,America/Los_Angeles,"(45.6308, -122.51615)",10.572630156558054,237402.0,12103_0_no,45.73748264059324,-122.35912684866165,10.0
