zip,lat,lng,city,state_id,state_name,zcta,parent_zcta,population,density,county_fips,county_name,county_weights,county_names_all,county_fips_all,imprecise,military,timezone,Coord,distance_miles,market_total_population,market_id,market_center_lat,market_center_lng,radius_miles
54820,46.56024,-91.55475,Brule,WI,Wisconsin,True,,941.0,3.1,55031,Douglas,"{""55031"": 52.37, ""55007"": 47.63}",Douglas|Bayfield,55031|55007,False,False,America/Chicago,"(46.56024, -91.55475)",5.372225317540605,5185.0,12454_0_no,46.5497942238578,-91.66679441530296,10.0
54842,46.49891,-91.86234,Hawthorne,WI,Wisconsin,True,,261.0,20.6,55031,Douglas,"{""55031"": 100}",Douglas,55031,False,False,America/Chicago,"(46.49891, -91.86234)",9.938743102506534,5185.0,12454_0_no,46.5497942238578,-91.66679441530296,10.0
54849,46.47881,-91.71642,Lake Nebagamon,WI,Wisconsin,True,,1702.0,7.6,55031,Douglas,"{""55031"": 100}",Douglas,55031,False,False,America/Chicago,"(46.47881, -91.71642)",5.442636872275965,5185.0,12454_0_no,46.5497942238578,-91.66679441530296,10.0
54854,46.64127,-91.66864,Maple,WI,Wisconsin,True,,905.0,4.2,55031,Douglas,"{""55031"": 100}",Douglas,55031,False,False,America/Chicago,"(46.64127, -91.66864)",6.320981483571583,5185.0,12454_0_no,46.5497942238578,-91.66679441530296,10.0
54864,46.60431,-91.79443,Poplar,WI,Wisconsin,True,,1376.0,10.3,55031,Douglas,"{""55031"": 100}",Douglas,55031,False,False,America/Chicago,"(46.60431, -91.79443)",7.136788960570663,5185.0,12454_0_no,46.5497942238578,-91.66679441530296,10.0
