zip,lat,lng,city,state_id,state_name,zcta,parent_zcta,population,density,county_fips,county_name,county_weights,county_names_all,county_fips_all,imprecise,military,timezone,Coord,distance_miles,market_total_population,market_id,market_center_lat,market_center_lng,radius_miles
55709,47.40431,-93.3804,Bovey,MN,Minnesota,True,,4120.0,7.1,27061,Itasca,"{""27061"": 100}",Itasca,27061,False,False,America/Chicago,"(47.40431, -93.3804)",10.566381308780645,29530.0,12752_0_yes,47.2760964896442,-93.50341157644316,10.0
55721,47.21837,-93.68841,Cohasset,MN,Minnesota,True,,3558.0,14.7,27061,Itasca,"{""27061"": 100}",Itasca,27061,False,False,America/Chicago,"(47.21837, -93.68841)",9.549795774118426,29530.0,12752_0_yes,47.2760964896442,-93.50341157644316,10.0
55722,47.28253,-93.4338,Coleraine,MN,Minnesota,True,,902.0,285.0,27061,Itasca,"{""27061"": 100}",Itasca,27061,False,False,America/Chicago,"(47.28253, -93.4338)",3.2931599611748257,29530.0,12752_0_yes,47.2760964896442,-93.50341157644316,10.0
55744,47.23306,-93.51299,Grand Rapids,MN,Minnesota,True,,20142.0,32.5,27061,Itasca,"{""27061"": 100}",Itasca,27061,False,False,America/Chicago,"(47.23306, -93.51299)",3.0072755325956564,29530.0,12752_0_yes,47.2760964896442,-93.50341157644316,10.0
55764,47.33041,-93.29298,Marble,MN,Minnesota,True,,500.0,52.1,27061,Itasca,"{""27061"": 100}",Itasca,27061,False,False,America/Chicago,"(47.33041, -93.29298)",10.549479953718281,29530.0,12752_0_yes,47.2760964896442,-93.50341157644316,10.0
55786,47.31916,-93.38227,Taconite,MN,Minnesota,True,,308.0,46.7,27061,Itasca,"{""27061"": 100}",Itasca,27061,False,False,America/Chicago,"(47.31916, -93.38227)",6.409038854008405,29530.0,12752_0_yes,47.2760964896442,-93.50341157644316,10.0
