zip,lat,lng,city,state_id,state_name,zcta,parent_zcta,population,density,county_fips,county_name,county_weights,county_names_all,county_fips_all,imprecise,military,timezone,Coord,distance_miles,market_total_population,market_id,market_center_lat,market_center_lng,radius_miles
56548,47.37025,-96.75392,Halstad,MN,Minnesota,True,,735.0,4.2,27107,Norman,"{""27107"": 100}",Norman,27107,False,False,America/Chicago,"(47.37025, -96.75392)",9.384977463958993,3745.0,12760_0_yes,47.28241357846856,-96.90677446176598,10.0
56550,47.2697,-96.74867,Hendrum,MN,Minnesota,True,,316.0,2.5,27107,Norman,"{""27107"": 100}",Norman,27107,False,False,America/Chicago,"(47.2697, -96.74867)",7.463428423245033,3745.0,12760_0_yes,47.28241357846856,-96.90677446176598,10.0
56574,47.20085,-96.70242,Perley,MN,Minnesota,True,,219.0,1.2,27107,Norman,"{""27107"": 98.56, ""27027"": 1.44}",Norman|Clay,27107|27027,False,False,America/Chicago,"(47.20085, -96.70242)",11.119703045390121,3745.0,12760_0_yes,47.28241357846856,-96.90677446176598,10.0
58036,47.15463,-96.96318,Gardner,ND,North Dakota,True,,221.0,1.0,38017,Cass,"{""38017"": 100}",Cass,38017,False,False,America/Chicago,"(47.15463, -96.96318)",9.217270045934866,3745.0,12760_0_yes,47.28241357846856,-96.90677446176598,10.0
58038,47.24505,-96.99484,Grandin,ND,North Dakota,True,,251.0,1.2,38097,Traill,"{""38097"": 59.94, ""38017"": 40.06}",Traill|Cass,38097|38017,False,False,America/Chicago,"(47.24505, -96.99484)",4.869839405372745,3745.0,12760_0_yes,47.28241357846856,-96.90677446176598,10.0
58045,47.38241,-97.02686,Hillsboro,ND,North Dakota,True,,2003.0,3.7,38097,Traill,"{""38097"": 100}",Traill,38097,False,False,America/Chicago,"(47.38241, -97.02686)",8.908271325243117,3745.0,12760_0_yes,47.28241357846856,-96.90677446176598,10.0
