zip,lat,lng,city,state_id,state_name,zcta,parent_zcta,population,density,county_fips,county_name,county_weights,county_names_all,county_fips_all,imprecise,military,timezone,Coord,distance_miles,market_total_population,market_id,market_center_lat,market_center_lng,radius_miles
98526,47.47749,-123.99227,Amanda Park,WA,Washington,True,,198.0,0.9,53027,Grays Harbor,"{""53027"": 100}",Grays Harbor,53027,False,False,America/Los_Angeles,"(47.47749, -123.99227)",12.364977775989372,1832.0,12824_0_yes,47.33300032406418,-124.14828370563905,10.0
98536,47.18939,-124.111,Copalis Crossing,WA,Washington,True,,61.0,0.4,53027,Grays Harbor,"{""53027"": 100}",Grays Harbor,53027,False,False,America/Los_Angeles,"(47.18939, -124.111)",10.07536483864596,1832.0,12824_0_yes,47.33300032406418,-124.14828370563905,10.0
98552,47.3136,-123.9444,Humptulips,WA,Washington,True,,526.0,2.7,53027,Grays Harbor,"{""53027"": 100}",Grays Harbor,53027,False,False,America/Los_Angeles,"(47.3136, -123.9444)",9.642658590110894,1832.0,12824_0_yes,47.33300032406418,-124.14828370563905,10.0
98562,47.23877,-124.20336,Moclips,WA,Washington,True,,49.0,19.4,53027,Grays Harbor,"{""53027"": 100}",Grays Harbor,53027,False,False,America/Los_Angeles,"(47.23877, -124.20336)",7.003755166008412,1832.0,12824_0_yes,47.33300032406418,-124.14828370563905,10.0
98571,47.20356,-124.19532,Pacific Beach,WA,Washington,True,,214.0,21.3,53027,Grays Harbor,"{""53027"": 100}",Grays Harbor,53027,False,False,America/Los_Angeles,"(47.20356, -124.19532)",9.211349073701522,1832.0,12824_0_yes,47.33300032406418,-124.14828370563905,10.0
98587,47.32039,-124.1562,Taholah,WA,Washington,True,,784.0,5.2,53027,Grays Harbor,"{""53027"": 100}",Grays Harbor,53027,False,False,America/Los_Angeles,"(47.32039, -124.1562)",0.9468876492308272,1832.0,12824_0_yes,47.33300032406418,-124.14828370563905,10.0
