zip,lat,lng,city,state_id,state_name,zcta,parent_zcta,population,density,county_fips,county_name,county_weights,county_names_all,county_fips_all,imprecise,military,timezone,Coord,distance_miles,market_total_population,market_id,market_center_lat,market_center_lng,radius_miles
98325,47.96093,-122.77911,Chimacum,WA,Washington,True,,1321.0,18.4,53031,Jefferson,"{""53031"": 100}",Jefferson,53031,False,False,America/Los_Angeles,"(47.96093, -122.77911)",4.745565711302948,27660.0,13097_0_yes,47.9095357401819,-122.84711820258528,10.0
98339,48.02991,-122.74364,Port Hadlock,WA,Washington,True,,3277.0,104.3,53031,Jefferson,"{""53031"": 100}",Jefferson,53031,False,False,America/Los_Angeles,"(48.02991, -122.74364)",9.596232356095525,27660.0,13097_0_yes,47.9095357401819,-122.84711820258528,10.0
98365,47.89545,-122.70271,Port Ludlow,WA,Washington,True,,4816.0,50.0,53031,Jefferson,"{""53031"": 100}",Jefferson,53031,False,False,America/Los_Angeles,"(47.89545, -122.70271)",6.759394250119419,27660.0,13097_0_yes,47.9095357401819,-122.84711820258528,10.0
98368,48.03879,-122.84406,Port Townsend,WA,Washington,True,,16070.0,118.5,53031,Jefferson,"{""53031"": 100}",Jefferson,53031,False,False,America/Los_Angeles,"(48.03879, -122.84406)",8.93173899958261,27660.0,13097_0_yes,47.9095357401819,-122.84711820258528,10.0
98376,47.8455,-122.85916,Quilcene,WA,Washington,True,,2176.0,7.6,53031,Jefferson,"{""53031"": 100}",Jefferson,53031,False,False,America/Los_Angeles,"(47.8455, -122.85916)",4.459501553112792,27660.0,13097_0_yes,47.9095357401819,-122.84711820258528,10.0
