zip,lat,lng,city,state_id,state_name,zcta,parent_zcta,population,density,county_fips,county_name,county_weights,county_names_all,county_fips_all,imprecise,military,timezone,Coord,distance_miles,market_total_population,market_id,market_center_lat,market_center_lng,radius_miles
98245,48.66241,-122.91616,Eastsound,WA,Washington,True,,3767.0,41.0,53055,San Juan,"{""53055"": 100}",San Juan,53055,False,False,America/Los_Angeles,"(48.66241, -122.91616)",9.3199452415692,32033.0,13505_0_yes,48.7777853821968,-122.81023517049236,10.0
98248,48.86494,-122.62211,Ferndale,WA,Washington,True,,26552.0,142.8,53073,Whatcom,"{""53073"": 100}",Whatcom,53073,False,False,America/Los_Angeles,"(48.86494, -122.62211)",10.464407072180325,32033.0,13505_0_yes,48.7777853821968,-122.81023517049236,10.0
98262,48.69317,-122.66406,Lummi Island,WA,Washington,True,,955.0,39.9,53073,Whatcom,"{""53073"": 100}",Whatcom,53073,False,False,America/Los_Angeles,"(48.69317, -122.66406)",8.862890359861517,32033.0,13505_0_yes,48.7777853821968,-122.81023517049236,10.0
98279,48.64474,-122.80602,Olga,WA,Washington,True,,693.0,19.6,53055,San Juan,"{""53055"": 100}",San Juan,53055,False,False,America/Los_Angeles,"(48.64474, -122.80602)",9.19456889457016,32033.0,13505_0_yes,48.7777853821968,-122.81023517049236,10.0
98297,48.7005,-123.02834,Waldron,WA,Washington,True,,66.0,5.6,53055,San Juan,"{""53055"": 100}",San Juan,53055,False,False,America/Los_Angeles,"(48.7005, -123.02834)",11.281973567715742,32033.0,13505_0_yes,48.7777853821968,-122.81023517049236,10.0
