zip,lat,lng,city,state_id,state_name,zcta,parent_zcta,population,density,county_fips,county_name,county_weights,county_names_all,county_fips_all,imprecise,military,timezone,Coord,distance_miles,market_total_population,market_id,market_center_lat,market_center_lng,radius_miles
78336,27.94356,-97.1862,Aransas Pass,TX,Texas,True,,12533.0,80.7,48409,San Patricio,"{""48409"": 63.89, ""48007"": 29.97, ""48355"": 6.14}",San Patricio|Aransas|Nueces,48409|48007|48355,False,False,America/Chicago,"(27.94356, -97.1862)",5.2195540343434885,53454.0,1930_0_yes,27.8721382576824,-97.21405090692288,10.0
78359,27.93021,-97.30056,Gregory,TX,Texas,True,,2218.0,89.4,48409,San Patricio,"{""48409"": 100}",San Patricio,48409,False,False,America/Chicago,"(27.93021, -97.30056)",6.633463786470277,53454.0,1930_0_yes,27.8721382576824,-97.21405090692288,10.0
78362,27.86668,-97.20167,Ingleside,TX,Texas,True,,11025.0,232.9,48409,San Patricio,"{""48409"": 100}",San Patricio,48409,False,False,America/Chicago,"(27.86668, -97.20167)",0.8450429270893316,53454.0,1930_0_yes,27.8721382576824,-97.21405090692288,10.0
78373,27.78075,-97.11737,Port Aransas,TX,Texas,True,,4407.0,90.3,48355,Nueces,"{""48355"": 100}",Nueces,48355,False,False,America/Chicago,"(27.78075, -97.11737)",8.64697381807465,53454.0,1930_0_yes,27.8721382576824,-97.21405090692288,10.0
78374,27.88849,-97.29366,Portland,TX,Texas,True,,17972.0,373.9,48409,San Patricio,"{""48409"": 100}",San Patricio,48409,False,False,America/Chicago,"(27.88849, -97.29366)",4.991546739376784,53454.0,1930_0_yes,27.8721382576824,-97.21405090692288,10.0
78390,28.00198,-97.35631,Taft,TX,Texas,True,,5299.0,10.1,48409,San Patricio,"{""48409"": 91.7, ""48007"": 8.3}",San Patricio|Aransas,48409|48007,False,False,America/Chicago,"(28.00198, -97.35631)",12.485561398483766,53454.0,1930_0_yes,27.8721382576824,-97.21405090692288,10.0
