zip,lat,lng,city,state_id,state_name,zcta,parent_zcta,population,density,county_fips,county_name,county_weights,county_names_all,county_fips_all,imprecise,military,timezone,Coord,distance_miles,market_total_population,market_id,market_center_lat,market_center_lng,radius_miles
33538,28.84679,-82.18218,Lake Panasoffkee,FL,Florida,True,,5371.0,23.3,12119,Sumter,"{""12119"": 100}",Sumter,12119,False,False,America/New_York,"(28.84679, -82.18218)",5.594543630796717,84311.0,2602_0_no,28.869358728380305,-82.27096772223204,10.0
34436,28.72672,-82.29134,Floral City,FL,Florida,True,,8189.0,57.4,12017,Citrus,"{""12017"": 100}",Citrus,12017,False,False,America/New_York,"(28.72672, -82.29134)",9.932290219776716,84311.0,2602_0_no,28.869358728380305,-82.27096772223204,10.0
34442,28.93084,-82.39122,Hernando,FL,Florida,True,,15479.0,164.0,12017,Citrus,"{""12017"": 100}",Citrus,12017,False,False,America/New_York,"(28.93084, -82.39122)",8.423472763521405,84311.0,2602_0_no,28.869358728380305,-82.27096772223204,10.0
34450,28.82699,-82.25767,Inverness,FL,Florida,True,,11074.0,137.1,12017,Citrus,"{""12017"": 100}",Citrus,12017,False,False,America/New_York,"(28.82699, -82.25767)",3.0360038349009923,84311.0,2602_0_no,28.869358728380305,-82.27096772223204,10.0
34452,28.76231,-82.37986,Inverness,FL,Florida,True,,12538.0,82.1,12017,Citrus,"{""12017"": 100}",Citrus,12017,False,False,America/New_York,"(28.76231, -82.37986)",9.907671521775365,84311.0,2602_0_no,28.869358728380305,-82.27096772223204,10.0
34453,28.89276,-82.33663,Inverness,FL,Florida,True,,10236.0,146.0,12017,Citrus,"{""12017"": 100}",Citrus,12017,False,False,America/New_York,"(28.89276, -82.33663)",4.288998571783994,84311.0,2602_0_no,28.869358728380305,-82.27096772223204,10.0
34473,29.00506,-82.18833,Ocala,FL,Florida,True,,21424.0,230.8,12083,Marion,"{""12083"": 100}",Marion,12083,False,False,America/New_York,"(29.00506, -82.18833)",10.624464430490686,84311.0,2602_0_no,28.869358728380305,-82.27096772223204,10.0
