zip,lat,lng,city,state_id,state_name,zcta,parent_zcta,population,density,county_fips,county_name,county_weights,county_names_all,county_fips_all,imprecise,military,timezone,Coord,distance_miles,market_total_population,market_id,market_center_lat,market_center_lng,radius_miles
32147,29.63157,-81.79577,Hollister,FL,Florida,True,,597.0,7.7,12107,Putnam,"{""12107"": 100}",Putnam,12107,False,False,America/New_York,"(29.63157, -81.79577)",2.635296782025429,46216.0,2962_0_yes,29.59343822851472,-81.7967385644488,10.0
32148,29.60088,-81.88191,Interlachen,FL,Florida,True,,10766.0,53.2,12107,Putnam,"{""12107"": 100}",Putnam,12107,False,False,America/New_York,"(29.60088, -81.88191)",5.142704092306561,46216.0,2962_0_yes,29.59343822851472,-81.7967385644488,10.0
32177,29.69011,-81.70565,Palatka,FL,Florida,True,,28343.0,48.2,12107,Putnam,"{""12107"": 100}",Putnam,12107,False,False,America/New_York,"(29.69011, -81.70565)",8.633369988595721,46216.0,2962_0_yes,29.59343822851472,-81.7967385644488,10.0
32189,29.54991,-81.64819,Satsuma,FL,Florida,True,,5541.0,73.1,12107,Putnam,"{""12107"": 100}",Putnam,12107,False,False,America/New_York,"(29.54991, -81.64819)",9.419779946962754,46216.0,2962_0_yes,29.59343822851472,-81.7967385644488,10.0
32193,29.47605,-81.6647,Welaka,FL,Florida,True,,969.0,104.9,12107,Putnam,"{""12107"": 100}",Putnam,12107,False,False,America/New_York,"(29.47605, -81.6647)",11.3485063653948,46216.0,2962_0_yes,29.59343822851472,-81.7967385644488,10.0
