zip,lat,lng,city,state_id,state_name,zcta,parent_zcta,population,density,county_fips,county_name,county_weights,county_names_all,county_fips_all,imprecise,military,timezone,Coord,distance_miles,market_total_population,market_id,market_center_lat,market_center_lng,radius_miles
70343,29.55308,-90.56402,Bourg,LA,Louisiana,True,,5073.0,85.6,22057,Lafourche,"{""22057"": 50.83, ""22109"": 49.17}",Lafourche|Terrebonne,22057|22109,False,False,America/Chicago,"(29.55308, -90.56402)",8.55187075759225,78489.0,2984_0_no,29.45964417527861,-90.65729247432547,10.0
70344,29.39711,-90.63777,Chauvin,LA,Louisiana,True,,5651.0,43.1,22109,Terrebonne,"{""22109"": 100}",Terrebonne,22109,False,False,America/Chicago,"(29.39711, -90.63777)",4.477574511317947,78489.0,2984_0_no,29.45964417527861,-90.65729247432547,10.0
70353,29.36598,-90.70554,Dulac,LA,Louisiana,True,,798.0,15.9,22109,Terrebonne,"{""22109"": 100}",Terrebonne,22109,False,False,America/Chicago,"(29.36598, -90.70554)",7.093233259368917,78489.0,2984_0_no,29.45964417527861,-90.65729247432547,10.0
70360,29.58396,-90.81001,Houma,LA,Louisiana,True,,29286.0,188.1,22109,Terrebonne,"{""22109"": 100}",Terrebonne,22109,False,False,America/Chicago,"(29.58396, -90.81001)",12.573131491911504,78489.0,2984_0_no,29.45964417527861,-90.65729247432547,10.0
70363,29.51516,-90.70404,Houma,LA,Louisiana,True,,25210.0,124.1,22109,Terrebonne,"{""22109"": 100}",Terrebonne,22109,False,False,America/Chicago,"(29.51516, -90.70404)",4.755840254847753,78489.0,2984_0_no,29.45964417527861,-90.65729247432547,10.0
70374,29.59924,-90.50319,Lockport,LA,Louisiana,True,,7003.0,61.3,22057,Lafourche,"{""22057"": 100}",Lafourche,22057,False,False,America/Chicago,"(29.59924, -90.50319)",13.373771389203297,78489.0,2984_0_no,29.45964417527861,-90.65729247432547,10.0
70377,29.45808,-90.51361,Montegut,LA,Louisiana,True,,4574.0,20.9,22109,Terrebonne,"{""22109"": 63.24, ""22057"": 36.76}",Terrebonne|Lafourche,22109|22057,False,False,America/Chicago,"(29.45808, -90.51361)",8.64465058252703,78489.0,2984_0_no,29.45964417527861,-90.65729247432547,10.0
70397,29.38444,-90.823,Theriot,LA,Louisiana,True,,894.0,4.9,22109,Terrebonne,"{""22109"": 100}",Terrebonne,22109,False,False,America/Chicago,"(29.38444, -90.823)",11.245123323880541,78489.0,2984_0_no,29.45964417527861,-90.65729247432547,10.0
