zip,lat,lng,city,state_id,state_name,zcta,parent_zcta,population,density,county_fips,county_name,county_weights,county_names_all,county_fips_all,imprecise,military,timezone,Coord,distance_miles,market_total_population,market_id,market_center_lat,market_center_lng,radius_miles
70721,30.21639,-91.09301,Carville,LA,Louisiana,True,,503.0,54.3,22047,Iberville,"{""22047"": 100}",Iberville,22047,False,False,America/Chicago,"(30.21639, -91.09301)",8.875859894402154,29153.0,3346_0_yes,30.185228106318725,-91.23720705244504,10.0
70764,30.22505,-91.30656,Plaquemine,LA,Louisiana,True,,16667.0,34.1,22047,Iberville,"{""22047"": 94.1, ""22121"": 5.9}",Iberville|West Baton Rouge,22047|22121,False,False,America/Chicago,"(30.22505, -91.30656)",4.9719481653292465,29153.0,3346_0_yes,30.185228106318725,-91.23720705244504,10.0
70776,30.26051,-91.08923,Saint Gabriel,LA,Louisiana,True,,6316.0,69.8,22047,Iberville,"{""22047"": 100}",Iberville,22047,False,False,America/Chicago,"(30.26051, -91.08923)",10.252013719893387,29153.0,3346_0_yes,30.185228106318725,-91.23720705244504,10.0
70780,30.29538,-91.16993,Sunshine,LA,Louisiana,True,,1403.0,42.8,22047,Iberville,"{""22047"": 100}",Iberville,22047,False,False,America/Chicago,"(30.29538, -91.16993)",8.60528206715959,29153.0,3346_0_yes,30.185228106318725,-91.23720705244504,10.0
70788,30.13618,-91.17939,White Castle,LA,Louisiana,True,,4264.0,14.7,22047,Iberville,"{""22047"": 100}",Iberville,22047,False,False,America/Chicago,"(30.13618, -91.17939)",4.83885444353074,29153.0,3346_0_yes,30.185228106318725,-91.23720705244504,10.0
