zip,lat,lng,city,state_id,state_name,zcta,parent_zcta,population,density,county_fips,county_name,county_weights,county_names_all,county_fips_all,imprecise,military,timezone,Coord,distance_miles,market_total_population,market_id,market_center_lat,market_center_lng,radius_miles
77355,30.1579,-95.75014,Magnolia,TX,Texas,True,,31201.0,216.8,48339,Montgomery,"{""48339"": 90.13, ""48473"": 9.87}",Montgomery|Waller,48339|48473,False,False,America/Chicago,"(30.1579, -95.75014)",10.18921350324557,83853.0,3360_0_yes,30.191189749388624,-95.9163214848637,10.0
77363,30.3267,-95.85732,Plantersville,TX,Texas,True,,2961.0,19.5,48185,Grimes,"{""48185"": 98.09, ""48473"": 1.91}",Grimes|Waller,48185|48473,False,False,America/Chicago,"(30.3267, -95.85732)",10.003106108835626,83853.0,3360_0_yes,30.191189749388624,-95.9163214848637,10.0
77445,30.09562,-96.06247,Hempstead,TX,Texas,True,,14629.0,30.4,48473,Waller,"{""48473"": 100}",Waller,48473,False,False,America/Chicago,"(30.09562, -96.06247)",10.947926732667899,83853.0,3360_0_yes,30.191189749388624,-95.9163214848637,10.0
77446,30.0871,-95.9895,Prairie View,TX,Texas,True,,6781.0,986.7,48473,Waller,"{""48473"": 100}",Waller,48473,False,False,America/Chicago,"(30.0871, -95.9895)",8.416848010207081,83853.0,3360_0_yes,30.191189749388624,-95.9163214848637,10.0
77447,30.05178,-95.82868,Hockley,TX,Texas,True,,16309.0,60.9,48201,Harris,"{""48201"": 66.99, ""48473"": 28.17, ""48339"": 4.84}",Harris|Waller|Montgomery,48201|48473|48339,False,False,America/Chicago,"(30.05178, -95.82868)",10.96426204002171,83853.0,3360_0_yes,30.191189749388624,-95.9163214848637,10.0
77484,30.07924,-95.92812,Waller,TX,Texas,True,,11972.0,30.6,48473,Waller,"{""48473"": 77.98, ""48201"": 20.94, ""48185"": 1.08}",Waller|Harris|Grimes,48473|48201|48185,False,False,America/Chicago,"(30.07924, -95.92812)",7.7670546193050445,83853.0,3360_0_yes,30.191189749388624,-95.9163214848637,10.0
