zip,lat,lng,city,state_id,state_name,zcta,parent_zcta,population,density,county_fips,county_name,county_weights,county_names_all,county_fips_all,imprecise,military,timezone,Coord,distance_miles,market_total_population,market_id,market_center_lat,market_center_lng,radius_miles
70401,30.5281,-90.45472,Hammond,LA,Louisiana,True,,21172.0,235.6,22105,Tangipahoa,"{""22105"": 100}",Tangipahoa,22105,False,False,America/Chicago,"(30.5281, -90.45472)",3.7954659431454894,105015.0,3521_0_yes,30.47420790585054,-90.46706879038427,10.0
70402,30.51652,-90.46932,Hammond,LA,Louisiana,True,,1804.0,5668.1,22105,Tangipahoa,"{""22105"": 100}",Tangipahoa,22105,False,False,America/Chicago,"(30.51652, -90.46932)",2.9265578839182806,105015.0,3521_0_yes,30.47420790585054,-90.46706879038427,10.0
70403,30.47989,-90.48639,Hammond,LA,Louisiana,True,,30825.0,281.2,22105,Tangipahoa,"{""22105"": 86.14, ""22063"": 13.86}",Tangipahoa|Livingston,22105|22063,False,False,America/Chicago,"(30.47989, -90.48639)",1.2156583157662773,105015.0,3521_0_yes,30.47420790585054,-90.46706879038427,10.0
70454,30.39525,-90.3682,Ponchatoula,LA,Louisiana,True,,28461.0,63.0,22105,Tangipahoa,"{""22105"": 100}",Tangipahoa,22105,False,False,America/Chicago,"(30.39525, -90.3682)",8.02826177339195,105015.0,3521_0_yes,30.47420790585054,-90.46706879038427,10.0
70455,30.52438,-90.31883,Robert,LA,Louisiana,True,,1071.0,18.3,22105,Tangipahoa,"{""22105"": 100}",Tangipahoa,22105,False,False,America/Chicago,"(30.52438, -90.31883)",9.481576706363263,105015.0,3521_0_yes,30.47420790585054,-90.46706879038427,10.0
70462,30.3656,-90.58368,Springfield,LA,Louisiana,True,,5317.0,25.8,22063,Livingston,"{""22063"": 99.31, ""22105"": 0.69}",Livingston|Tangipahoa,22063|22105,False,False,America/Chicago,"(30.3656, -90.58368)",10.226674053293852,105015.0,3521_0_yes,30.47420790585054,-90.46706879038427,10.0
70466,30.5685,-90.50195,Tickfaw,LA,Louisiana,True,,10753.0,120.9,22105,Tangipahoa,"{""22105"": 95.26, ""22063"": 4.74}",Tangipahoa|Livingston,22105|22063,False,False,America/Chicago,"(30.5685, -90.50195)",6.837765180804398,105015.0,3521_0_yes,30.47420790585054,-90.46706879038427,10.0
70711,30.53065,-90.60229,Albany,LA,Louisiana,True,,5612.0,117.9,22063,Livingston,"{""22063"": 100}",Livingston,22063,False,False,America/Chicago,"(30.53065, -90.60229)",8.944791820588874,105015.0,3521_0_yes,30.47420790585054,-90.46706879038427,10.0
