zip,lat,lng,city,state_id,state_name,zcta,parent_zcta,population,density,county_fips,county_name,county_weights,county_names_all,county_fips_all,imprecise,military,timezone,Coord,distance_miles,market_total_population,market_id,market_center_lat,market_center_lng,radius_miles
70729,30.58891,-91.34671,Erwinville,LA,Louisiana,True,,1083.0,24.2,22121,West Baton Rouge,"{""22121"": 77.84, ""22077"": 22.16}",West Baton Rouge|Pointe Coupee,22121|22077,False,False,America/Chicago,"(30.58891, -91.34671)",10.843749708462886,24983.0,3524_0_yes,30.47550007259875,-91.47266071673928,10.0
70740,30.33777,-91.43311,Grosse Tete,LA,Louisiana,True,,1556.0,7.1,22047,Iberville,"{""22047"": 100}",Iberville,22047,False,False,America/Chicago,"(30.33777, -91.43311)",9.80374814384933,24983.0,3524_0_yes,30.47550007259875,-91.47266071673928,10.0
70752,30.57986,-91.41915,Lakeland,LA,Louisiana,True,,791.0,52.2,22077,Pointe Coupee,"{""22077"": 100}",Pointe Coupee,22077,False,False,America/Chicago,"(30.57986, -91.41915)",7.882581854731901,24983.0,3524_0_yes,30.47550007259875,-91.47266071673928,10.0
70755,30.59473,-91.52981,Livonia,LA,Louisiana,True,,1683.0,29.6,22077,Pointe Coupee,"{""22077"": 100}",Pointe Coupee,22077,False,False,America/Chicago,"(30.59473, -91.52981)",8.912447583682106,24983.0,3524_0_yes,30.47550007259875,-91.47266071673928,10.0
70757,30.37204,-91.53468,Maringouin,LA,Louisiana,True,,2246.0,8.2,22047,Iberville,"{""22047"": 82.48, ""22077"": 17.52}",Iberville|Pointe Coupee,22047|22077,False,False,America/Chicago,"(30.37204, -91.53468)",8.046947493563453,24983.0,3524_0_yes,30.47550007259875,-91.47266071673928,10.0
70762,30.57843,-91.46695,Oscar,LA,Louisiana,True,,855.0,16.1,22077,Pointe Coupee,"{""22077"": 100}",Pointe Coupee,22077,False,False,America/Chicago,"(30.57843, -91.46695)",7.119897647930475,24983.0,3524_0_yes,30.47550007259875,-91.47266071673928,10.0
70767,30.47737,-91.32787,Port Allen,LA,Louisiana,True,,15675.0,39.7,22121,West Baton Rouge,"{""22121"": 96.12, ""22077"": 3.88}",West Baton Rouge|Pointe Coupee,22121|22077,False,False,America/Chicago,"(30.47737, -91.32787)",8.622866871777596,24983.0,3524_0_yes,30.47550007259875,-91.47266071673928,10.0
70772,30.43748,-91.46484,Rosedale,LA,Louisiana,True,,869.0,22.5,22047,Iberville,"{""22047"": 100}",Iberville,22047,False,False,America/Chicago,"(30.43748, -91.46484)",2.667913951026823,24983.0,3524_0_yes,30.47550007259875,-91.47266071673928,10.0
70773,30.59678,-91.37333,Rougon,LA,Louisiana,True,,225.0,13.4,22077,Pointe Coupee,"{""22077"": 100}",Pointe Coupee,22077,False,False,America/Chicago,"(30.59678, -91.37333)",10.254816868594363,24983.0,3524_0_yes,30.47550007259875,-91.47266071673928,10.0
