zip,lat,lng,city,state_id,state_name,zcta,parent_zcta,population,density,county_fips,county_name,county_weights,county_names_all,county_fips_all,imprecise,military,timezone,Coord,distance_miles,market_total_population,market_id,market_center_lat,market_center_lng,radius_miles
70524,30.55737,-92.31859,Chataignier,LA,Louisiana,True,,193.0,27.4,22039,Evangeline,"{""22039"": 100}",Evangeline,22039,False,False,America/Chicago,"(30.55737, -92.31859)",5.28325463228754,76255.0,3696_0_no,30.621631712684,-92.2704491171481,10.0
70535,30.47999,-92.42367,Eunice,LA,Louisiana,True,,17344.0,41.7,22001,Acadia,"{""22001"": 52.5, ""22097"": 26.36, ""22039"": 21.14}",Acadia|St. Landry|Evangeline,22001|22097|22039,False,False,America/Chicago,"(30.47999, -92.42367)",13.37511996012965,76255.0,3696_0_no,30.621631712684,-92.2704491171481,10.0
70570,30.5315,-92.10852,Opelousas,LA,Louisiana,True,,39184.0,88.1,22097,St. Landry,"{""22097"": 100}",St. Landry,22097,False,False,America/Chicago,"(30.5315, -92.10852)",11.470271367150442,76255.0,3696_0_no,30.621631712684,-92.2704491171481,10.0
70580,30.67551,-92.4284,Reddell,LA,Louisiana,True,,160.0,440.7,22039,Evangeline,"{""22039"": 100}",Evangeline,22039,False,False,America/Chicago,"(30.67551, -92.4284)",10.099953482823182,76255.0,3696_0_no,30.621631712684,-92.2704491171481,10.0
70586,30.74504,-92.34151,Ville Platte,LA,Louisiana,True,,19374.0,24.1,22039,Evangeline,"{""22039"": 98.31, ""22097"": 1.69}",Evangeline|St. Landry,22039|22097,False,False,America/Chicago,"(30.74504, -92.34151)",9.514926205728171,76255.0,3696_0_no,30.621631712684,-92.2704491171481,10.0
