zip,lat,lng,city,state_id,state_name,zcta,parent_zcta,population,density,county_fips,county_name,county_weights,county_names_all,county_fips_all,imprecise,military,timezone,Coord,distance_miles,market_total_population,market_id,market_center_lat,market_center_lng,radius_miles
36505,30.94978,-88.0225,Axis,AL,Alabama,True,,1062.0,14.1,1097,Mobile,"{""01097"": 100}",Mobile,01097,False,False,America/Chicago,"(30.94978, -88.0225)",10.11908114521545,6133.0,3865_0_yes,31.05073811442972,-87.8987234761104,10.0
36512,31.00327,-88.01023,Bucks,AL,Alabama,True,,12.0,1.6,1097,Mobile,"{""01097"": 100}",Mobile,01097,False,False,America/Chicago,"(31.00327, -88.01023)",7.371828241999126,6133.0,3865_0_yes,31.05073811442972,-87.8987234761104,10.0
36513,31.15516,-87.99021,Calvert,AL,Alabama,True,,388.0,6.0,1129,Washington,"{""01129"": 52.84, ""01097"": 47.16}",Washington|Mobile,01129|01097,False,False,America/Chicago,"(31.15516, -87.99021)",9.019328772524123,6133.0,3865_0_yes,31.05073811442972,-87.8987234761104,10.0
36560,31.08553,-88.04991,Mount Vernon,AL,Alabama,True,,3246.0,20.8,1097,Mobile,"{""01097"": 100}",Mobile,01097,False,False,America/Chicago,"(31.08553, -88.04991)",9.2648532073972,6133.0,3865_0_yes,31.05073811442972,-87.8987234761104,10.0
36579,31.11395,-87.78616,Stockton,AL,Alabama,True,,1425.0,3.6,1003,Baldwin,"{""01003"": 100}",Baldwin,01003,False,False,America/Chicago,"(31.11395, -87.78616)",7.964989562553608,6133.0,3865_0_yes,31.05073811442972,-87.8987234761104,10.0
