zip,lat,lng,city,state_id,state_name,zcta,parent_zcta,population,density,county_fips,county_name,county_weights,county_names_all,county_fips_all,imprecise,military,timezone,Coord,distance_miles,market_total_population,market_id,market_center_lat,market_center_lng,radius_miles
76511,30.79955,-97.42293,Bartlett,TX,Texas,True,,2426.0,11.3,48027,Bell,"{""48027"": 57.24, ""48491"": 36.61, ""48331"": 6.15}",Bell|Williamson|Milam,48027|48491|48331,False,False,America/Chicago,"(30.79955, -97.42293)",11.563007443600915,141700.0,3887_0_no,30.918481665407715,-97.56008541203016,10.0
76513,31.05777,-97.50369,Belton,TX,Texas,True,,42162.0,150.3,48027,Bell,"{""48027"": 100}",Bell,48027,False,False,America/Chicago,"(31.05777, -97.50369)",10.18714562624165,141700.0,3887_0_no,30.918481665407715,-97.56008541203016,10.0
76537,30.81779,-97.60645,Jarrell,TX,Texas,True,,7065.0,50.8,48491,Williamson,"{""48491"": 100}",Williamson,48491,False,False,America/Chicago,"(30.81779, -97.60645)",7.480815883972776,141700.0,3887_0_no,30.918481665407715,-97.56008541203016,10.0
76542,31.00062,-97.7274,Killeen,TX,Texas,True,,49765.0,304.9,48027,Bell,"{""48027"": 100}",Bell,48027,False,False,America/Chicago,"(31.00062, -97.7274)",11.422890754916994,141700.0,3887_0_no,30.918481665407715,-97.56008541203016,10.0
76548,31.05299,-97.64613,Harker Heights,TX,Texas,True,,31247.0,749.3,48027,Bell,"{""48027"": 100}",Bell,48027,False,False,America/Chicago,"(31.05299, -97.64613)",10.599447514868096,141700.0,3887_0_no,30.918481665407715,-97.56008541203016,10.0
76571,30.93305,-97.58448,Salado,TX,Texas,True,,9007.0,27.8,48027,Bell,"{""48027"": 100}",Bell,48027,False,False,America/Chicago,"(30.93305, -97.58448)",1.7617533920656383,141700.0,3887_0_no,30.918481665407715,-97.56008541203016,10.0
76573,30.81864,-97.50226,Schwertner,TX,Texas,True,,28.0,12.2,48491,Williamson,"{""48491"": 99.9, ""48027"": 0.1}",Williamson|Bell,48491|48027,False,False,America/Chicago,"(30.81864, -97.50226)",7.703812409638516,141700.0,3887_0_no,30.918481665407715,-97.56008541203016,10.0
