zip,lat,lng,city,state_id,state_name,zcta,parent_zcta,population,density,county_fips,county_name,county_weights,county_names_all,county_fips_all,imprecise,military,timezone,Coord,distance_miles,market_total_population,market_id,market_center_lat,market_center_lng,radius_miles
71323,31.26656,-92.21037,Center Point,LA,Louisiana,True,,1601.0,29.9,22009,Avoyelles,"{""22009"": 94.85, ""22079"": 5.15}",Avoyelles|Rapides,22009|22079,False,False,America/Chicago,"(31.26656, -92.21037)",9.274190057975327,21569.0,4046_0_no,31.201290523058983,-92.0731989369634,10.0
71331,31.2578,-92.07969,Effie,LA,Louisiana,True,,1104.0,7.1,22009,Avoyelles,"{""22009"": 100}",Avoyelles,22009,False,False,America/Chicago,"(31.2578, -92.07969)",3.923221983904666,21569.0,4046_0_no,31.201290523058983,-92.0731989369634,10.0
71341,31.05969,-92.16267,Hessmer,LA,Louisiana,True,,3283.0,48.1,22009,Avoyelles,"{""22009"": 100}",Avoyelles,22009,False,False,America/Chicago,"(31.05969, -92.16267)",11.123009782397485,21569.0,4046_0_no,31.201290523058983,-92.0731989369634,10.0
71350,31.06871,-92.06053,Mansura,LA,Louisiana,True,,3856.0,42.5,22009,Avoyelles,"{""22009"": 100}",Avoyelles,22009,False,False,America/Chicago,"(31.06871, -92.06053)",9.19103170656058,21569.0,4046_0_no,31.201290523058983,-92.0731989369634,10.0
71351,31.17227,-91.9604,Marksville,LA,Louisiana,True,,11725.0,20.1,22009,Avoyelles,"{""22009"": 99.25, ""22079"": 0.75}",Avoyelles|Rapides,22009|22079,False,False,America/Chicago,"(31.17227, -91.9604)",6.962336344734707,21569.0,4046_0_no,31.201290523058983,-92.0731989369634,10.0
