zip,lat,lng,city,state_id,state_name,zcta,parent_zcta,population,density,county_fips,county_name,county_weights,county_names_all,county_fips_all,imprecise,military,timezone,Coord,distance_miles,market_total_population,market_id,market_center_lat,market_center_lng,radius_miles
39421,31.48411,-89.71179,Bassfield,MS,Mississippi,True,,2985.0,17.3,28065,Jefferson Davis,"{""28065"": 82.76, ""28091"": 17.24}",Jefferson Davis|Marion,28065|28091,False,False,America/Chicago,"(31.48411, -89.71179)",11.47385337324744,27543.0,4046_0_yes,31.34316025967112,-89.81467753571414,10.0
39427,31.48693,-89.82701,Carson,MS,Mississippi,True,,1404.0,9.6,28065,Jefferson Davis,"{""28065"": 100}",Jefferson Davis,28065,False,False,America/Chicago,"(31.48693, -89.82701)",9.960124269320925,27543.0,4046_0_yes,31.34316025967112,-89.81467753571414,10.0
39429,31.25052,-89.76337,Columbia,MS,Mississippi,True,,16540.0,21.4,28091,Marion,"{""28091"": 95.96, ""28073"": 2.69, ""28065"": 1.35}",Marion|Lamar|Jefferson Davis,28091|28073|28065,False,False,America/Chicago,"(31.25052, -89.76337)",7.081420477072126,27543.0,4046_0_yes,31.34316025967112,-89.81467753571414,10.0
39483,31.23515,-89.92674,Foxworth,MS,Mississippi,True,,5943.0,15.4,28091,Marion,"{""28091"": 96.69, ""28147"": 3.31}",Marion|Walthall,28091|28147,False,False,America/Chicago,"(31.23515, -89.92674)",9.97363233395201,27543.0,4046_0_yes,31.34316025967112,-89.81467753571414,10.0
39656,31.45055,-89.92843,Oak Vale,MS,Mississippi,True,,671.0,4.7,28065,Jefferson Davis,"{""28065"": 76.17, ""28077"": 23.83}",Jefferson Davis|Lawrence,28065|28077,False,False,America/Chicago,"(31.45055, -89.92843)",10.003126135270692,27543.0,4046_0_yes,31.34316025967112,-89.81467753571414,10.0
