zip,lat,lng,city,state_id,state_name,zcta,parent_zcta,population,density,county_fips,county_name,county_weights,county_names_all,county_fips_all,imprecise,military,timezone,Coord,distance_miles,market_total_population,market_id,market_center_lat,market_center_lng,radius_miles
71301,31.27446,-92.46864,Alexandria,LA,Louisiana,True,,21634.0,669.1,22079,Rapides,"{""22079"": 100}",Rapides,22079,False,False,America/Chicago,"(31.27446, -92.46864)",6.072263061985836,100383.0,4047_0_no,31.20173377119971,-92.41093131261766,10.0
71302,31.2053,-92.36667,Alexandria,LA,Louisiana,True,,13734.0,91.7,22079,Rapides,"{""22079"": 100}",Rapides,22079,False,False,America/Chicago,"(31.2053, -92.36667)",2.6273280568538095,100383.0,4047_0_no,31.20173377119971,-92.41093131261766,10.0
71303,31.28081,-92.54308,Alexandria,LA,Louisiana,True,,21189.0,129.0,22079,Rapides,"{""22079"": 100}",Rapides,22079,False,False,America/Chicago,"(31.28081, -92.54308)",9.528597007276078,100383.0,4047_0_no,31.20173377119971,-92.41093131261766,10.0
71346,31.11686,-92.38446,Lecompte,LA,Louisiana,True,,2160.0,9.1,22079,Rapides,"{""22079"": 100}",Rapides,22079,False,False,America/Chicago,"(31.11686, -92.38446)",6.069488504315333,100383.0,4047_0_no,31.20173377119971,-92.41093131261766,10.0
71360,31.31597,-92.34593,Pineville,LA,Louisiana,True,,35994.0,72.0,22079,Rapides,"{""22079"": 88.19, ""22009"": 10.7, ""22043"": 1.11}",Rapides|Avoyelles|Grant,22079|22009|22043,False,False,America/Chicago,"(31.31597, -92.34593)",8.777149799716591,100383.0,4047_0_no,31.20173377119971,-92.41093131261766,10.0
71430,31.06764,-92.53135,Forest Hill,LA,Louisiana,True,,3018.0,9.5,22079,Rapides,"{""22079"": 100}",Rapides,22079,False,False,America/Chicago,"(31.06764, -92.53135)",11.685808899008368,100383.0,4047_0_no,31.20173377119971,-92.41093131261766,10.0
71485,31.17811,-92.53186,Woodworth,LA,Louisiana,True,,2654.0,22.3,22079,Rapides,"{""22079"": 100}",Rapides,22079,False,False,America/Chicago,"(31.17811, -92.53186)",7.331653831262911,100383.0,4047_0_no,31.20173377119971,-92.41093131261766,10.0
