zip,lat,lng,city,state_id,state_name,zcta,parent_zcta,population,density,county_fips,county_name,county_weights,county_names_all,county_fips_all,imprecise,military,timezone,Coord,distance_miles,market_total_population,market_id,market_center_lat,market_center_lng,radius_miles
75654,32.08299,-94.82961,Henderson,TX,Texas,True,,12268.0,23.9,48401,Rusk,"{""48401"": 98.94, ""48073"": 1.06}",Rusk|Cherokee,48401|48073,False,False,America/Chicago,"(32.08299, -94.82961)",11.658504868413717,35857.0,4583_0_yes,32.21977341318242,-94.94630888477045,10.0
75682,32.25152,-94.94713,New London,TX,Texas,True,,572.0,108.3,48401,Rusk,"{""48401"": 100}",Rusk,48401,False,False,America/Chicago,"(32.25152, -94.94713)",2.1940051095960302,35857.0,4583_0_yes,32.21977341318242,-94.94630888477045,10.0
75684,32.27085,-94.93147,Overton,TX,Texas,True,,8086.0,34.0,48401,Rusk,"{""48401"": 82.69, ""48423"": 17.31}",Rusk|Smith,48401|48423,False,False,America/Chicago,"(32.27085, -94.93147)",3.634030011048967,35857.0,4583_0_yes,32.21977341318242,-94.94630888477045,10.0
75705,32.35905,-95.10149,Tyler,TX,Texas,True,,3138.0,47.1,48423,Smith,"{""48423"": 100}",Smith,48423,False,False,America/Chicago,"(32.35905, -95.10149)",13.21964707126268,35857.0,4583_0_yes,32.21977341318242,-94.94630888477045,10.0
75750,32.27222,-95.07124,Arp,TX,Texas,True,,3414.0,27.0,48423,Smith,"{""48423"": 100}",Smith,48423,False,False,America/Chicago,"(32.27222, -95.07124)",8.150440677367573,35857.0,4583_0_yes,32.21977341318242,-94.94630888477045,10.0
75789,32.1126,-95.09405,Troup,TX,Texas,True,,8379.0,17.5,48073,Cherokee,"{""48073"": 62.95, ""48423"": 36.54, ""48401"": 0.51}",Cherokee|Smith|Rusk,48073|48423|48401,False,False,America/Chicago,"(32.1126, -95.09405)",11.379902695483091,35857.0,4583_0_yes,32.21977341318242,-94.94630888477045,10.0
