zip,lat,lng,city,state_id,state_name,zcta,parent_zcta,population,density,county_fips,county_name,county_weights,county_names_all,county_fips_all,imprecise,military,timezone,Coord,distance_miles,market_total_population,market_id,market_center_lat,market_center_lng,radius_miles
76055,32.1596,-97.14812,Itasca,TX,Texas,True,,3181.0,14.9,48217,Hill,"{""48217"": 100}",Hill,48217,False,False,America/Chicago,"(32.1596, -97.14812)",7.064565906822323,26585.0,4583_0_no,32.07799485451046,-97.22085566134288,10.0
76627,32.10511,-97.3881,Blum,TX,Texas,True,,1334.0,5.5,48217,Hill,"{""48217"": 100}",Hill,48217,False,False,America/Chicago,"(32.10511, -97.3881)",9.96745928395873,26585.0,4583_0_no,32.07799485451046,-97.22085566134288,10.0
76636,32.17213,-97.28307,Covington,TX,Texas,True,,1509.0,12.9,48217,Hill,"{""48217"": 100}",Hill,48217,False,False,America/Chicago,"(32.17213, -97.28307)",7.453613920274066,26585.0,4583_0_no,32.07799485451046,-97.22085566134288,10.0
76645,32.01224,-97.12816,Hillsboro,TX,Texas,True,,10513.0,21.6,48217,Hill,"{""48217"": 100}",Hill,48217,False,False,America/Chicago,"(32.01224, -97.12816)",7.079026944925206,26585.0,4583_0_no,32.07799485451046,-97.22085566134288,10.0
76692,31.95902,-97.33382,Whitney,TX,Texas,True,,10048.0,34.2,48217,Hill,"{""48217"": 100}",Hill,48217,False,False,America/Chicago,"(31.95902, -97.33382)",10.55316602433867,26585.0,4583_0_no,32.07799485451046,-97.22085566134288,10.0
