zip,lat,lng,city,state_id,state_name,zcta,parent_zcta,population,density,county_fips,county_name,county_weights,county_names_all,county_fips_all,imprecise,military,timezone,Coord,distance_miles,market_total_population,market_id,market_center_lat,market_center_lng,radius_miles
39040,32.63907,-90.41314,Bentonia,MS,Mississippi,True,,3209.0,7.1,28163,Yazoo,"{""28163"": 100}",Yazoo,28163,False,False,America/Chicago,"(32.63907, -90.41314)",9.411605004089024,86165.0,4743_0_yes,32.50350719170822,-90.39733380479404,10.0
39041,32.41757,-90.47273,Bolton,MS,Mississippi,True,,3889.0,12.2,28049,Hinds,"{""28049"": 99.58, ""28089"": 0.42}",Hinds|Madison,28049|28089,False,False,America/Chicago,"(32.41757, -90.47273)",7.387584019959903,86165.0,4743_0_yes,32.50350719170822,-90.39733380479404,10.0
39056,32.37384,-90.35083,Clinton,MS,Mississippi,True,,25357.0,180.5,28049,Hinds,"{""28049"": 100}",Hinds,28049,False,False,America/Chicago,"(32.37384, -90.35083)",9.360553386967814,86165.0,4743_0_yes,32.50350719170822,-90.39733380479404,10.0
39071,32.54887,-90.3185,Flora,MS,Mississippi,True,,6496.0,22.9,28089,Madison,"{""28089"": 99.1, ""28049"": 0.9}",Madison|Hinds,28089|28049,False,False,America/Chicago,"(32.54887, -90.3185)",5.560123229434622,86165.0,4743_0_yes,32.50350719170822,-90.39733380479404,10.0
39209,32.39498,-90.30168,Jackson,MS,Mississippi,True,,26835.0,166.3,28049,Hinds,"{""28049"": 96.78, ""28089"": 3.22}",Hinds|Madison,28049|28089,False,False,America/Chicago,"(32.39498, -90.30168)",9.345180409871213,86165.0,4743_0_yes,32.50350719170822,-90.39733380479404,10.0
39213,32.39384,-90.23007,Jackson,MS,Mississippi,True,,20379.0,278.2,28049,Hinds,"{""28049"": 97.01, ""28089"": 2.99}",Hinds|Madison,28049|28089,False,False,America/Chicago,"(32.39384, -90.23007)",12.350147430627464,86165.0,4743_0_yes,32.50350719170822,-90.39733380479404,10.0
