zip,lat,lng,city,state_id,state_name,zcta,parent_zcta,population,density,county_fips,county_name,county_weights,county_names_all,county_fips_all,imprecise,military,timezone,Coord,distance_miles,market_total_population,market_id,market_center_lat,market_center_lng,radius_miles
36006,32.63831,-86.72531,Billingsley,AL,Alabama,True,,1571.0,7.9,1001,Autauga,"{""01001"": 75.59, ""01021"": 24.41}",Autauga|Chilton,01001|01021,False,False,America/Chicago,"(32.63831, -86.72531)",1.5747878767615318,6847.0,4898_0_no,32.6435924071357,-86.7516399315712,10.0
36749,32.54759,-86.85303,Jones,AL,Alabama,True,,741.0,4.6,1001,Autauga,"{""01001"": 83.42, ""01047"": 16.58}",Autauga|Dallas,01001|01047,False,False,America/Chicago,"(32.54759, -86.85303)",8.878738563161422,6847.0,4898_0_no,32.6435924071357,-86.7516399315712,10.0
36750,32.78396,-86.84361,Maplesville,AL,Alabama,True,,2616.0,9.7,1021,Chilton,"{""01021"": 98.76, ""01007"": 1.24}",Chilton|Bibb,01021|01007,False,False,America/Chicago,"(32.78396, -86.84361)",11.074579256717698,6847.0,4898_0_no,32.6435924071357,-86.7516399315712,10.0
36758,32.6491,-86.89975,Plantersville,AL,Alabama,True,,1448.0,7.0,1021,Chilton,"{""01021"": 37.77, ""01047"": 31.23, ""01001"": 31.0}",Chilton|Dallas|Autauga,01021|01047|01001,False,False,America/Chicago,"(32.6491, -86.89975)",8.6251138781804,6847.0,4898_0_no,32.6435924071357,-86.7516399315712,10.0
36790,32.72758,-86.9107,Stanton,AL,Alabama,True,,471.0,14.5,1021,Chilton,"{""01021"": 100}",Chilton,01021,False,False,America/Chicago,"(32.72758, -86.9107)",10.919322087271208,6847.0,4898_0_no,32.6435924071357,-86.7516399315712,10.0
