zip,lat,lng,city,state_id,state_name,zcta,parent_zcta,population,density,county_fips,county_name,county_weights,county_names_all,county_fips_all,imprecise,military,timezone,Coord,distance_miles,market_total_population,market_id,market_center_lat,market_center_lng,radius_miles
29081,33.09161,-81.0426,Ehrhardt,SC,South Carolina,True,,1188.0,5.7,45009,Bamberg,"{""45009"": 85.44, ""45029"": 14.56}",Bamberg|Colleton,45009|45029,False,False,America/New_York,"(33.09161, -81.0426)",9.75502758913956,23604.0,5061_0_yes,33.07052402648438,-81.20921028698278,10.0
29810,32.99358,-81.3798,Allendale,SC,South Carolina,True,,4084.0,12.4,45005,Allendale,"{""45005"": 100}",Allendale,45005,False,False,America/New_York,"(32.99358, -81.3798)",11.220846171321256,23604.0,5061_0_yes,33.07052402648438,-81.20921028698278,10.0
29812,33.21185,-81.37911,Barnwell,SC,South Carolina,True,,10969.0,24.4,45011,Barnwell,"{""45011"": 97.67, ""45005"": 2.33}",Barnwell|Allendale,45011|45005,False,False,America/New_York,"(33.21185, -81.37911)",13.85513762610249,23604.0,5061_0_yes,33.07052402648438,-81.20921028698278,10.0
29827,32.96951,-81.24542,Fairfax,SC,South Carolina,True,,3982.0,14.7,45005,Allendale,"{""45005"": 96.18, ""45049"": 3.82}",Allendale|Hampton,45005|45049,False,False,America/New_York,"(32.96951, -81.24542)",7.28784306889178,23604.0,5061_0_yes,33.07052402648438,-81.20921028698278,10.0
29843,33.18385,-81.18218,Olar,SC,South Carolina,True,,1493.0,8.7,45009,Bamberg,"{""45009"": 81.29, ""45011"": 18.71}",Bamberg|Barnwell,45009|45011,False,False,America/New_York,"(33.18385, -81.18218)",7.984760052398044,23604.0,5061_0_yes,33.07052402648438,-81.20921028698278,10.0
29849,33.10168,-81.23641,Ulmer,SC,South Carolina,True,,452.0,4.2,45005,Allendale,"{""45005"": 73.59, ""45011"": 26.41}",Allendale|Barnwell,45005|45011,False,False,America/New_York,"(33.10168, -81.23641)",2.6670841503719354,23604.0,5061_0_yes,33.07052402648438,-81.20921028698278,10.0
29911,32.9327,-81.14536,Brunson,SC,South Carolina,True,,1436.0,6.9,45049,Hampton,"{""45049"": 99.89, ""45005"": 0.11}",Hampton|Allendale,45049|45005,False,False,America/New_York,"(32.9327, -81.14536)",10.216224950784161,23604.0,5061_0_yes,33.07052402648438,-81.20921028698278,10.0
