zip,lat,lng,city,state_id,state_name,zcta,parent_zcta,population,density,county_fips,county_name,county_weights,county_names_all,county_fips_all,imprecise,military,timezone,Coord,distance_miles,market_total_population,market_id,market_center_lat,market_center_lng,radius_miles
30808,33.38234,-82.40237,Dearing,GA,Georgia,True,,4561.0,31.3,13189,McDuffie,"{""13189"": 98.28, ""13301"": 1.72}",McDuffie|Warren,13189|13301,False,False,America/New_York,"(33.38234, -82.40237)",2.9721096881336484,17816.0,5236_0_yes,33.36199113976848,-82.44775097409209,10.0
30810,33.23247,-82.58849,Gibson,GA,Georgia,True,,2096.0,9.7,13125,Glascock,"{""13125"": 90.84, ""13163"": 4.61, ""13301"": 4.55}",Glascock|Jefferson|Warren,13125|13163|13301,False,False,America/New_York,"(33.23247, -82.58849)",12.089092414591763,17816.0,5236_0_yes,33.36199113976848,-82.44775097409209,10.0
30814,33.43604,-82.31879,Harlem,GA,Georgia,True,,9342.0,67.4,13073,Columbia,"{""13073"": 83.95, ""13189"": 16.05}",Columbia|McDuffie,13073|13189,False,False,America/New_York,"(33.43604, -82.31879)",9.028468619920151,17816.0,5236_0_yes,33.36199113976848,-82.44775097409209,10.0
30818,33.26765,-82.32646,Matthews,GA,Georgia,True,,468.0,6.0,13163,Jefferson,"{""13163"": 100}",Jefferson,13163,False,False,America/New_York,"(33.26765, -82.32646)",9.567336121062551,17816.0,5236_0_yes,33.36199113976848,-82.44775097409209,10.0
30823,33.222,-82.45647,Stapleton,GA,Georgia,True,,1349.0,7.3,13163,Jefferson,"{""13163"": 59.18, ""13301"": 24.59, ""13125"": 16.23}",Jefferson|Warren|Glascock,13163|13301|13125,False,False,America/New_York,"(33.222, -82.45647)",9.685565520815226,17816.0,5236_0_yes,33.36199113976848,-82.44775097409209,10.0
