zip,lat,lng,city,state_id,state_name,zcta,parent_zcta,population,density,county_fips,county_name,county_weights,county_names_all,county_fips_all,imprecise,military,timezone,Coord,distance_miles,market_total_population,market_id,market_center_lat,market_center_lng,radius_miles
35014,33.36097,-86.25909,Alpine,AL,Alabama,True,,4803.0,23.5,1121,Talladega,"{""01121"": 100}",Talladega,01121,False,False,America/Chicago,"(33.36097, -86.25909)",0.595987954899001,45449.0,5247_0_yes,33.36728979041218,-86.2520608364168,10.0
35032,33.26321,-86.33408,Bon Air,AL,Alabama,True,,41.0,282.5,1121,Talladega,"{""01121"": 100}",Talladega,01121,False,False,America/Chicago,"(33.26321, -86.33408)",8.61048249978534,45449.0,5247_0_yes,33.36728979041218,-86.2520608364168,10.0
35044,33.26859,-86.36324,Childersburg,AL,Alabama,True,,7149.0,38.4,1121,Talladega,"{""01121"": 100}",Talladega,01121,False,False,America/Chicago,"(33.26859, -86.36324)",9.365415486515007,45449.0,5247_0_yes,33.36728979041218,-86.2520608364168,10.0
35054,33.50417,-86.32693,Cropwell,AL,Alabama,True,,4459.0,76.2,1115,St. Clair,"{""01115"": 100}",St. Clair,01115,False,False,America/Chicago,"(33.50417, -86.32693)",10.396153349544633,45449.0,5247_0_yes,33.36728979041218,-86.2520608364168,10.0
35149,33.24378,-86.20709,Sycamore,AL,Alabama,True,,249.0,29.0,1121,Talladega,"{""01121"": 100}",Talladega,01121,False,False,America/Chicago,"(33.24378, -86.20709)",8.920082685985507,45449.0,5247_0_yes,33.36728979041218,-86.2520608364168,10.0
35160,33.36898,-86.1005,Talladega,AL,Alabama,True,,25622.0,29.7,1121,Talladega,"{""01121"": 77.58, ""01027"": 22.42}",Talladega|Clay,01121|01027,False,False,America/Chicago,"(33.36898, -86.1005)",8.746390433181867,45449.0,5247_0_yes,33.36728979041218,-86.2520608364168,10.0
35178,33.42003,-86.39993,Vincent,AL,Alabama,True,,3126.0,21.0,1117,Shelby,"{""01117"": 78.69, ""01115"": 21.31}",Shelby|St. Clair,01117|01115,False,False,America/Chicago,"(33.42003, -86.39993)",9.275832067509409,45449.0,5247_0_yes,33.36728979041218,-86.2520608364168,10.0
