zip,lat,lng,city,state_id,state_name,zcta,parent_zcta,population,density,county_fips,county_name,county_weights,county_names_all,county_fips_all,imprecise,military,timezone,Coord,distance_miles,market_total_population,market_id,market_center_lat,market_center_lng,radius_miles
35005,33.59215,-86.99833,Adamsville,AL,Alabama,True,,8815.0,107.2,1073,Jefferson,"{""01073"": 100}",Jefferson,01073,False,False,America/Chicago,"(33.59215, -86.99833)",10.548063358028655,34953.0,5420_0_yes,33.65835287119538,-87.16353497844896,10.0
35062,33.72862,-87.02775,Dora,AL,Alabama,True,,8347.0,68.6,1073,Jefferson,"{""01073"": 65.13, ""01127"": 34.87}",Jefferson|Walker,01073|01127,False,False,America/Chicago,"(33.72862, -87.02775)",9.192518629637975,34953.0,5420_0_yes,33.65835287119538,-87.16353497844896,10.0
35118,33.53916,-87.05212,Mulga,AL,Alabama,True,,3157.0,33.7,1073,Jefferson,"{""01073"": 100}",Jefferson,01073,False,False,America/Chicago,"(33.53916, -87.05212)",10.437224220096763,34953.0,5420_0_yes,33.65835287119538,-87.16353497844896,10.0
35130,33.63235,-87.13313,Quinton,AL,Alabama,True,,3421.0,19.7,1127,Walker,"{""01127"": 56.04, ""01073"": 43.96}",Walker|Jefferson,01127|01073,False,False,America/Chicago,"(33.63235, -87.13313)",2.5072703268486296,34953.0,5420_0_yes,33.65835287119538,-87.16353497844896,10.0
35148,33.75643,-87.04556,Sumiton,AL,Alabama,True,,2209.0,137.2,1127,Walker,"{""01127"": 97.99, ""01073"": 2.01}",Walker|Jefferson,01127|01073,False,False,America/Chicago,"(33.75643, -87.04556)",9.586531048957653,34953.0,5420_0_yes,33.65835287119538,-87.16353497844896,10.0
35550,33.74249,-87.16534,Cordova,AL,Alabama,True,,5322.0,30.5,1127,Walker,"{""01127"": 100}",Walker,01127,False,False,America/Chicago,"(33.74249, -87.16534)",5.814247748882538,34953.0,5420_0_yes,33.65835287119538,-87.16353497844896,10.0
35580,33.7011,-87.27331,Parrish,AL,Alabama,True,,3682.0,22.7,1127,Walker,"{""01127"": 100}",Walker,01127,False,False,America/Chicago,"(33.7011, -87.27331)",6.968514045214228,34953.0,5420_0_yes,33.65835287119538,-87.16353497844896,10.0
