zip,lat,lng,city,state_id,state_name,zcta,parent_zcta,population,density,county_fips,county_name,county_weights,county_names_all,county_fips_all,imprecise,military,timezone,Coord,distance_miles,market_total_population,market_id,market_center_lat,market_center_lng,radius_miles
75415,33.4645,-95.74603,Ben Franklin,TX,Texas,True,,353.0,7.5,48119,Delta,"{""48119"": 100}",Delta,48119,False,False,America/Chicago,"(33.4645, -95.74603)",4.332842753165114,33430.0,5437_0_no,33.52557398138845,-95.72896587204109,10.0
75421,33.6448,-95.71809,Brookston,TX,Texas,True,,719.0,5.2,48277,Lamar,"{""48277"": 100}",Lamar,48277,False,False,America/Chicago,"(33.6448, -95.71809)",8.26148496592616,33430.0,5437_0_no,33.52557398138845,-95.72896587204109,10.0
75432,33.38912,-95.66804,Cooper,TX,Texas,True,,3196.0,12.0,48119,Delta,"{""48119"": 100}",Delta,48119,False,False,America/Chicago,"(33.38912, -95.66804)",10.060960205063978,33430.0,5437_0_no,33.52557398138845,-95.72896587204109,10.0
75441,33.4296,-95.65456,Enloe,TX,Texas,True,,192.0,12.4,48119,Delta,"{""48119"": 100}",Delta,48119,False,False,America/Chicago,"(33.4296, -95.65456)",7.896837467603899,33430.0,5437_0_no,33.52557398138845,-95.72896587204109,10.0
75446,33.61385,-95.89177,Honey Grove,TX,Texas,True,,3415.0,7.3,48147,Fannin,"{""48147"": 75.29, ""48277"": 24.71}",Fannin|Lamar,48147|48277,False,False,America/Chicago,"(33.61385, -95.89177)",11.182409637797882,33430.0,5437_0_no,33.52557398138845,-95.72896587204109,10.0
75460,33.6627,-95.60296,Paris,TX,Texas,True,,23926.0,90.7,48277,Lamar,"{""48277"": 100}",Lamar,48277,False,False,America/Chicago,"(33.6627, -95.60296)",11.93140610516858,33430.0,5437_0_no,33.52557398138845,-95.72896587204109,10.0
75469,33.41269,-95.8248,Pecan Gap,TX,Texas,True,,310.0,3.3,48119,Delta,"{""48119"": 85.8, ""48231"": 14.2}",Delta|Hunt,48119|48231,False,False,America/Chicago,"(33.41269, -95.8248)",9.557321842340796,33430.0,5437_0_no,33.52557398138845,-95.72896587204109,10.0
75470,33.58341,-95.79836,Petty,TX,Texas,True,,147.0,3.9,48277,Lamar,"{""48277"": 100}",Lamar,48277,False,False,America/Chicago,"(33.58341, -95.79836)",5.651043796035466,33430.0,5437_0_no,33.52557398138845,-95.72896587204109,10.0
75477,33.53118,-95.73429,Roxton,TX,Texas,True,,1172.0,7.7,48277,Lamar,"{""48277"": 100}",Lamar,48277,False,False,America/Chicago,"(33.53118, -95.73429)",0.4940328585737219,33430.0,5437_0_no,33.52557398138845,-95.72896587204109,10.0
