zip,lat,lng,city,state_id,state_name,zcta,parent_zcta,population,density,county_fips,county_name,county_weights,county_names_all,county_fips_all,imprecise,military,timezone,Coord,distance_miles,market_total_population,market_id,market_center_lat,market_center_lng,radius_miles
71820,33.78886,-94.24421,Alleene,AR,Arkansas,True,,106.0,3.5,5081,Little River,"{""05081"": 100}",Little River,05081,False,False,America/Chicago,"(33.78886, -94.24421)",1.7062040087279118,17099.0,5603_0_no,33.813356093385465,-94.24045371156156,10.0
71822,33.66946,-94.14755,Ashdown,AR,Arkansas,True,,8320.0,13.0,5081,Little River,"{""05081"": 100}",Little River,05081,False,False,America/Chicago,"(33.66946, -94.14755)",11.28452554869427,17099.0,5603_0_no,33.813356093385465,-94.24045371156156,10.0
71823,33.83101,-94.12547,Ben Lomond,AR,Arkansas,True,,28.0,8.5,5133,Sevier,"{""05133"": 100}",Sevier,05133,False,False,America/Chicago,"(33.83101, -94.12547)",6.711908060760387,17099.0,5603_0_no,33.813356093385465,-94.24045371156156,10.0
71836,33.71297,-94.39584,Foreman,AR,Arkansas,True,,2898.0,6.3,5081,Little River,"{""05081"": 100}",Little River,05081,False,False,America/Chicago,"(33.71297, -94.39584)",11.303608380696915,17099.0,5603_0_no,33.813356093385465,-94.24045371156156,10.0
71842,33.90051,-94.29297,Horatio,AR,Arkansas,True,,2263.0,12.8,5133,Sevier,"{""05133"": 100}",Sevier,05133,False,False,America/Chicago,"(33.90051, -94.29297)",6.7335911590021205,17099.0,5603_0_no,33.813356093385465,-94.24045371156156,10.0
71846,33.9265,-94.12367,Lockesburg,AR,Arkansas,True,,2743.0,4.6,5133,Sevier,"{""05133"": 95.91, ""05081"": 4.09}",Sevier|Little River,05133|05081,False,False,America/Chicago,"(33.9265, -94.12367)",10.295605181946785,17099.0,5603_0_no,33.813356093385465,-94.24045371156156,10.0
71865,33.74169,-94.14598,Wilton,AR,Arkansas,True,,192.0,88.1,5081,Little River,"{""05081"": 100}",Little River,05081,False,False,America/Chicago,"(33.74169, -94.14598)",7.345538631601632,17099.0,5603_0_no,33.813356093385465,-94.24045371156156,10.0
71866,33.86738,-94.38042,Winthrop,AR,Arkansas,True,,549.0,4.0,5081,Little River,"{""05081"": 99.81, ""05133"": 0.19}",Little River|Sevier,05081|05133,False,False,America/Chicago,"(33.86738, -94.38042)",8.857384360370581,17099.0,5603_0_no,33.813356093385465,-94.24045371156156,10.0
