zip,lat,lng,city,state_id,state_name,zcta,parent_zcta,population,density,county_fips,county_name,county_weights,county_names_all,county_fips_all,imprecise,military,timezone,Coord,distance_miles,market_total_population,market_id,market_center_lat,market_center_lng,radius_miles
29010,34.21487,-80.26946,Bishopville,SC,South Carolina,True,,12017.0,23.3,45061,Lee,"{""45061"": 99.29, ""45055"": 0.71}",Lee|Kershaw,45061|45055,False,False,America/New_York,"(34.21487, -80.26946)",10.292481942913286,36984.0,5732_0_no,34.083257257044224,-80.18514765244524,10.0
29046,34.11252,-80.16131,Elliott,SC,South Carolina,True,,130.0,127.1,45061,Lee,"{""45061"": 100}",Lee,45061,False,False,America/New_York,"(34.11252, -80.16131)",2.4388667782765987,36984.0,5732_0_no,34.083257257044224,-80.18514765244524,10.0
29069,34.18798,-80.09654,Lamar,SC,South Carolina,True,,4681.0,23.0,45031,Darlington,"{""45031"": 78.45, ""45061"": 21.55}",Darlington|Lee,45031|45061,False,False,America/New_York,"(34.18798, -80.09654)",8.83365163562975,36984.0,5732_0_no,34.083257257044224,-80.18514765244524,10.0
29080,34.01525,-80.08374,Lynchburg,SC,South Carolina,True,,2883.0,8.7,45061,Lee,"{""45061"": 55.63, ""45085"": 44.37}",Lee|Sumter,45061|45085,False,False,America/New_York,"(34.01525, -80.08374)",7.468700389160183,36984.0,5732_0_no,34.083257257044224,-80.18514765244524,10.0
29104,33.99524,-80.21373,Mayesville,SC,South Carolina,True,,1452.0,8.5,45061,Lee,"{""45061"": 51.67, ""45085"": 48.33}",Lee|Sumter,45061|45085,False,False,America/New_York,"(33.99524, -80.21373)",6.297747111418363,36984.0,5732_0_no,34.083257257044224,-80.18514765244524,10.0
29153,33.96515,-80.30675,Sumter,SC,South Carolina,True,,15821.0,42.4,45085,Sumter,"{""45085"": 87.28, ""45061"": 12.72}",Sumter|Lee,45085|45061,False,False,America/New_York,"(33.96515, -80.30675)",10.72768854058798,36984.0,5732_0_no,34.083257257044224,-80.18514765244524,10.0
