zip,lat,lng,city,state_id,state_name,zcta,parent_zcta,population,density,county_fips,county_name,county_weights,county_names_all,county_fips_all,imprecise,military,timezone,Coord,distance_miles,market_total_population,market_id,market_center_lat,market_center_lng,radius_miles
29016,34.20367,-80.99296,Blythewood,SC,South Carolina,True,,24255.0,107.7,45079,Richland,"{""45079"": 90.46, ""45039"": 9.54}",Richland|Fairfield,45079|45039,False,False,America/New_York,"(34.20367, -80.99296)",2.306671342298856,215859.0,5742_0_yes,34.22907569449303,-80.96676805027496,10.0
29045,34.18389,-80.8141,Elgin,SC,South Carolina,True,,27751.0,157.8,45055,Kershaw,"{""45055"": 64.46, ""45079"": 33.6, ""45039"": 1.94}",Kershaw|Richland|Fairfield,45055|45079|45039,False,False,America/New_York,"(34.18389, -80.8141)",9.26550075544485,215859.0,5742_0_yes,34.22907569449303,-80.96676805027496,10.0
29130,34.32757,-80.89205,Ridgeway,SC,South Carolina,True,,7064.0,18.1,45039,Fairfield,"{""45039"": 83.45, ""45055"": 15.42, ""45079"": 1.13}",Fairfield|Kershaw|Richland,45039|45055|45079,False,False,America/New_York,"(34.32757, -80.89205)",8.031794282413914,215859.0,5742_0_yes,34.22907569449303,-80.96676805027496,10.0
29180,34.36472,-81.09821,Winnsboro,SC,South Carolina,True,,13119.0,16.5,45039,Fairfield,"{""45039"": 95.55, ""45079"": 4.45}",Fairfield|Richland,45039|45079,False,False,America/New_York,"(34.36472, -81.09821)",12.005309582370497,215859.0,5742_0_yes,34.22907569449303,-80.96676805027496,10.0
29203,34.10198,-81.04009,Columbia,SC,South Carolina,True,,40638.0,252.0,45079,Richland,"{""45079"": 100}",Richland,45079,False,False,America/New_York,"(34.10198, -81.04009)",9.730627955827526,215859.0,5742_0_yes,34.22907569449303,-80.96676805027496,10.0
29223,34.09243,-80.92153,Columbia,SC,South Carolina,True,,52895.0,806.9,45079,Richland,"{""45079"": 100}",Richland,45079,False,False,America/New_York,"(34.09243, -80.92153)",9.789166679454492,215859.0,5742_0_yes,34.22907569449303,-80.96676805027496,10.0
29229,34.14697,-80.89316,Columbia,SC,South Carolina,True,,50137.0,1060.0,45079,Richland,"{""45079"": 100}",Richland,45079,False,False,America/New_York,"(34.14697, -80.89316)",7.06266731633549,215859.0,5742_0_yes,34.22907569449303,-80.96676805027496,10.0
