zip,lat,lng,city,state_id,state_name,zcta,parent_zcta,population,density,county_fips,county_name,county_weights,county_names_all,county_fips_all,imprecise,military,timezone,Coord,distance_miles,market_total_population,market_id,market_center_lat,market_center_lng,radius_miles
35031,34.10256,-86.5455,Blountsville,AL,Alabama,True,,7460.0,22.1,1009,Blount,"{""01009"": 100}",Blount,01009,False,False,America/Chicago,"(34.10256, -86.5455)",4.785592656950141,29080.0,5750_0_no,34.09216661548339,-86.46280522095726,10.0
35049,33.95674,-86.59904,Cleveland,AL,Alabama,True,,3914.0,36.3,1009,Blount,"{""01009"": 100}",Blount,01009,False,False,America/Chicago,"(33.95674, -86.59904)",12.182660368502024,29080.0,5750_0_no,34.09216661548339,-86.46280522095726,10.0
35083,34.19718,-86.5931,Holly Pond,AL,Alabama,True,,3394.0,40.3,1043,Cullman,"{""01043"": 100}",Cullman,01043,False,False,America/Chicago,"(34.19718, -86.5931)",10.399920229803552,29080.0,5750_0_no,34.09216661548339,-86.46280522095726,10.0
35952,34.05322,-86.3082,Altoona,AL,Alabama,True,,8318.0,29.3,1055,Etowah,"{""01055"": 55.01, ""01009"": 44.67, ""01095"": 0.32}",Etowah|Blount|Marshall,01055|01009|01095,False,False,America/Chicago,"(34.05322, -86.3082)",9.248498652973172,29080.0,5750_0_no,34.09216661548339,-86.46280522095726,10.0
35980,34.17719,-86.38335,Horton,AL,Alabama,True,,5925.0,41.6,1095,Marshall,"{""01095"": 52.18, ""01009"": 47.82}",Marshall|Blount,01095|01009,False,False,America/Chicago,"(34.17719, -86.38335)",7.426896042004872,29080.0,5750_0_no,34.09216661548339,-86.46280522095726,10.0
35990,34.06676,-86.3052,Walnut Grove,AL,Alabama,True,,69.0,474.6,1055,Etowah,"{""01055"": 100}",Etowah,01055,False,False,America/Chicago,"(34.06676, -86.3052)",9.18857749581124,29080.0,5750_0_no,34.09216661548339,-86.46280522095726,10.0
