zip,lat,lng,city,state_id,state_name,zcta,parent_zcta,population,density,county_fips,county_name,county_weights,county_names_all,county_fips_all,imprecise,military,timezone,Coord,distance_miles,market_total_population,market_id,market_center_lat,market_center_lng,radius_miles
71833,34.13409,-94.02665,Dierks,AR,Arkansas,True,,1943.0,5.1,5061,Howard,"{""05061"": 89.46, ""05133"": 10.54}",Howard|Sevier,05061|05133,False,False,America/Chicago,"(34.13409, -94.02665)",10.911774135271138,4012.0,5779_0_yes,34.24749264452711,-93.89377075856112,10.0
71950,34.25072,-93.72767,Kirby,AR,Arkansas,True,,739.0,13.9,5109,Pike,"{""05109"": 100}",Pike,05109,False,False,America/Chicago,"(34.25072, -93.72767)",9.489052012056916,4012.0,5779_0_yes,34.24749264452711,-93.89377075856112,10.0
71952,34.31067,-93.84992,Langley,AR,Arkansas,True,,30.0,0.7,5109,Pike,"{""05109"": 99.88, ""05097"": 0.12}",Pike|Montgomery,05109|05097,False,False,America/Chicago,"(34.31067, -93.84992)",5.032109684809125,4012.0,5779_0_yes,34.24749264452711,-93.89377075856112,10.0
71959,34.25081,-93.92633,Newhope,AR,Arkansas,True,,746.0,4.1,5109,Pike,"{""05109"": 50.34, ""05061"": 49.66}",Pike|Howard,05109|05061,False,False,America/Chicago,"(34.25081, -93.92633)",1.8736121137261372,4012.0,5779_0_yes,34.24749264452711,-93.89377075856112,10.0
71971,34.30411,-94.0313,Umpire,AR,Arkansas,True,,554.0,3.2,5061,Howard,"{""05061"": 83.4, ""05109"": 16.6}",Howard|Pike,05061|05109,False,False,America/Chicago,"(34.30411, -94.0313)",8.77263227882839,4012.0,5779_0_yes,34.24749264452711,-93.89377075856112,10.0
