zip,lat,lng,city,state_id,state_name,zcta,parent_zcta,population,density,county_fips,county_name,county_weights,county_names_all,county_fips_all,imprecise,military,timezone,Coord,distance_miles,market_total_population,market_id,market_center_lat,market_center_lng,radius_miles
92305,34.17018,-116.83231,Angelus Oaks,CA,California,True,,613.0,2.0,6071,San Bernardino,"{""06071"": 100}",San Bernardino,06071,False,False,America/Los_Angeles,"(34.17018, -116.83231)",2.6271758790505992,20433.0,5837_0_no,34.13527038743554,-116.81409936474036,10.0
92314,34.2576,-116.80075,Big Bear City,CA,California,True,,10684.0,112.7,6071,San Bernardino,"{""06071"": 100}",San Bernardino,06071,False,False,America/Los_Angeles,"(34.2576, -116.80075)",8.486530641936188,20433.0,5837_0_no,34.13527038743554,-116.81409936474036,10.0
92315,34.22011,-116.95301,Big Bear Lake,CA,California,True,,5307.0,69.8,6071,San Bernardino,"{""06071"": 100}",San Bernardino,06071,False,False,America/Los_Angeles,"(34.22011, -116.95301)",9.869606178924851,20433.0,5837_0_no,34.13527038743554,-116.81409936474036,10.0
92333,34.26951,-116.96277,Fawnskin,CA,California,True,,409.0,15.7,6071,San Bernardino,"{""06071"": 100}",San Bernardino,06071,False,False,America/Los_Angeles,"(34.26951, -116.96277)",12.577886516415463,20433.0,5837_0_no,34.13527038743554,-116.81409936474036,10.0
92339,34.08189,-116.83838,Forest Falls,CA,California,True,,1382.0,6.8,6071,San Bernardino,"{""06071"": 100}",San Bernardino,06071,False,False,America/Los_Angeles,"(34.08189, -116.83838)",3.9411289265697738,20433.0,5837_0_no,34.13527038743554,-116.81409936474036,10.0
92386,34.23702,-116.82523,Sugarloaf,CA,California,True,,2038.0,342.6,6071,San Bernardino,"{""06071"": 100}",San Bernardino,06071,False,False,America/Los_Angeles,"(34.23702, -116.82523)",7.058953976776502,20433.0,5837_0_no,34.13527038743554,-116.81409936474036,10.0
