zip,lat,lng,city,state_id,state_name,zcta,parent_zcta,population,density,county_fips,county_name,county_weights,county_names_all,county_fips_all,imprecise,military,timezone,Coord,distance_miles,market_total_population,market_id,market_center_lat,market_center_lng,radius_miles
28340,34.47136,-79.1403,Fairmont,NC,North Carolina,True,,10695.0,33.5,37155,Robeson,"{""37155"": 100}",Robeson,37155,False,False,America/New_York,"(34.47136, -79.1403)",11.372297229330973,25458.0,5898_0_no,34.371228311468656,-78.98194051226156,10.0
28369,34.42184,-79.02901,Orrum,NC,North Carolina,True,,2488.0,12.9,37155,Robeson,"{""37155"": 100}",Robeson,37155,False,False,America/New_York,"(34.42184, -79.02901)",4.407939354804171,25458.0,5898_0_no,34.371228311468656,-78.98194051226156,10.0
28375,34.47723,-79.04337,Proctorville,NC,North Carolina,True,,187.0,47.6,37155,Robeson,"{""37155"": 100}",Robeson,37155,False,False,America/New_York,"(34.47723, -79.04337)",8.117806077344154,25458.0,5898_0_no,34.371228311468656,-78.98194051226156,10.0
28430,34.28419,-78.93333,Cerro Gordo,NC,North Carolina,True,,2250.0,18.5,37047,Columbus,"{""37047"": 100}",Columbus,37047,False,False,America/New_York,"(34.28419, -78.93333)",6.62259331400333,25458.0,5898_0_no,34.371228311468656,-78.98194051226156,10.0
28431,34.31661,-78.84397,Chadbourn,NC,North Carolina,True,,7093.0,34.9,37047,Columbus,"{""37047"": 100}",Columbus,37047,False,False,America/New_York,"(34.31661, -78.84397)",8.728872486356158,25458.0,5898_0_no,34.371228311468656,-78.98194051226156,10.0
28438,34.4166,-78.92221,Evergreen,NC,North Carolina,True,,1654.0,14.2,37047,Columbus,"{""37047"": 95.51, ""37017"": 4.49}",Columbus|Bladen,37047|37017,False,False,America/New_York,"(34.4166, -78.92221)",4.628691977755391,25458.0,5898_0_no,34.371228311468656,-78.98194051226156,10.0
28439,34.29411,-79.00947,Fair Bluff,NC,North Carolina,True,,1091.0,17.3,37047,Columbus,"{""37047"": 100}",Columbus,37047,False,False,America/New_York,"(34.29411, -79.00947)",5.555056218427871,25458.0,5898_0_no,34.371228311468656,-78.98194051226156,10.0
