zip,lat,lng,city,state_id,state_name,zcta,parent_zcta,population,density,county_fips,county_name,county_weights,county_names_all,county_fips_all,imprecise,military,timezone,Coord,distance_miles,market_total_population,market_id,market_center_lat,market_center_lng,radius_miles
30105,34.47012,-85.15532,Armuchee,GA,Georgia,True,,1947.0,13.8,13115,Floyd,"{""13115"": 80.77, ""13055"": 19.23}",Floyd|Chattooga,13115|13055,False,False,America/New_York,"(34.47012, -85.15532)",8.506427543338862,53561.0,5923_0_yes,34.52458543428127,-85.021349719931,10.0
30701,34.49535,-84.95385,Calhoun,GA,Georgia,True,,42050.0,107.0,13129,Gordon,"{""13129"": 94.22, ""13115"": 5.78}",Gordon|Floyd,13129|13115,False,False,America/New_York,"(34.49535, -84.95385)",4.341616589388756,53561.0,5923_0_yes,34.52458543428127,-85.021349719931,10.0
30733,34.41574,-85.04349,Plainville,GA,Georgia,True,,2171.0,53.7,13129,Gordon,"{""13129"": 89.1, ""13115"": 10.9}",Gordon|Floyd,13129|13115,False,False,America/New_York,"(34.41574, -85.04349)",7.625515193687912,53561.0,5923_0_yes,34.52458543428127,-85.021349719931,10.0
30735,34.60183,-84.89375,Resaca,GA,Georgia,True,,6631.0,46.6,13129,Gordon,"{""13129"": 71.94, ""13213"": 20.14, ""13313"": 7.92}",Gordon|Murray|Whitfield,13129|13213|13313,False,False,America/New_York,"(34.60183, -84.89375)",9.010853033027523,53561.0,5923_0_yes,34.52458543428127,-85.021349719931,10.0
30746,34.59214,-85.03285,Sugar Valley,GA,Georgia,True,,762.0,13.8,13129,Gordon,"{""13129"": 84.55, ""13295"": 15.45}",Gordon|Walker,13129|13295,False,False,America/New_York,"(34.59214, -85.03285)",4.713224660544212,53561.0,5923_0_yes,34.52458543428127,-85.021349719931,10.0
