zip,lat,lng,city,state_id,state_name,zcta,parent_zcta,population,density,county_fips,county_name,county_weights,county_names_all,county_fips_all,imprecise,military,timezone,Coord,distance_miles,market_total_population,market_id,market_center_lat,market_center_lng,radius_miles
71602,34.27463,-92.13302,White Hall,AR,Arkansas,True,,15642.0,46.1,5069,Jefferson,"{""05069"": 83.32, ""05053"": 16.68}",Jefferson|Grant,05069|05053,False,False,America/Chicago,"(34.27463, -92.13302)",11.613269151618425,37069.0,5936_0_no,34.39024370148132,-92.28076225622937,10.0
72065,34.52102,-92.28648,Hensley,AR,Arkansas,True,,5252.0,32.4,5125,Saline,"{""05125"": 57.55, ""05119"": 26.07, ""05053"": 16.38}",Saline|Pulaski|Grant,05125|05119|05053,False,False,America/Chicago,"(34.52102, -92.28648)",9.041651542930767,37069.0,5936_0_no,34.39024370148132,-92.28076225622937,10.0
72079,34.38958,-92.19919,Jefferson,AR,Arkansas,True,,905.0,16.8,5069,Jefferson,"{""05069"": 65.5, ""05053"": 34.5}",Jefferson|Grant,05069|05053,False,False,America/Chicago,"(34.38958, -92.19919)",4.651213718614109,37069.0,5936_0_no,34.39024370148132,-92.28076225622937,10.0
72132,34.44,-92.19468,Redfield,AR,Arkansas,True,,2849.0,15.9,5069,Jefferson,"{""05069"": 57.44, ""05053"": 42.56}",Jefferson|Grant,05069|05053,False,False,America/Chicago,"(34.44, -92.19468)",5.991156082833026,37069.0,5936_0_no,34.39024370148132,-92.28076225622937,10.0
72150,34.30999,-92.39642,Sheridan,AR,Arkansas,True,,12421.0,16.3,5053,Grant,"{""05053"": 99.28, ""05069"": 0.72}",Grant|Jefferson,05053|05069,False,False,America/Chicago,"(34.30999, -92.39642)",8.618289263291308,37069.0,5936_0_no,34.39024370148132,-92.28076225622937,10.0
