zip,lat,lng,city,state_id,state_name,zcta,parent_zcta,population,density,county_fips,county_name,county_weights,county_names_all,county_fips_all,imprecise,military,timezone,Coord,distance_miles,market_total_population,market_id,market_center_lat,market_center_lng,radius_miles
29658,34.76191,-83.29858,Long Creek,SC,South Carolina,True,,397.0,7.2,45073,Oconee,"{""45073"": 100}",Oconee,45073,False,False,America/New_York,"(34.76191, -83.29858)",8.271115781376002,43049.0,6079_0_no,34.66723948300928,-83.38771043527203,10.0
30523,34.72012,-83.54166,Clarkesville,GA,Georgia,True,,12099.0,25.4,13137,Habersham,"{""13137"": 83.85, ""13241"": 16.15}",Habersham|Rabun,13137|13241,False,False,America/New_York,"(34.72012, -83.54166)",9.478254881442682,43049.0,6079_0_no,34.66723948300928,-83.38771043527203,10.0
30552,34.76965,-83.44575,Lakemont,GA,Georgia,True,,1640.0,11.4,13241,Rabun,"{""13241"": 100}",Rabun,13241,False,False,America/New_York,"(34.76965, -83.44575)",7.805965841614828,43049.0,6079_0_no,34.66723948300928,-83.38771043527203,10.0
30563,34.5596,-83.46283,Mount Airy,GA,Georgia,True,,6274.0,62.3,13137,Habersham,"{""13137"": 98.78, ""13257"": 1.22}",Habersham|Stephens,13137|13257,False,False,America/New_York,"(34.5596, -83.46283)",8.576611347317442,43049.0,6079_0_no,34.66723948300928,-83.38771043527203,10.0
30573,34.74242,-83.39986,Tallulah Falls,GA,Georgia,True,,218.0,42.3,13241,Rabun,"{""13241"": 100}",Rabun,13241,False,False,America/New_York,"(34.74242, -83.39986)",5.2401208875856256,43049.0,6079_0_no,34.66723948300928,-83.38771043527203,10.0
30577,34.55549,-83.32632,Toccoa,GA,Georgia,True,,22261.0,54.6,13257,Stephens,"{""13257"": 83.2, ""13119"": 11.09, ""13137"": 4.32, ""13011"": 1.39}",Stephens|Franklin|Habersham|Banks,13257|13119|13137|13011,False,False,America/New_York,"(34.55549, -83.32632)",8.47368174805891,43049.0,6079_0_no,34.66723948300928,-83.38771043527203,10.0
30581,34.80195,-83.42405,Wiley,GA,Georgia,True,,160.0,218.3,13241,Rabun,"{""13241"": 100}",Rabun,13241,False,False,America/New_York,"(34.80195, -83.42405)",9.53358309222097,43049.0,6079_0_no,34.66723948300928,-83.38771043527203,10.0
