zip,lat,lng,city,state_id,state_name,zcta,parent_zcta,population,density,county_fips,county_name,county_weights,county_names_all,county_fips_all,imprecise,military,timezone,Coord,distance_miles,market_total_population,market_id,market_center_lat,market_center_lng,radius_miles
28330,34.91077,-79.82332,Cordova,NC,North Carolina,True,,240.0,269.7,37153,Richmond,"{""37153"": 100}",Richmond,37153,False,False,America/New_York,"(34.91077, -79.82332)",6.585864844639985,48061.0,6236_0_no,34.95161705227306,-79.71827205139857,10.0
28338,35.09644,-79.75506,Ellerbe,NC,North Carolina,True,,3895.0,10.2,37153,Richmond,"{""37153"": 100}",Richmond,37153,False,False,America/New_York,"(35.09644, -79.75506)",10.220517783032008,48061.0,6236_0_no,34.95161705227306,-79.71827205139857,10.0
28345,34.87464,-79.6716,Hamlet,NC,North Carolina,True,,11484.0,62.4,37153,Richmond,"{""37153"": 96.47, ""37165"": 3.53}",Richmond|Scotland,37153|37165,False,False,America/New_York,"(34.87464, -79.6716)",5.939710064080479,48061.0,6236_0_no,34.95161705227306,-79.71827205139857,10.0
28347,35.04652,-79.56203,Hoffman,NC,North Carolina,True,,2012.0,20.6,37153,Richmond,"{""37153"": 84.14, ""37125"": 15.86}",Richmond|Moore,37153|37125,False,False,America/New_York,"(35.04652, -79.56203)",11.008935458641057,48061.0,6236_0_no,34.95161705227306,-79.71827205139857,10.0
28351,34.84098,-79.56102,Laurel Hill,NC,North Carolina,True,,4767.0,31.3,37165,Scotland,"{""37165"": 97.05, ""37153"": 2.95}",Scotland|Richmond,37165|37153,False,False,America/New_York,"(34.84098, -79.56102)",11.740890615720495,48061.0,6236_0_no,34.95161705227306,-79.71827205139857,10.0
28379,34.93073,-79.78252,Rockingham,NC,North Carolina,True,,25663.0,65.4,37153,Richmond,"{""37153"": 100}",Richmond,37153,False,False,America/New_York,"(34.93073, -79.78252)",3.914643379213987,48061.0,6236_0_no,34.95161705227306,-79.71827205139857,10.0
