zip,lat,lng,city,state_id,state_name,zcta,parent_zcta,population,density,county_fips,county_name,county_weights,county_names_all,county_fips_all,imprecise,military,timezone,Coord,distance_miles,market_total_population,market_id,market_center_lat,market_center_lng,radius_miles
27306,35.22098,-79.97685,Mount Gilead,NC,North Carolina,True,,6226.0,13.0,37123,Montgomery,"{""37123"": 77.29, ""37153"": 22.71}",Montgomery|Richmond,37123|37153,False,False,America/New_York,"(35.22098, -79.97685)",13.042147097590384,37210.0,6246_0_yes,35.09692632233698,-80.15087129881883,10.0
28007,35.12169,-80.13052,Ansonville,NC,North Carolina,True,,616.0,26.0,37007,Anson,"{""37007"": 100}",Anson,37007,False,False,America/New_York,"(35.12169, -80.13052)",2.0617325027855635,37210.0,6246_0_yes,35.09692632233698,-80.15087129881883,10.0
28128,35.21476,-80.15862,Norwood,NC,North Carolina,True,,7641.0,43.2,37167,Stanly,"{""37167"": 100}",Stanly,37167,False,False,America/New_York,"(35.21476, -80.15862)",8.153290141037767,37210.0,6246_0_yes,35.09692632233698,-80.15087129881883,10.0
28129,35.23224,-80.32737,Oakboro,NC,North Carolina,True,,5772.0,51.4,37167,Stanly,"{""37167"": 100}",Stanly,37167,False,False,America/New_York,"(35.23224, -80.32737)",13.667361628563322,37210.0,6246_0_yes,35.09692632233698,-80.15087129881883,10.0
28135,35.03547,-80.21412,Polkton,NC,North Carolina,True,,5496.0,21.0,37007,Anson,"{""37007"": 100}",Anson,37007,False,False,America/New_York,"(35.03547, -80.21412)",5.551965241765798,37210.0,6246_0_yes,35.09692632233698,-80.15087129881883,10.0
28170,34.99263,-80.09259,Wadesboro,NC,North Carolina,True,,11459.0,24.9,37007,Anson,"{""37007"": 100}",Anson,37007,False,False,America/New_York,"(34.99263, -80.09259)",7.924521934286974,37210.0,6246_0_yes,35.09692632233698,-80.15087129881883,10.0
