zip,lat,lng,city,state_id,state_name,zcta,parent_zcta,population,density,county_fips,county_name,county_weights,county_names_all,county_fips_all,imprecise,military,timezone,Coord,distance_miles,market_total_population,market_id,market_center_lat,market_center_lng,radius_miles
27242,35.33645,-79.63761,Eagle Springs,NC,North Carolina,True,,1627.0,12.4,37125,Moore,"{""37125"": 100}",Moore,37125,False,False,America/New_York,"(35.33645, -79.63761)",7.9714848892382175,63751.0,6403_0_no,35.2410330134384,-79.55815284115567,10.0
27281,35.18538,-79.62689,Jackson Springs,NC,North Carolina,True,,3211.0,18.2,37125,Moore,"{""37125"": 58.77, ""37123"": 28.98, ""37153"": 12.25}",Moore|Montgomery|Richmond,37125|37123|37153,False,False,America/New_York,"(35.18538, -79.62689)",5.462795009011048,63751.0,6403_0_no,35.2410330134384,-79.55815284115567,10.0
27376,35.25607,-79.53184,West End,NC,North Carolina,True,,9737.0,54.8,37125,Moore,"{""37125"": 100}",Moore,37125,False,False,America/New_York,"(35.25607, -79.53184)",1.8121301256646656,63751.0,6403_0_no,35.2410330134384,-79.55815284115567,10.0
28315,35.1122,-79.44452,Aberdeen,NC,North Carolina,True,,13804.0,82.0,37125,Moore,"{""37125"": 66.45, ""37093"": 33.55}",Moore|Hoke,37125|37093,False,False,America/New_York,"(35.1122, -79.44452)",10.973648288109873,63751.0,6403_0_no,35.2410330134384,-79.55815284115567,10.0
28327,35.35759,-79.42333,Carthage,NC,North Carolina,True,,17406.0,36.0,37125,Moore,"{""37125"": 100}",Moore,37125,False,False,America/New_York,"(35.35759, -79.42333)",11.075052964079445,63751.0,6403_0_no,35.2410330134384,-79.55815284115567,10.0
28367,35.16982,-79.72325,Norman,NC,North Carolina,True,,172.0,119.1,37153,Richmond,"{""37153"": 100}",Richmond,37153,False,False,America/New_York,"(35.16982, -79.72325)",10.539657188198035,63751.0,6403_0_no,35.2410330134384,-79.55815284115567,10.0
28374,35.19705,-79.46009,Pinehurst,NC,North Carolina,True,,17794.0,326.6,37125,Moore,"{""37125"": 100}",Moore,37125,False,False,America/New_York,"(35.19705, -79.46009)",6.31460874006704,63751.0,6403_0_no,35.2410330134384,-79.55815284115567,10.0
