zip,lat,lng,city,state_id,state_name,zcta,parent_zcta,population,density,county_fips,county_name,county_weights,county_names_all,county_fips_all,imprecise,military,timezone,Coord,distance_miles,market_total_population,market_id,market_center_lat,market_center_lng,radius_miles
28139,35.34736,-81.99702,Rutherfordton,NC,North Carolina,True,,20948.0,44.5,37161,Rutherford,"{""37161"": 86.69, ""37149"": 13.31}",Rutherford|Polk,37161|37149,False,False,America/New_York,"(35.34736, -81.99702)",7.330688634182127,29956.0,6419_0_yes,35.38945473649811,-82.11645176325337,10.0
28167,35.5062,-81.95986,Union Mills,NC,North Carolina,True,,2284.0,12.0,37161,Rutherford,"{""37161"": 93.31, ""37111"": 6.69}",Rutherford|McDowell,37161|37111,False,False,America/New_York,"(35.5062, -81.95986)",11.947900354050407,29956.0,6419_0_yes,35.38945473649811,-82.11645176325337,10.0
28720,35.42766,-82.25145,Chimney Rock,NC,North Carolina,True,,174.0,7.2,37161,Rutherford,"{""37161"": 100}",Rutherford,37161,False,False,America/New_York,"(35.42766, -82.25145)",8.047544418313702,29956.0,6419_0_yes,35.38945473649811,-82.11645176325337,10.0
28746,35.461,-82.16779,Lake Lure,NC,North Carolina,True,,2575.0,22.1,37161,Rutherford,"{""37161"": 100}",Rutherford,37161,False,False,America/New_York,"(35.461, -82.16779)",5.726347424860488,29956.0,6419_0_yes,35.38945473649811,-82.11645176325337,10.0
28756,35.34256,-82.18219,Mill Spring,NC,North Carolina,True,,3975.0,19.3,37149,Polk,"{""37149"": 98.85, ""37161"": 1.15}",Polk|Rutherford,37149|37161,False,False,America/New_York,"(35.34256, -82.18219)",4.921127854266647,29956.0,6419_0_yes,35.38945473649811,-82.11645176325337,10.0
