zip,lat,lng,city,state_id,state_name,zcta,parent_zcta,population,density,county_fips,county_name,county_weights,county_names_all,county_fips_all,imprecise,military,timezone,Coord,distance_miles,market_total_population,market_id,market_center_lat,market_center_lng,radius_miles
37341,35.21386,-85.0834,Harrison,TN,Tennessee,True,,12010.0,137.4,47065,Hamilton,"{""47065"": 100}",Hamilton,47065,False,False,America/New_York,"(35.21386, -85.0834)",7.897765402174665,162937.0,6419_0_no,35.249299842757594,-85.21644269110286,10.0
37343,35.16904,-85.20899,Hixson,TN,Tennessee,True,,42120.0,386.3,47065,Hamilton,"{""47065"": 100}",Hamilton,47065,False,False,America/New_York,"(35.16904, -85.20899)",5.5613641020868965,162937.0,6419_0_no,35.249299842757594,-85.21644269110286,10.0
37363,35.11551,-85.0549,Ooltewah,TN,Tennessee,True,,41503.0,266.5,47065,Hamilton,"{""47065"": 100}",Hamilton,47065,False,False,America/New_York,"(35.11551, -85.0549)",12.987402808058661,162937.0,6419_0_no,35.249299842757594,-85.21644269110286,10.0
37377,35.21243,-85.3389,Signal Mountain,TN,Tennessee,True,,15496.0,74.4,47065,Hamilton,"{""47065"": 50.17, ""47153"": 46.24, ""47115"": 3.59}",Hamilton|Sequatchie|Marion,47065|47153|47115,False,False,America/Chicago,"(35.21243, -85.3389)",7.3657761734005005,162937.0,6419_0_no,35.249299842757594,-85.21644269110286,10.0
37379,35.29407,-85.17429,Soddy Daisy,TN,Tennessee,True,,28115.0,102.0,47065,Hamilton,"{""47065"": 88.6, ""47153"": 6.08, ""47007"": 5.32}",Hamilton|Sequatchie|Bledsoe,47065|47153|47007,False,False,America/New_York,"(35.29407, -85.17429)",3.9016190152469856,162937.0,6419_0_no,35.249299842757594,-85.21644269110286,10.0
37415,35.12735,-85.27932,Chattanooga,TN,Tennessee,True,,23693.0,522.2,47065,Hamilton,"{""47065"": 100}",Hamilton,47065,False,False,America/New_York,"(35.12735, -85.27932)",9.143440921552433,162937.0,6419_0_no,35.249299842757594,-85.21644269110286,10.0
