zip,lat,lng,city,state_id,state_name,zcta,parent_zcta,population,density,county_fips,county_name,county_weights,county_names_all,county_fips_all,imprecise,military,timezone,Coord,distance_miles,market_total_population,market_id,market_center_lat,market_center_lng,radius_miles
38311,35.43842,-88.09737,Bath Springs,TN,Tennessee,True,,907.0,6.3,47039,Decatur,"{""47039"": 100}",Decatur,47039,False,False,America/Chicago,"(35.43842, -88.09737)",3.645595817866746,10612.0,6436_0_yes,35.39828641161676,-88.13940105053695,10.0
38361,35.31897,-88.29232,Morris Chapel,TN,Tennessee,True,,1001.0,8.6,47071,Hardin,"{""47071"": 91.92, ""47109"": 8.08}",Hardin|McNairy,47071|47109,False,False,America/Chicago,"(35.31897, -88.29232)",10.211874289139967,10612.0,6436_0_yes,35.39828641161676,-88.13940105053695,10.0
38370,35.38942,-88.2465,Saltillo,TN,Tennessee,True,,772.0,13.7,47071,Hardin,"{""47071"": 88.4, ""47077"": 11.5, ""47039"": 0.1}",Hardin|Henderson|Decatur,47071|47077|47039,False,False,America/Chicago,"(35.38942, -88.2465)",6.063295983614894,10612.0,6436_0_yes,35.39828641161676,-88.13940105053695,10.0
38371,35.42346,-88.2967,Sardis,TN,Tennessee,True,,951.0,8.6,47077,Henderson,"{""47077"": 53.39, ""47071"": 42.52, ""47039"": 4.09}",Henderson|Hardin|Decatur,47077|47071|47039,False,False,America/Chicago,"(35.42346, -88.2967)",9.027027445142876,10612.0,6436_0_yes,35.39828641161676,-88.13940105053695,10.0
38374,35.51192,-88.23469,Scotts Hill,TN,Tennessee,True,,2373.0,20.4,47039,Decatur,"{""47039"": 51.42, ""47077"": 48.58}",Decatur|Henderson,47039|47077,False,False,America/Chicago,"(35.51192, -88.23469)",9.508163594313473,10612.0,6436_0_yes,35.39828641161676,-88.13940105053695,10.0
38425,35.40706,-87.96588,Clifton,TN,Tennessee,True,,3803.0,14.2,47181,Wayne,"{""47181"": 58.83, ""47071"": 26.49, ""47135"": 14.68}",Wayne|Hardin|Perry,47181|47071|47135,False,False,America/Chicago,"(35.40706, -87.96588)",9.791158078007161,10612.0,6436_0_yes,35.39828641161676,-88.13940105053695,10.0
38475,35.2624,-88.02336,Olivehill,TN,Tennessee,True,,805.0,4.9,47071,Hardin,"{""47071"": 77.53, ""47181"": 22.47}",Hardin|Wayne,47071|47181,False,False,America/Chicago,"(35.2624, -88.02336)",11.442734347904686,10612.0,6436_0_yes,35.39828641161676,-88.13940105053695,10.0
