zip,lat,lng,city,state_id,state_name,zcta,parent_zcta,population,density,county_fips,county_name,county_weights,county_names_all,county_fips_all,imprecise,military,timezone,Coord,distance_miles,market_total_population,market_id,market_center_lat,market_center_lng,radius_miles
72921,35.46953,-94.19686,Alma,AR,Arkansas,True,,13904.0,60.4,5033,Crawford,"{""05033"": 100}",Crawford,05033,False,False,America/Chicago,"(35.46953, -94.19686)",4.714384532798625,33432.0,6453_0_yes,35.40712095349967,-94.1630072643048,10.0
72923,35.30904,-94.28954,Barling,AR,Arkansas,True,,5023.0,118.5,5131,Sebastian,"{""05131"": 100}",Sebastian,05131,False,False,America/Chicago,"(35.30904, -94.28954)",9.83674265720101,33432.0,6453_0_yes,35.40712095349967,-94.1630072643048,10.0
72930,35.43248,-94.00737,Cecil,AR,Arkansas,True,,184.0,1.9,5047,Franklin,"{""05047"": 73.78, ""05131"": 26.22}",Franklin|Sebastian,05047|05131,False,False,America/Chicago,"(35.43248, -94.00737)",8.936776732310507,33432.0,6453_0_yes,35.40712095349967,-94.1630072643048,10.0
72933,35.33408,-94.01432,Charleston,AR,Arkansas,True,,5114.0,18.1,5047,Franklin,"{""05047"": 83.72, ""05131"": 11.67, ""05083"": 4.61}",Franklin|Sebastian|Logan,05047|05131|05083,False,False,America/Chicago,"(35.33408, -94.01432)",9.77980952343754,33432.0,6453_0_yes,35.40712095349967,-94.1630072643048,10.0
72935,35.49431,-94.13277,Dyer,AR,Arkansas,True,,495.0,95.6,5033,Crawford,"{""05033"": 100}",Crawford,05033,False,False,America/Chicago,"(35.49431, -94.13277)",6.259974795135511,33432.0,6453_0_yes,35.40712095349967,-94.1630072643048,10.0
72941,35.35018,-94.16214,Lavaca,AR,Arkansas,True,,5124.0,45.6,5131,Sebastian,"{""05131"": 100}",Sebastian,05131,False,False,America/Chicago,"(35.35018, -94.16214)",3.9345485113516663,33432.0,6453_0_yes,35.40712095349967,-94.1630072643048,10.0
72947,35.54706,-94.04021,Mulberry,AR,Arkansas,True,,3588.0,12.1,5047,Franklin,"{""05047"": 53.66, ""05033"": 46.34}",Franklin|Crawford,05047|05033,False,False,America/Chicago,"(35.54706, -94.04021)",11.88383818897426,33432.0,6453_0_yes,35.40712095349967,-94.1630072643048,10.0
