zip,lat,lng,city,state_id,state_name,zcta,parent_zcta,population,density,county_fips,county_name,county_weights,county_names_all,county_fips_all,imprecise,military,timezone,Coord,distance_miles,market_total_population,market_id,market_center_lat,market_center_lng,radius_miles
87001,35.41231,-106.37944,Algodones,NM,New Mexico,True,,3675.0,14.2,35043,Sandoval,"{""35043"": 100}",Sandoval,35043,False,False,America/Denver,"(35.41231, -106.37944)",9.740144202521893,160217.0,6479_0_no,35.28032287468528,-106.4401495168728,10.0
87004,35.38555,-106.58493,Bernalillo,NM,New Mexico,True,,12623.0,53.8,35043,Sandoval,"{""35043"": 100}",Sandoval,35043,False,False,America/Denver,"(35.38555, -106.58493)",10.929727449474074,160217.0,6479_0_no,35.28032287468528,-106.4401495168728,10.0
87008,35.14779,-106.39133,Cedar Crest,NM,New Mexico,True,,2541.0,36.8,35001,Bernalillo,"{""35001"": 100}",Bernalillo,35001,False,False,America/Denver,"(35.14779, -106.39133)",9.56284650694284,160217.0,6479_0_no,35.28032287468528,-106.4401495168728,10.0
87043,35.28978,-106.44418,Placitas,NM,New Mexico,True,,4506.0,16.2,35043,Sandoval,"{""35043"": 100}",Sandoval,35043,False,False,America/Denver,"(35.28978, -106.44418)",0.6918371972225068,160217.0,6479_0_no,35.28032287468528,-106.4401495168728,10.0
87047,35.24866,-106.27629,Sandia Park,NM,New Mexico,True,,4554.0,12.6,35043,Sandoval,"{""35043"": 41.52, ""35049"": 29.85, ""35001"": 28.63}",Sandoval|Santa Fe|Bernalillo,35043|35049|35001,False,False,America/Denver,"(35.24866, -106.27629)",9.499389894236193,160217.0,6479_0_no,35.28032287468528,-106.4401495168728,10.0
87109,35.15285,-106.57543,Albuquerque,NM,New Mexico,True,,39961.0,1545.5,35001,Bernalillo,"{""35001"": 100}",Bernalillo,35001,False,False,America/Denver,"(35.15285, -106.57543)",11.656993560858545,160217.0,6479_0_no,35.28032287468528,-106.4401495168728,10.0
87111,35.13824,-106.51589,Albuquerque,NM,New Mexico,True,,57389.0,1744.7,35001,Bernalillo,"{""35001"": 100}",Bernalillo,35001,False,False,America/Denver,"(35.13824, -106.51589)",10.707730694411692,160217.0,6479_0_no,35.28032287468528,-106.4401495168728,10.0
87113,35.19249,-106.5708,Albuquerque,NM,New Mexico,True,,16098.0,417.6,35001,Bernalillo,"{""35001"": 100}",Bernalillo,35001,False,False,America/Denver,"(35.19249, -106.5708)",9.54944151701775,160217.0,6479_0_no,35.28032287468528,-106.4401495168728,10.0
87122,35.18685,-106.48827,Albuquerque,NM,New Mexico,True,,18870.0,335.9,35001,Bernalillo,"{""35001"": 97.27, ""35043"": 2.73}",Bernalillo|Sandoval,35001|35043,False,False,America/Denver,"(35.18685, -106.48827)",7.006110669962447,160217.0,6479_0_no,35.28032287468528,-106.4401495168728,10.0
