zip,lat,lng,city,state_id,state_name,zcta,parent_zcta,population,density,county_fips,county_name,county_weights,county_names_all,county_fips_all,imprecise,military,timezone,Coord,distance_miles,market_total_population,market_id,market_center_lat,market_center_lng,radius_miles
27520,35.61274,-78.47075,Clayton,NC,North Carolina,True,,43170.0,235.5,37101,Johnston,"{""37101"": 95.9, ""37183"": 4.1}",Johnston|Wake,37101|37183,False,False,America/New_York,"(35.61274, -78.47075)",9.75740200187355,139904.0,6566_0_no,35.52886377453786,-78.33107243073862,10.0
27524,35.39392,-78.37948,Four Oaks,NC,North Carolina,True,,13308.0,38.2,37101,Johnston,"{""37101"": 92.07, ""37191"": 7.93}",Johnston|Wayne,37101|37191,False,False,America/New_York,"(35.39392, -78.37948)",9.713564159306499,139904.0,6566_0_no,35.52886377453786,-78.33107243073862,10.0
27527,35.65767,-78.38336,Clayton,NC,North Carolina,True,,27711.0,242.7,37101,Johnston,"{""37101"": 100}",Johnston,37101,False,False,America/New_York,"(35.65767, -78.38336)",9.37200118046262,139904.0,6566_0_no,35.52886377453786,-78.33107243073862,10.0
27555,35.56242,-78.20353,Micro,NC,North Carolina,True,,688.0,633.5,37101,Johnston,"{""37101"": 100}",Johnston,37101,False,False,America/New_York,"(35.56242, -78.20353)",7.5357193829036575,139904.0,6566_0_no,35.52886377453786,-78.33107243073862,10.0
27568,35.51132,-78.24299,Pine Level,NC,North Carolina,True,,609.0,193.6,37101,Johnston,"{""37101"": 100}",Johnston,37101,False,False,America/New_York,"(35.51132, -78.24299)",5.099558089892229,139904.0,6566_0_no,35.52886377453786,-78.33107243073862,10.0
27569,35.43306,-78.17432,Princeton,NC,North Carolina,True,,8813.0,42.5,37101,Johnston,"{""37101"": 79.03, ""37191"": 20.97}",Johnston|Wayne,37101|37191,False,False,America/New_York,"(35.43306, -78.17432)",11.027177993419054,139904.0,6566_0_no,35.52886377453786,-78.33107243073862,10.0
27576,35.58297,-78.25776,Selma,NC,North Carolina,True,,19253.0,91.4,37101,Johnston,"{""37101"": 100}",Johnston,37101,False,False,America/New_York,"(35.58297, -78.25776)",5.563970558057352,139904.0,6566_0_no,35.52886377453786,-78.33107243073862,10.0
27577,35.49166,-78.3446,Smithfield,NC,North Carolina,True,,26352.0,98.1,37101,Johnston,"{""37101"": 100}",Johnston,37101,False,False,America/New_York,"(35.49166, -78.3446)",2.6807677572264454,139904.0,6566_0_no,35.52886377453786,-78.33107243073862,10.0
