zip,lat,lng,city,state_id,state_name,zcta,parent_zcta,population,density,county_fips,county_name,county_weights,county_names_all,county_fips_all,imprecise,military,timezone,Coord,distance_miles,market_total_population,market_id,market_center_lat,market_center_lng,radius_miles
28612,35.6641,-81.53619,Connelly Springs,NC,North Carolina,True,,12274.0,59.2,37023,Burke,"{""37023"": 98.36, ""37035"": 1.64}",Burke|Catawba,37023|37035,False,False,America/New_York,"(35.6641, -81.53619)",4.053694912551909,79837.0,6584_0_yes,35.678356157471654,-81.60624541380999,10.0
28619,35.76013,-81.60674,Drexel,NC,North Carolina,True,,1283.0,1049.5,37023,Burke,"{""37023"": 100}",Burke,37023,False,False,America/New_York,"(35.76013, -81.60674)",5.650102482379458,79837.0,6584_0_yes,35.678356157471654,-81.60624541380999,10.0
28628,35.72914,-81.77826,Glen Alpine,NC,North Carolina,True,,686.0,938.0,37023,Burke,"{""37023"": 100}",Burke,37023,False,False,America/New_York,"(35.72914, -81.77826)",10.269269850607001,79837.0,6584_0_yes,35.678356157471654,-81.60624541380999,10.0
28655,35.75578,-81.74212,Morganton,NC,North Carolina,True,,55375.0,65.8,37023,Burke,"{""37023"": 99.29, ""37027"": 0.43, ""37111"": 0.28}",Burke|Caldwell|McDowell,37023|37027|37111,False,False,America/New_York,"(35.75578, -81.74212)",9.31211185440113,79837.0,6584_0_yes,35.678356157471654,-81.60624541380999,10.0
28666,35.71864,-81.47057,Icard,NC,North Carolina,True,,210.0,897.5,37023,Burke,"{""37023"": 100}",Burke,37023,False,False,America/New_York,"(35.71864, -81.47057)",8.105698648342383,79837.0,6584_0_yes,35.678356157471654,-81.60624541380999,10.0
28671,35.7502,-81.52668,Rutherford College,NC,North Carolina,True,,313.0,293.3,37023,Burke,"{""37023"": 100}",Burke,37023,False,False,America/New_York,"(35.7502, -81.52668)",6.675646882140984,79837.0,6584_0_yes,35.678356157471654,-81.60624541380999,10.0
28690,35.73237,-81.5739,Valdese,NC,North Carolina,True,,9696.0,173.8,37023,Burke,"{""37023"": 100}",Burke,37023,False,False,America/New_York,"(35.73237, -81.5739)",4.1498446484217295,79837.0,6584_0_yes,35.678356157471654,-81.60624541380999,10.0
