zip,lat,lng,city,state_id,state_name,zcta,parent_zcta,population,density,county_fips,county_name,county_weights,county_names_all,county_fips_all,imprecise,military,timezone,Coord,distance_miles,market_total_population,market_id,market_center_lat,market_center_lng,radius_miles
37110,35.6436,-85.74314,Mcminnville,TN,Tennessee,True,,32731.0,33.8,47177,Warren,"{""47177"": 78.62, ""47061"": 14.89, ""47175"": 3.02, ""47015"": 1.93, ""47153"": 1.54}",Warren|Grundy|Van Buren|Cannon|Sequatchie,47177|47061|47175|47015|47153,False,False,America/Chicago,"(35.6436, -85.74314)",7.530705760636448,40600.0,6587_0_no,35.539829900256564,-85.78413387870958,10.0
37301,35.42765,-85.80295,Altamont,TN,Tennessee,True,,959.0,6.0,47061,Grundy,"{""47061"": 100}",Grundy,47061,False,False,America/Chicago,"(35.42765, -85.80295)",7.822852327164071,40600.0,6587_0_no,35.539829900256564,-85.78413387870958,10.0
37305,35.45795,-85.70195,Beersheba Springs,TN,Tennessee,True,,1157.0,27.4,47061,Grundy,"{""47061"": 100}",Grundy,47061,False,False,America/Chicago,"(35.45795, -85.70195)",7.3059582300276835,40600.0,6587_0_no,35.539829900256564,-85.78413387870958,10.0
37357,35.59454,-85.92003,Morrison,TN,Tennessee,True,,5633.0,16.1,47177,Warren,"{""47177"": 54.32, ""47031"": 28.6, ""47061"": 10.4, ""47015"": 6.68}",Warren|Coffee|Grundy|Cannon,47177|47031|47061|47015,False,False,America/Chicago,"(35.59454, -85.92003)",8.522006356083253,40600.0,6587_0_no,35.539829900256564,-85.78413387870958,10.0
37394,35.53918,-85.86047,Viola,TN,Tennessee,True,,120.0,323.1,47177,Warren,"{""47177"": 100}",Warren,47177,False,False,America/Chicago,"(35.53918, -85.86047)",4.292030690168172,40600.0,6587_0_no,35.539829900256564,-85.78413387870958,10.0
