zip,lat,lng,city,state_id,state_name,zcta,parent_zcta,population,density,county_fips,county_name,county_weights,county_names_all,county_fips_all,imprecise,military,timezone,Coord,distance_miles,market_total_population,market_id,market_center_lat,market_center_lng,radius_miles
38311,35.43842,-88.09737,Bath Springs,TN,Tennessee,True,,907.0,6.3,47039,Decatur,"{""47039"": 100}",Decatur,47039,False,False,America/Chicago,"(35.43842, -88.09737)",12.066965485992876,35132.0,6594_0_no,35.543486255929864,-88.26871314381944,10.0
38328,35.67601,-88.21222,Darden,TN,Tennessee,True,,913.0,11.8,47077,Henderson,"{""47077"": 84.39, ""47039"": 15.61}",Henderson|Decatur,47077|47039,False,False,America/Chicago,"(35.67601, -88.21222)",9.69083304377956,35132.0,6594_0_no,35.543486255929864,-88.26871314381944,10.0
38329,35.54541,-88.11283,Decaturville,TN,Tennessee,True,,3255.0,11.5,47039,Decatur,"{""47039"": 94.68, ""47077"": 5.32}",Decatur|Henderson,47039|47077,False,False,America/Chicago,"(35.54541, -88.11283)",8.764583057884808,35132.0,6594_0_no,35.543486255929864,-88.26871314381944,10.0
38332,35.41978,-88.42934,Enville,TN,Tennessee,True,,1203.0,8.8,47023,Chester,"{""47023"": 86.9, ""47109"": 13.1}",Chester|McNairy,47023|47109,False,False,America/Chicago,"(35.41978, -88.42934)",12.43902618574689,35132.0,6594_0_no,35.543486255929864,-88.26871314381944,10.0
38351,35.66324,-88.40401,Lexington,TN,Tennessee,True,,18050.0,33.5,47077,Henderson,"{""47077"": 99.43, ""47113"": 0.57}",Henderson|Madison,47077|47113,False,False,America/Chicago,"(35.66324, -88.40401)",11.235304621922996,35132.0,6594_0_no,35.543486255929864,-88.26871314381944,10.0
38363,35.68625,-88.11051,Parsons,TN,Tennessee,True,,5326.0,23.8,47039,Decatur,"{""47039"": 96.05, ""47077"": 3.95}",Decatur|Henderson,47039|47077,False,False,America/Chicago,"(35.68625, -88.11051)",13.276422373259487,35132.0,6594_0_no,35.543486255929864,-88.26871314381944,10.0
38368,35.50191,-88.35659,Reagan,TN,Tennessee,True,,2154.0,15.8,47077,Henderson,"{""47077"": 82.69, ""47023"": 17.31}",Henderson|Chester,47077|47023,False,False,America/Chicago,"(35.50191, -88.35659)",5.71596638077546,35132.0,6594_0_no,35.543486255929864,-88.26871314381944,10.0
38371,35.42346,-88.2967,Sardis,TN,Tennessee,True,,951.0,8.6,47077,Henderson,"{""47077"": 53.39, ""47071"": 42.52, ""47039"": 4.09}",Henderson|Hardin|Decatur,47077|47071|47039,False,False,America/Chicago,"(35.42346, -88.2967)",8.44118295832463,35132.0,6594_0_no,35.543486255929864,-88.26871314381944,10.0
38374,35.51192,-88.23469,Scotts Hill,TN,Tennessee,True,,2373.0,20.4,47039,Decatur,"{""47039"": 51.42, ""47077"": 48.58}",Decatur|Henderson,47039|47077,False,False,America/Chicago,"(35.51192, -88.23469)",2.9012004831062073,35132.0,6594_0_no,35.543486255929864,-88.26871314381944,10.0
