zip,lat,lng,city,state_id,state_name,zcta,parent_zcta,population,density,county_fips,county_name,county_weights,county_names_all,county_fips_all,imprecise,military,timezone,Coord,distance_miles,market_total_population,market_id,market_center_lat,market_center_lng,radius_miles
37096,35.60487,-87.86054,Linden,TN,Tennessee,True,,5947.0,7.4,47135,Perry,"{""47135"": 97.4, ""47181"": 2.14, ""47101"": 0.46}",Perry|Wayne|Lewis,47135|47181|47101,False,False,America/Chicago,"(35.60487, -87.86054)",9.996247026752243,17038.0,6602_0_yes,35.68780706947106,-88.00641849044493,10.0
37097,35.7785,-87.8303,Lobelville,TN,Tennessee,True,,2005.0,8.3,47135,Perry,"{""47135"": 100}",Perry,47135,False,False,America/Chicago,"(35.7785, -87.8303)",11.697769760291184,17038.0,6602_0_yes,35.68780706947106,-88.00641849044493,10.0
38329,35.54541,-88.11283,Decaturville,TN,Tennessee,True,,3255.0,11.5,47039,Decatur,"{""47039"": 94.68, ""47077"": 5.32}",Decatur|Henderson,47039|47077,False,False,America/Chicago,"(35.54541, -88.11283)",11.511901927515611,17038.0,6602_0_yes,35.68780706947106,-88.00641849044493,10.0
38363,35.68625,-88.11051,Parsons,TN,Tennessee,True,,5326.0,23.8,47039,Decatur,"{""47039"": 96.05, ""47077"": 3.95}",Decatur|Henderson,47039|47077,False,False,America/Chicago,"(35.68625, -88.11051)",5.842476137630368,17038.0,6602_0_yes,35.68780706947106,-88.00641849044493,10.0
38380,35.79114,-88.03263,Sugar Tree,TN,Tennessee,True,,505.0,5.1,47039,Decatur,"{""47039"": 87.66, ""47005"": 12.34}",Decatur|Benton,47039|47005,False,False,America/Chicago,"(35.79114, -88.03263)",7.289384039477462,17038.0,6602_0_yes,35.68780706947106,-88.00641849044493,10.0
