zip,lat,lng,city,state_id,state_name,zcta,parent_zcta,population,density,county_fips,county_name,county_weights,county_names_all,county_fips_all,imprecise,military,timezone,Coord,distance_miles,market_total_population,market_id,market_center_lat,market_center_lng,radius_miles
72005,35.53911,-91.07271,Amagon,AR,Arkansas,True,,102.0,2.0,5067,Jackson,"{""05067"": 100}",Jackson,05067,False,False,America/Chicago,"(35.53911, -91.07271)",2.090148197048465,11527.0,6602_0_no,35.54766554862395,-91.10837040852336,10.0
72014,35.43029,-91.11213,Beedeville,AR,Arkansas,True,,23.0,9.9,5067,Jackson,"{""05067"": 100}",Jackson,05067,False,False,America/Chicago,"(35.43029, -91.11213)",8.112635535037482,11527.0,6602_0_no,35.54766554862395,-91.10837040852336,10.0
72112,35.57383,-91.22918,Newport,AR,Arkansas,True,,10782.0,12.7,5067,Jackson,"{""05067"": 92.8, ""05147"": 4.72, ""05063"": 2.48}",Jackson|Woodruff|Independence,05067|05147|05063,False,False,America/Chicago,"(35.57383, -91.22918)",7.026921536441019,11527.0,6602_0_no,35.54766554862395,-91.10837040852336,10.0
72429,35.48895,-90.93972,Fisher,AR,Arkansas,True,,185.0,1.1,5111,Poinsett,"{""05111"": 100}",Poinsett,05111,False,False,America/Chicago,"(35.48895, -90.93972)",10.315639096742311,11527.0,6602_0_no,35.54766554862395,-91.10837040852336,10.0
72431,35.63396,-91.08184,Grubbs,AR,Arkansas,True,,435.0,26.7,5067,Jackson,"{""05067"": 100}",Jackson,05067,False,False,America/Chicago,"(35.63396, -91.08184)",6.145891899994733,11527.0,6602_0_no,35.54766554862395,-91.10837040852336,10.0
