zip,lat,lng,city,state_id,state_name,zcta,parent_zcta,population,density,county_fips,county_name,county_weights,county_names_all,county_fips_all,imprecise,military,timezone,Coord,distance_miles,market_total_population,market_id,market_center_lat,market_center_lng,radius_miles
74931,35.69226,-94.76459,Bunch,OK,Oklahoma,True,,1296.0,5.5,40001,Adair,"{""40001"": 67.68, ""40021"": 25.2, ""40135"": 7.12}",Adair|Cherokee|Sequoyah,40001|40021|40135,False,False,America/Chicago,"(35.69226, -94.76459)",11.334269251586962,34062.0,6612_0_no,35.55289056547578,-94.65814922393533,10.0
74945,35.58232,-94.81864,Marble City,OK,Oklahoma,True,,365.0,346.8,40135,Sequoyah,"{""40135"": 100}",Sequoyah,40135,False,False,America/Chicago,"(35.58232, -94.81864)",9.24635700580706,34062.0,6612_0_no,35.55289056547578,-94.65814922393533,10.0
74948,35.46207,-94.56284,Muldrow,OK,Oklahoma,True,,11652.0,20.7,40135,Sequoyah,"{""40135"": 97.69, ""40001"": 2.31}",Sequoyah|Adair,40135|40001,False,False,America/Chicago,"(35.46207, -94.56284)",8.25308670359246,34062.0,6612_0_no,35.55289056547578,-94.65814922393533,10.0
74954,35.41596,-94.49043,Roland,OK,Oklahoma,True,,5303.0,98.3,40135,Sequoyah,"{""40135"": 100}",Sequoyah,40135,False,False,America/Chicago,"(35.41596, -94.49043)",13.362232192713892,34062.0,6612_0_no,35.55289056547578,-94.65814922393533,10.0
74955,35.50213,-94.75547,Sallisaw,OK,Oklahoma,True,,15446.0,28.2,40135,Sequoyah,"{""40135"": 100}",Sequoyah,40135,False,False,America/Chicago,"(35.50213, -94.75547)",6.499844510119872,34062.0,6612_0_no,35.55289056547578,-94.65814922393533,10.0
