zip,lat,lng,city,state_id,state_name,zcta,parent_zcta,population,density,county_fips,county_name,county_weights,county_names_all,county_fips_all,imprecise,military,timezone,Coord,distance_miles,market_total_population,market_id,market_center_lat,market_center_lng,radius_miles
72130,35.6673,-92.06997,Prim,AR,Arkansas,True,,541.0,7.6,5023,Cleburne,"{""05023"": 100}",Cleburne,05023,False,False,America/Chicago,"(35.6673, -92.06997)",8.719885110493546,4265.0,6613_0_yes,35.693584237165894,-91.91800704266532,10.0
72523,35.64808,-91.83632,Concord,AR,Arkansas,True,,1076.0,10.0,5023,Cleburne,"{""05023"": 80.52, ""05063"": 19.48}",Cleburne|Independence,05023|05063,False,False,America/Chicago,"(35.64808, -91.83632)",5.559514154604581,4265.0,6613_0_yes,35.693584237165894,-91.91800704266532,10.0
72530,35.61381,-91.95715,Drasco,AR,Arkansas,True,,1157.0,4.1,5023,Cleburne,"{""05023"": 94.28, ""05137"": 5.72}",Cleburne|Stone,05023|05137,False,False,America/Chicago,"(35.61381, -91.95715)",5.933808380518547,4265.0,6613_0_yes,35.693584237165894,-91.91800704266532,10.0
72546,35.57711,-91.94487,Ida,AR,Arkansas,True,,202.0,23.3,5023,Cleburne,"{""05023"": 100}",Cleburne,05023,False,False,America/Chicago,"(35.57711, -91.94487)",8.1877630436937,4265.0,6613_0_yes,35.693584237165894,-91.91800704266532,10.0
72550,35.70836,-91.78387,Locust Grove,AR,Arkansas,True,,820.0,6.6,5063,Independence,"{""05063"": 69.01, ""05023"": 18.49, ""05137"": 12.5}",Independence|Cleburne|Stone,05063|05023|05137,False,False,America/Chicago,"(35.70836, -91.78387)",7.595212328920375,4265.0,6613_0_yes,35.693584237165894,-91.91800704266532,10.0
72555,35.77165,-91.88287,Marcella,AR,Arkansas,True,,204.0,6.2,5137,Stone,"{""05137"": 100}",Stone,05137,False,False,America/Chicago,"(35.77165, -91.88287)",5.742572686922827,4265.0,6613_0_yes,35.693584237165894,-91.91800704266532,10.0
72567,35.81742,-91.91975,Pleasant Grove,AR,Arkansas,True,,265.0,7.7,5137,Stone,"{""05137"": 100}",Stone,05137,False,False,America/Chicago,"(35.81742, -91.91975)",8.556794351614279,4265.0,6613_0_yes,35.693584237165894,-91.91800704266532,10.0
