zip,lat,lng,city,state_id,state_name,zcta,parent_zcta,population,density,county_fips,county_name,county_weights,county_names_all,county_fips_all,imprecise,military,timezone,Coord,distance_miles,market_total_population,market_id,market_center_lat,market_center_lng,radius_miles
86515,35.70301,-108.99057,Window Rock,AZ,Arizona,True,,3660.0,12.2,35031,McKinley,"{""35031"": 88.14, ""04001"": 11.86}",McKinley|Apache,35031|04001,False,False,America/Denver,"(35.70301, -108.99057)",11.567733977747693,35929.0,6652_0_no,35.573800650016885,-108.85956909551793,10.0
87301,35.52153,-108.76524,Gallup,NM,New Mexico,True,,24684.0,241.4,35031,McKinley,"{""35031"": 100}",McKinley,35031,False,False,America/Denver,"(35.52153, -108.76524)",6.415894717384355,35929.0,6652_0_no,35.573800650016885,-108.85956909551793,10.0
87317,35.58024,-108.75244,Gamerco,NM,New Mexico,True,,2129.0,63.2,35031,McKinley,"{""35031"": 100}",McKinley,35031,False,False,America/Denver,"(35.58024, -108.75244)",6.036648553406589,35929.0,6652_0_no,35.573800650016885,-108.85956909551793,10.0
87319,35.4769,-108.94232,Mentmore,NM,New Mexico,True,,1849.0,4.0,35031,McKinley,"{""35031"": 100}",McKinley,35031,False,False,America/Denver,"(35.4769, -108.94232)",8.153439881890986,35929.0,6652_0_no,35.573800650016885,-108.85956909551793,10.0
87375,35.66114,-108.79477,Yatahey,NM,New Mexico,True,,3607.0,8.3,35031,McKinley,"{""35031"": 100}",McKinley,35031,False,False,America/Denver,"(35.66114, -108.79477)",7.04718808136433,35929.0,6652_0_no,35.573800650016885,-108.85956909551793,10.0
