zip,lat,lng,city,state_id,state_name,zcta,parent_zcta,population,density,county_fips,county_name,county_weights,county_names_all,county_fips_all,imprecise,military,timezone,Coord,distance_miles,market_total_population,market_id,market_center_lat,market_center_lng,radius_miles
93226,35.7476,-118.73462,Glennville,CA,California,True,,82.0,0.4,6029,Kern,"{""06029"": 100}",Kern,06029,False,False,America/Los_Angeles,"(35.7476, -118.73462)",7.869368074791722,9241.0,6688_0_yes,35.73300661390268,-118.59545577566227,10.0
93238,35.82799,-118.47137,Kernville,CA,California,True,,810.0,2.9,6107,Tulare,"{""06107"": 62.55, ""06029"": 37.45}",Tulare|Kern,06107|06029,False,False,America/Los_Angeles,"(35.82799, -118.47137)",9.562767997069011,9241.0,6688_0_yes,35.73300661390268,-118.59545577566227,10.0
93240,35.62425,-118.4645,Lake Isabella,CA,California,True,,6096.0,40.6,6029,Kern,"{""06029"": 100}",Kern,06029,False,False,America/Los_Angeles,"(35.62425, -118.4645)",10.511228656010973,9241.0,6688_0_yes,35.73300661390268,-118.59545577566227,10.0
93260,35.81909,-118.66116,Posey,CA,California,True,,244.0,2.5,6107,Tulare,"{""06107"": 100}",Tulare,06107,False,False,America/Los_Angeles,"(35.81909, -118.66116)",6.995830029590408,9241.0,6688_0_yes,35.73300661390268,-118.59545577566227,10.0
93285,35.72233,-118.50871,Wofford Heights,CA,California,True,,2009.0,14.3,6029,Kern,"{""06029"": 100}",Kern,06029,False,False,America/Los_Angeles,"(35.72233, -118.50871)",4.921186817603651,9241.0,6688_0_yes,35.73300661390268,-118.59545577566227,10.0
