zip,lat,lng,city,state_id,state_name,zcta,parent_zcta,population,density,county_fips,county_name,county_weights,county_names_all,county_fips_all,imprecise,military,timezone,Coord,distance_miles,market_total_population,market_id,market_center_lat,market_center_lng,radius_miles
93201,35.8555,-119.48338,Alpaugh,CA,California,True,,1251.0,6.7,6107,Tulare,"{""06107"": 85.8, ""06031"": 14.2}",Tulare|Kings,06107|06031,False,False,America/Los_Angeles,"(35.8555, -119.48338)",12.96446451400356,110980.0,6690_0_yes,35.73405865630355,-119.30703435636973,10.0
93215,35.7764,-119.18835,Delano,CA,California,True,,55648.0,147.7,6029,Kern,"{""06029"": 59.64, ""06107"": 40.36}",Kern|Tulare,06029|06107,False,False,America/Los_Angeles,"(35.7764, -119.18835)",7.269379371553523,110980.0,6690_0_yes,35.73405865630355,-119.30703435636973,10.0
93219,35.87908,-119.28818,Earlimart,CA,California,True,,10998.0,41.3,6107,Tulare,"{""06107"": 100}",Tulare,06107,False,False,America/Los_Angeles,"(35.87908, -119.28818)",10.075564029860155,110980.0,6690_0_yes,35.73405865630355,-119.30703435636973,10.0
93250,35.66456,-119.20278,McFarland,CA,California,True,,14689.0,63.3,6029,Kern,"{""06029"": 100}",Kern,06029,False,False,America/Los_Angeles,"(35.66456, -119.20278)",7.568189718776215,110980.0,6690_0_yes,35.73405865630355,-119.30703435636973,10.0
93280,35.65204,-119.44716,Wasco,CA,California,True,,28394.0,34.7,6029,Kern,"{""06029"": 100}",Kern,06029,False,False,America/Los_Angeles,"(35.65204, -119.44716)",9.692386275831563,110980.0,6690_0_yes,35.73405865630355,-119.30703435636973,10.0
