zip,lat,lng,city,state_id,state_name,zcta,parent_zcta,population,density,county_fips,county_name,county_weights,county_names_all,county_fips_all,imprecise,military,timezone,Coord,distance_miles,market_total_population,market_id,market_center_lat,market_center_lng,radius_miles
27812,35.80506,-77.37616,Bethel,NC,North Carolina,True,,2692.0,17.7,37147,Pitt,"{""37147"": 65.16, ""37065"": 26.54, ""37117"": 8.3}",Pitt|Edgecombe|Martin,37147|37065|37117,False,False,America/New_York,"(35.80506, -77.37616)",4.228851846167778,24913.0,6730_0_no,35.817169864583235,-77.45014094046039,10.0
27819,35.81412,-77.45731,Conetoe,NC,North Carolina,True,,599.0,166.3,37065,Edgecombe,"{""37065"": 100}",Edgecombe,37065,False,False,America/New_York,"(35.81412, -77.45731)",0.453589325016579,24913.0,6730_0_no,35.817169864583235,-77.45014094046039,10.0
27827,35.69823,-77.51224,Falkland,NC,North Carolina,True,,182.0,367.1,37147,Pitt,"{""37147"": 100}",Pitt,37147,False,False,America/New_York,"(35.69823, -77.51224)",8.925135270944233,24913.0,6730_0_no,35.817169864583235,-77.45014094046039,10.0
27829,35.69272,-77.61215,Fountain,NC,North Carolina,True,,1331.0,11.1,37147,Pitt,"{""37147"": 63.4, ""37065"": 20.6, ""37195"": 16.0}",Pitt|Edgecombe|Wilson,37147|37065|37195,False,False,America/New_York,"(35.69272, -77.61215)",12.508238009721827,24913.0,6730_0_no,35.817169864583235,-77.45014094046039,10.0
27841,35.90859,-77.27632,Hassell,NC,North Carolina,True,,34.0,49.3,37117,Martin,"{""37117"": 100}",Martin,37117,False,False,America/New_York,"(35.90859, -77.27632)",11.60306170302494,24913.0,6730_0_no,35.817169864583235,-77.45014094046039,10.0
27861,35.81716,-77.31899,Parmele,NC,North Carolina,True,,94.0,78.6,37117,Martin,"{""37117"": 100}",Martin,37117,False,False,America/New_York,"(35.81716, -77.31899)",7.348001292718825,24913.0,6730_0_no,35.817169864583235,-77.45014094046039,10.0
27886,35.90369,-77.52248,Tarboro,NC,North Carolina,True,,19981.0,40.3,37065,Edgecombe,"{""37065"": 96.99, ""37147"": 3.01}",Edgecombe|Pitt,37065|37147,False,False,America/New_York,"(35.90369, -77.52248)",7.221121460822962,24913.0,6730_0_no,35.817169864583235,-77.45014094046039,10.0
