zip,lat,lng,city,state_id,state_name,zcta,parent_zcta,population,density,county_fips,county_name,county_weights,county_names_all,county_fips_all,imprecise,military,timezone,Coord,distance_miles,market_total_population,market_id,market_center_lat,market_center_lng,radius_miles
27233,35.8882,-79.6988,Climax,NC,North Carolina,True,,3490.0,55.2,37151,Randolph,"{""37151"": 66.48, ""37081"": 33.52}",Randolph|Guilford,37151|37081,False,False,America/New_York,"(35.8882, -79.6988)",7.815118222213083,62074.0,6736_0_no,35.820335844649534,-79.58715575983896,10.0
27248,35.78916,-79.70953,Franklinville,NC,North Carolina,True,,3522.0,39.5,37151,Randolph,"{""37151"": 100}",Randolph,37151,False,False,America/New_York,"(35.78916, -79.70953)",7.18770010015775,62074.0,6736_0_no,35.820335844649534,-79.58715575983896,10.0
27283,35.95293,-79.63621,Julian,NC,North Carolina,True,,3007.0,45.1,37081,Guilford,"{""37081"": 98.54, ""37151"": 1.46}",Guilford|Randolph,37081|37151,False,False,America/New_York,"(35.95293, -79.63621)",9.564059039237538,62074.0,6736_0_no,35.820335844649534,-79.58715575983896,10.0
27298,35.88563,-79.56816,Liberty,NC,North Carolina,True,,10841.0,44.1,37151,Randolph,"{""37151"": 44.39, ""37001"": 30.87, ""37081"": 23.74, ""37037"": 1.0}",Randolph|Alamance|Guilford|Chatham,37151|37001|37081|37037,False,False,America/New_York,"(35.88563, -79.56816)",4.6351224270265385,62074.0,6736_0_no,35.820335844649534,-79.58715575983896,10.0
27313,35.92892,-79.75142,Pleasant Garden,NC,North Carolina,True,,6663.0,92.1,37081,Guilford,"{""37081"": 69.83, ""37151"": 30.17}",Guilford|Randolph,37081|37151,False,False,America/New_York,"(35.92892, -79.75142)",11.868601680737168,62074.0,6736_0_no,35.820335844649534,-79.58715575983896,10.0
27316,35.68996,-79.62366,Ramseur,NC,North Carolina,True,,8169.0,46.6,37151,Randolph,"{""37151"": 100}",Randolph,37151,False,False,America/New_York,"(35.68996, -79.62366)",9.237725467952929,62074.0,6736_0_no,35.820335844649534,-79.58715575983896,10.0
27344,35.7289,-79.43366,Siler City,NC,North Carolina,True,,18864.0,43.8,37037,Chatham,"{""37037"": 94.94, ""37151"": 5.06}",Chatham|Randolph,37037|37151,False,False,America/New_York,"(35.7289, -79.43366)",10.674737357763835,62074.0,6736_0_no,35.820335844649534,-79.58715575983896,10.0
27349,35.89845,-79.41202,Snow Camp,NC,North Carolina,True,,5265.0,31.9,37001,Alamance,"{""37001"": 91.34, ""37037"": 8.66}",Alamance|Chatham,37001|37037,False,False,America/New_York,"(35.89845, -79.41202)",11.194151663060072,62074.0,6736_0_no,35.820335844649534,-79.58715575983896,10.0
27355,35.78859,-79.5678,Staley,NC,North Carolina,True,,2253.0,25.2,37151,Randolph,"{""37151"": 68.49, ""37037"": 31.51}",Randolph|Chatham,37151|37037,False,False,America/New_York,"(35.78859, -79.5678)",2.446943116425059,62074.0,6736_0_no,35.820335844649534,-79.58715575983896,10.0
