zip,lat,lng,city,state_id,state_name,zcta,parent_zcta,population,density,county_fips,county_name,county_weights,county_names_all,county_fips_all,imprecise,military,timezone,Coord,distance_miles,market_total_population,market_id,market_center_lat,market_center_lng,radius_miles
72440,35.9924,-91.26466,Lynn,AR,Arkansas,True,,270.0,18.2,5075,Lawrence,"{""05075"": 100}",Lawrence,05075,False,False,America/Chicago,"(35.9924, -91.26466)",9.850792676066472,11864.0,6778_0_yes,35.982617379111126,-91.44044563433582,10.0
72466,36.05121,-91.32157,Smithville,AR,Arkansas,True,,1508.0,4.8,5075,Lawrence,"{""05075"": 59.14, ""05135"": 40.86}",Lawrence|Sharp,05075|05135,False,False,America/Chicago,"(36.05121, -91.32157)",8.160663460311032,11864.0,6778_0_yes,35.982617379111126,-91.44044563433582,10.0
72469,35.95367,-91.29949,Strawberry,AR,Arkansas,True,,892.0,4.6,5075,Lawrence,"{""05075"": 75.5, ""05135"": 24.5}",Lawrence|Sharp,05075|05135,False,False,America/Chicago,"(35.95367, -91.29949)",8.132077661133643,11864.0,6778_0_yes,35.982617379111126,-91.44044563433582,10.0
72521,35.95196,-91.54522,Cave City,AR,Arkansas,True,,5952.0,19.4,5135,Sharp,"{""05135"": 67.99, ""05063"": 32.01}",Sharp|Independence,05135|05063,False,False,America/Chicago,"(35.95196, -91.54522)",6.230222999474027,11864.0,6778_0_yes,35.982617379111126,-91.44044563433582,10.0
72532,36.09905,-91.59508,Evening Shade,AR,Arkansas,True,,937.0,3.7,5135,Sharp,"{""05135"": 83.67, ""05065"": 16.33}",Sharp|Izard,05135|05065,False,False,America/Chicago,"(36.09905, -91.59508)",11.804827418538782,11864.0,6778_0_yes,35.982617379111126,-91.44044563433582,10.0
72569,36.08121,-91.45817,Poughkeepsie,AR,Arkansas,True,,674.0,7.8,5135,Sharp,"{""05135"": 100}",Sharp,05135,False,False,America/Chicago,"(36.08121, -91.45817)",6.883713986020176,11864.0,6778_0_yes,35.982617379111126,-91.44044563433582,10.0
72572,35.89762,-91.29173,Saffell,AR,Arkansas,True,,227.0,6.6,5075,Lawrence,"{""05075"": 75.46, ""05063"": 24.54}",Lawrence|Independence,05075|05063,False,False,America/Chicago,"(35.89762, -91.29173)",10.183219767896837,11864.0,6778_0_yes,35.982617379111126,-91.44044563433582,10.0
72579,35.84458,-91.44428,Sulphur Rock,AR,Arkansas,True,,1404.0,12.4,5063,Independence,"{""05063"": 78.63, ""05135"": 21.37}",Independence|Sharp,05063|05135,False,False,America/Chicago,"(35.84458, -91.44428)",9.539887746496312,11864.0,6778_0_yes,35.982617379111126,-91.44044563433582,10.0
