zip,lat,lng,city,state_id,state_name,zcta,parent_zcta,population,density,county_fips,county_name,county_weights,county_names_all,county_fips_all,imprecise,military,timezone,Coord,distance_miles,market_total_population,market_id,market_center_lat,market_center_lng,radius_miles
37708,36.32312,-83.33588,Bean Station,TN,Tennessee,True,,6078.0,56.8,47057,Grainger,"{""47057"": 100}",Grainger,47057,False,False,America/New_York,"(36.32312, -83.33588)",7.087976336654054,81685.0,6921_0_yes,36.26035833956941,-83.43655623830495,10.0
37813,36.17644,-83.26542,Morristown,TN,Tennessee,True,,17946.0,119.5,47063,Hamblen,"{""47063"": 97.36, ""47089"": 2.64}",Hamblen|Jefferson,47063|47089,False,False,America/New_York,"(36.17644, -83.26542)",11.163444093216507,81685.0,6921_0_yes,36.26035833956941,-83.43655623830495,10.0
37814,36.23604,-83.3317,Morristown,TN,Tennessee,True,,34359.0,302.5,47063,Hamblen,"{""47063"": 100}",Hamblen,47063,False,False,America/New_York,"(36.23604, -83.3317)",6.079526077611056,81685.0,6921_0_yes,36.26035833956941,-83.43655623830495,10.0
37861,36.24516,-83.51421,Rutledge,TN,Tennessee,True,,8980.0,35.2,47057,Grainger,"{""47057"": 100}",Grainger,47057,False,False,America/New_York,"(36.24516, -83.51421)",4.4523242089291335,81685.0,6921_0_yes,36.26035833956941,-83.43655623830495,10.0
37877,36.15176,-83.40503,Talbott,TN,Tennessee,True,,8893.0,129.8,47089,Jefferson,"{""47089"": 55.45, ""47063"": 44.55}",Jefferson|Hamblen,47089|47063,False,False,America/New_York,"(36.15176, -83.40503)",7.706538155014588,81685.0,6921_0_yes,36.26035833956941,-83.43655623830495,10.0
37881,36.39861,-83.34393,Thorn Hill,TN,Tennessee,True,,2023.0,10.9,47057,Grainger,"{""47057"": 56.61, ""47067"": 35.83, ""47073"": 6.99, ""47025"": 0.57}",Grainger|Hancock|Hawkins|Claiborne,47057|47067|47073|47025,False,False,America/New_York,"(36.39861, -83.34393)",10.854912263334876,81685.0,6921_0_yes,36.26035833956941,-83.43655623830495,10.0
37888,36.31063,-83.61266,Washburn,TN,Tennessee,True,,3406.0,23.6,47057,Grainger,"{""47057"": 90.97, ""47173"": 9.03}",Grainger|Union,47057|47173,False,False,America/New_York,"(36.31063, -83.61266)",10.404926723758678,81685.0,6921_0_yes,36.26035833956941,-83.43655623830495,10.0
