zip,lat,lng,city,state_id,state_name,zcta,parent_zcta,population,density,county_fips,county_name,county_weights,county_names_all,county_fips_all,imprecise,military,timezone,Coord,distance_miles,market_total_population,market_id,market_center_lat,market_center_lng,radius_miles
38201,36.12335,-88.53131,McKenzie,TN,Tennessee,True,,10755.0,29.8,47017,Carroll,"{""47017"": 59.19, ""47183"": 27.38, ""47079"": 13.43}",Carroll|Weakley|Henry,47017|47183|47079,False,False,America/Chicago,"(36.12335, -88.53131)",10.941399786713626,36551.0,6935_0_yes,36.26786657008725,-88.45108256663562,10.0
38224,36.39172,-88.48774,Cottage Grove,TN,Tennessee,True,,791.0,5.1,47079,Henry,"{""47079"": 88.06, ""47183"": 11.94}",Henry|Weakley,47079|47183,False,False,America/Chicago,"(36.39172, -88.48774)",8.79736109657794,36551.0,6935_0_yes,36.26786657008725,-88.45108256663562,10.0
38229,36.22108,-88.60939,Gleason,TN,Tennessee,True,,3121.0,19.8,47183,Weakley,"{""47183"": 98.61, ""47079"": 1.39}",Weakley|Henry,47183|47079,False,False,America/Chicago,"(36.22108, -88.60939)",9.395164210000466,36551.0,6935_0_yes,36.26786657008725,-88.45108256663562,10.0
38231,36.21277,-88.42442,Henry,TN,Tennessee,True,,1610.0,10.6,47079,Henry,"{""47079"": 100}",Henry,47079,False,False,America/Chicago,"(36.21277, -88.42442)",4.0864989848371565,36551.0,6935_0_yes,36.26786657008725,-88.45108256663562,10.0
38242,36.3076,-88.33244,Paris,TN,Tennessee,True,,20274.0,44.6,47079,Henry,"{""47079"": 93.6, ""47183"": 6.4}",Henry|Weakley,47079|47183,False,False,America/Chicago,"(36.3076, -88.33244)",7.155191851289462,36551.0,6935_0_yes,36.26786657008725,-88.45108256663562,10.0
