zip,lat,lng,city,state_id,state_name,zcta,parent_zcta,population,density,county_fips,county_name,county_weights,county_names_all,county_fips_all,imprecise,military,timezone,Coord,distance_miles,market_total_population,market_id,market_center_lat,market_center_lng,radius_miles
72517,36.1463,-91.95403,Brockwell,AR,Arkansas,True,,207.0,3.6,5065,Izard,"{""05065"": 100}",Izard,05065,False,False,America/Chicago,"(36.1463, -91.95403)",1.6479448713065679,6406.0,6936_0_no,36.12837206338574,-91.93455169773844,10.0
72536,36.14673,-91.76115,Franklin,AR,Arkansas,True,,484.0,7.8,5065,Izard,"{""05065"": 100}",Izard,05065,False,False,America/Chicago,"(36.14673, -91.76115)",9.758613612453265,6406.0,6936_0_no,36.12837206338574,-91.93455169773844,10.0
72556,36.02472,-91.95831,Melbourne,AR,Arkansas,True,,3472.0,8.3,5065,Izard,"{""05065"": 100}",Izard,05065,False,False,America/Chicago,"(36.02472, -91.95831)",7.28353261046265,6406.0,6936_0_no,36.12837206338574,-91.93455169773844,10.0
72565,36.21871,-91.90686,Oxford,AR,Arkansas,True,,781.0,8.9,5065,Izard,"{""05065"": 100}",Izard,05065,False,False,America/Chicago,"(36.21871, -91.90686)",6.4300060587063275,6406.0,6936_0_no,36.12837206338574,-91.93455169773844,10.0
72566,36.20792,-92.06468,Pineville,AR,Arkansas,True,,668.0,6.3,5065,Izard,"{""05065"": 100}",Izard,05065,False,False,America/Chicago,"(36.20792, -92.06468)",9.104509537767056,6406.0,6936_0_no,36.12837206338574,-91.93455169773844,10.0
72573,36.07442,-91.79624,Sage,AR,Arkansas,True,,255.0,6.0,5065,Izard,"{""05065"": 100}",Izard,05065,False,False,America/Chicago,"(36.07442, -91.79624)",8.574110383018764,6406.0,6936_0_no,36.12837206338574,-91.93455169773844,10.0
72584,36.14421,-91.84427,Violet Hill,AR,Arkansas,True,,308.0,3.1,5065,Izard,"{""05065"": 100}",Izard,05065,False,False,America/Chicago,"(36.14421, -91.84427)",5.155287766834815,6406.0,6936_0_no,36.12837206338574,-91.93455169773844,10.0
72585,36.17861,-92.01454,Wideman,AR,Arkansas,True,,208.0,3.4,5065,Izard,"{""05065"": 100}",Izard,05065,False,False,America/Chicago,"(36.17861, -92.01454)",5.653498446873866,6406.0,6936_0_no,36.12837206338574,-91.93455169773844,10.0
72587,36.21977,-91.8173,Wiseman,AR,Arkansas,True,,23.0,1.0,5065,Izard,"{""05065"": 100}",Izard,05065,False,False,America/Chicago,"(36.21977, -91.8173)",9.090964147027218,6406.0,6936_0_no,36.12837206338574,-91.93455169773844,10.0
