zip,lat,lng,city,state_id,state_name,zcta,parent_zcta,population,density,county_fips,county_name,county_weights,county_names_all,county_fips_all,imprecise,military,timezone,Coord,distance_miles,market_total_population,market_id,market_center_lat,market_center_lng,radius_miles
27922,36.32118,-76.84837,Cofield,NC,North Carolina,True,,530.0,4.8,37091,Hertford,"{""37091"": 100}",Hertford,37091,False,False,America/New_York,"(36.32118, -76.84837)",7.842066138509639,12718.0,7058_0_no,36.39527329252641,-76.74160757748021,10.0
27926,36.51687,-76.60288,Corapeake,NC,North Carolina,True,,1899.0,20.3,37073,Gates,"{""37073"": 100}",Gates,37073,False,False,America/New_York,"(36.51687, -76.60288)",11.402700049974417,12718.0,7058_0_no,36.39527329252641,-76.74160757748021,10.0
27935,36.43026,-76.85962,Eure,NC,North Carolina,True,,1853.0,11.7,37073,Gates,"{""37073"": 100}",Gates,37073,False,False,America/New_York,"(36.43026, -76.85962)",6.9930329940035145,12718.0,7058_0_no,36.39527329252641,-76.74160757748021,10.0
27937,36.50453,-76.77726,Gates,NC,North Carolina,True,,4205.0,20.1,37073,Gates,"{""37073"": 100}",Gates,37073,False,False,America/New_York,"(36.50453, -76.77726)",7.804637302973276,12718.0,7058_0_no,36.39527329252641,-76.74160757748021,10.0
27938,36.38422,-76.71628,Gatesville,NC,North Carolina,True,,1469.0,11.1,37073,Gates,"{""37073"": 100}",Gates,37073,False,False,America/New_York,"(36.38422, -76.71628)",1.6024227171612695,12718.0,7058_0_no,36.39527329252641,-76.74160757748021,10.0
27942,36.28785,-76.7597,Harrellsville,NC,North Carolina,True,,505.0,7.0,37091,Hertford,"{""37091"": 100}",Hertford,37091,False,False,America/New_York,"(36.28785, -76.7597)",7.4902327643330695,12718.0,7058_0_no,36.39527329252641,-76.74160757748021,10.0
27946,36.35901,-76.59648,Hobbsville,NC,North Carolina,True,,1040.0,9.2,37073,Gates,"{""37073"": 87.18, ""37041"": 12.82}",Gates|Chowan,37073|37041,False,False,America/New_York,"(36.35901, -76.59648)",8.453194802861468,12718.0,7058_0_no,36.39527329252641,-76.74160757748021,10.0
27979,36.44072,-76.56243,Sunbury,NC,North Carolina,True,,1217.0,6.6,37073,Gates,"{""37073"": 100}",Gates,37073,False,False,America/New_York,"(36.44072, -76.56243)",10.445420835582814,12718.0,7058_0_no,36.39527329252641,-76.74160757748021,10.0
