zip,lat,lng,city,state_id,state_name,zcta,parent_zcta,population,density,county_fips,county_name,county_weights,county_names_all,county_fips_all,imprecise,military,timezone,Coord,distance_miles,market_total_population,market_id,market_center_lat,market_center_lng,radius_miles
24317,36.60138,-80.66876,Cana,VA,Virginia,True,,4147.0,41.2,51035,Carroll,"{""51035"": 93.49, ""51141"": 6.51}",Carroll|Patrick,51035|51141,False,False,America/New_York,"(36.60138, -80.66876)",6.588520417024678,62223.0,7079_0_yes,36.54596321524488,-80.76538759295691,10.0
24328,36.66185,-80.69382,Fancy Gap,VA,Virginia,True,,1621.0,16.4,51035,Carroll,"{""51035"": 99.47, ""51141"": 0.53}",Carroll|Patrick,51035|51141,False,False,America/New_York,"(36.66185, -80.69382)",8.937005660851256,62223.0,7079_0_yes,36.54596321524488,-80.76538759295691,10.0
24333,36.64057,-80.92921,Galax,VA,Virginia,True,,17317.0,46.1,51077,Grayson,"{""51077"": 51.58, ""51035"": 42.82, ""51640"": 5.6}",Grayson|Carroll|Galax,51077|51035|51640,False,False,America/New_York,"(36.64057, -80.92921)",11.194589204027864,62223.0,7079_0_yes,36.54596321524488,-80.76538759295691,10.0
24351,36.58081,-80.76591,Lambsburg,VA,Virginia,True,,313.0,10.6,51035,Carroll,"{""51035"": 100}",Carroll,51035,False,False,America/New_York,"(36.58081, -80.76591)",2.4078580381174772,62223.0,7079_0_yes,36.54596321524488,-80.76538759295691,10.0
27024,36.52399,-80.84027,Lowgap,NC,North Carolina,True,,3404.0,30.1,37171,Surry,"{""37171"": 100}",Surry,37171,False,False,America/New_York,"(36.52399, -80.84027)",4.425730997213163,62223.0,7079_0_yes,36.54596321524488,-80.76538759295691,10.0
27030,36.48836,-80.63013,Mount Airy,NC,North Carolina,True,,35421.0,80.2,37171,Surry,"{""37171"": 95.73, ""37169"": 4.27}",Surry|Stokes,37171|37169,False,False,America/New_York,"(36.48836, -80.63013)",8.500065323775281,62223.0,7079_0_yes,36.54596321524488,-80.76538759295691,10.0
