zip,lat,lng,city,state_id,state_name,zcta,parent_zcta,population,density,county_fips,county_name,county_weights,county_names_all,county_fips_all,imprecise,military,timezone,Coord,distance_miles,market_total_population,market_id,market_center_lat,market_center_lng,radius_miles
24348,36.63897,-81.17392,Independence,VA,Virginia,True,,4800.0,18.2,51077,Grayson,"{""51077"": 100}",Grayson,51077,False,False,America/New_York,"(36.63897, -81.17392)",6.944147049880494,16215.0,7080_0_yes,36.54650504023625,-81.12486526186935,10.0
28623,36.53088,-80.97185,Ennice,NC,North Carolina,True,,1285.0,16.6,37005,Alleghany,"{""37005"": 99.87, ""37171"": 0.13}",Alleghany|Surry,37005|37171,False,False,America/New_York,"(36.53088, -80.97185)",8.562734127411199,16215.0,7080_0_yes,36.54650504023625,-81.12486526186935,10.0
28627,36.4528,-81.01294,Glade Valley,NC,North Carolina,True,,948.0,14.2,37005,Alleghany,"{""37005"": 100}",Alleghany,37005,False,False,America/New_York,"(36.4528, -81.01294)",8.975669267133972,16215.0,7080_0_yes,36.54650504023625,-81.12486526186935,10.0
28644,36.43134,-81.26758,Laurel Springs,NC,North Carolina,True,,1045.0,5.6,37005,Alleghany,"{""37005"": 53.61, ""37009"": 45.32, ""37193"": 1.07}",Alleghany|Ashe|Wilkes,37005|37009|37193,False,False,America/New_York,"(36.43134, -81.26758)",11.232287849043406,16215.0,7080_0_yes,36.54650504023625,-81.12486526186935,10.0
28663,36.53477,-81.30063,Piney Creek,NC,North Carolina,True,,662.0,12.4,37005,Alleghany,"{""37005"": 100}",Alleghany,37005,False,False,America/New_York,"(36.53477, -81.30063)",9.790691965653526,16215.0,7080_0_yes,36.54650504023625,-81.12486526186935,10.0
28668,36.40698,-80.99024,Roaring Gap,NC,North Carolina,True,,341.0,11.3,37005,Alleghany,"{""37005"": 100}",Alleghany,37005,False,False,America/New_York,"(36.40698, -80.99024)",12.20153421956895,16215.0,7080_0_yes,36.54650504023625,-81.12486526186935,10.0
28675,36.50642,-81.13546,Sparta,NC,North Carolina,True,,7134.0,25.7,37005,Alleghany,"{""37005"": 99.11, ""51077"": 0.7, ""37193"": 0.19}",Alleghany|Grayson|Wilkes,37005|51077|37193,False,False,America/New_York,"(36.50642, -81.13546)",2.83139253184124,16215.0,7080_0_yes,36.54650504023625,-81.12486526186935,10.0
