zip,lat,lng,city,state_id,state_name,zcta,parent_zcta,population,density,county_fips,county_name,county_weights,county_names_all,county_fips_all,imprecise,military,timezone,Coord,distance_miles,market_total_population,market_id,market_center_lat,market_center_lng,radius_miles
37755,36.42249,-84.53166,Helenwood,TN,Tennessee,True,,2652.0,27.0,47151,Scott,"{""47151"": 100}",Scott,47151,False,False,America/New_York,"(36.42249, -84.53166)",13.03639661003022,15313.0,7089_0_yes,36.551381944227664,-84.36027719366487,10.0
37819,36.55649,-84.21169,Newcomb,TN,Tennessee,True,,665.0,12.2,47013,Campbell,"{""47013"": 100}",Campbell,47013,False,False,America/New_York,"(36.55649, -84.21169)",8.254509293085802,15313.0,7089_0_yes,36.551381944227664,-84.36027719366487,10.0
37847,36.43156,-84.27346,Pioneer,TN,Tennessee,True,,3172.0,8.4,47013,Campbell,"{""47013"": 81.65, ""47151"": 18.35}",Campbell|Scott,47013|47151,False,False,America/New_York,"(36.43156, -84.27346)",9.581046279880045,15313.0,7089_0_yes,36.551381944227664,-84.36027719366487,10.0
37892,36.55666,-84.37132,Winfield,TN,Tennessee,True,,2034.0,11.1,47151,Scott,"{""47151"": 100}",Scott,47151,False,False,America/New_York,"(36.55666, -84.37132)",0.7131903628250508,15313.0,7089_0_yes,36.551381944227664,-84.36027719366487,10.0
42635,36.67601,-84.40033,Pine Knot,KY,Kentucky,True,,5007.0,76.6,21147,McCreary,"{""21147"": 100}",McCreary,21147,False,False,America/New_York,"(36.67601, -84.40033)",8.892871687422689,15313.0,7089_0_yes,36.551381944227664,-84.36027719366487,10.0
42638,36.67487,-84.4689,Revelo,KY,Kentucky,True,,74.0,25.2,21147,McCreary,"{""21147"": 100}",McCreary,21147,False,False,America/New_York,"(36.67487, -84.4689)",10.444605846657026,15313.0,7089_0_yes,36.551381944227664,-84.36027719366487,10.0
42649,36.6253,-84.41798,Strunk,KY,Kentucky,True,,1709.0,9.0,21147,McCreary,"{""21147"": 100}",McCreary,21147,False,False,America/New_York,"(36.6253, -84.41798)",6.027590344783368,15313.0,7089_0_yes,36.551381944227664,-84.36027719366487,10.0
