zip,lat,lng,city,state_id,state_name,zcta,parent_zcta,population,density,county_fips,county_name,county_weights,county_names_all,county_fips_all,imprecise,military,timezone,Coord,distance_miles,market_total_population,market_id,market_center_lat,market_center_lng,radius_miles
65609,36.52593,-92.1609,Bakersfield,MO,Missouri,True,,865.0,10.5,29153,Ozark,"{""29153"": 71.58, ""29091"": 28.42}",Ozark|Howell,29153|29091,False,False,America/Chicago,"(36.52593, -92.1609)",6.579508423232252,9733.0,7111_0_yes,36.56330689667016,-92.26991795890142,10.0
65626,36.59088,-92.11697,Caulfield,MO,Missouri,True,,2057.0,7.6,29153,Ozark,"{""29153"": 50.43, ""29091"": 49.57}",Ozark|Howell,29153|29091,False,False,America/Chicago,"(36.59088, -92.11697)",8.697660883258145,9733.0,7111_0_yes,36.56330689667016,-92.26991795890142,10.0
65655,36.60262,-92.42379,Gainesville,MO,Missouri,True,,2555.0,4.9,29153,Ozark,"{""29153"": 100}",Ozark,29153,False,False,America/Chicago,"(36.60262, -92.42379)",8.958782467944523,9733.0,7111_0_yes,36.56330689667016,-92.26991795890142,10.0
65760,36.62236,-92.27943,Tecumseh,MO,Missouri,True,,722.0,7.4,29153,Ozark,"{""29153"": 100}",Ozark,29153,False,False,America/Chicago,"(36.62236, -92.27943)",4.1141606214522275,9733.0,7111_0_yes,36.56330689667016,-92.26991795890142,10.0
65766,36.53933,-92.25948,Udall,MO,Missouri,True,,89.0,6.3,29153,Ozark,"{""29153"": 100}",Ozark,29153,False,False,America/Chicago,"(36.53933, -92.25948)",1.7550283481665923,9733.0,7111_0_yes,36.56330689667016,-92.26991795890142,10.0
65790,36.69784,-92.11326,Pottersville,MO,Missouri,True,,724.0,4.9,29091,Howell,"{""29091"": 51.76, ""29153"": 48.24}",Howell|Ozark,29091|29153,False,False,America/Chicago,"(36.69784, -92.11326)",12.722220703701142,9733.0,7111_0_yes,36.56330689667016,-92.26991795890142,10.0
72537,36.45018,-92.23371,Gamaliel,AR,Arkansas,True,,885.0,11.9,5005,Baxter,"{""05005"": 100}",Baxter,05005,False,False,America/Chicago,"(36.45018, -92.23371)",8.070840875017447,9733.0,7111_0_yes,36.56330689667016,-92.26991795890142,10.0
72538,36.43622,-92.10612,Gepp,AR,Arkansas,True,,858.0,7.5,5049,Fulton,"{""05049"": 100}",Fulton,05049,False,False,America/Chicago,"(36.43622, -92.10612)",12.643941050494,9733.0,7111_0_yes,36.56330689667016,-92.26991795890142,10.0
72623,36.46386,-92.3172,Clarkridge,AR,Arkansas,True,,978.0,15.2,5005,Baxter,"{""05005"": 100}",Baxter,05005,False,False,America/Chicago,"(36.46386, -92.3172)",7.355702690301083,9733.0,7111_0_yes,36.56330689667016,-92.26991795890142,10.0
