zip,lat,lng,city,state_id,state_name,zcta,parent_zcta,population,density,county_fips,county_name,county_weights,county_names_all,county_fips_all,imprecise,military,timezone,Coord,distance_miles,market_total_population,market_id,market_center_lat,market_center_lng,radius_miles
93202,36.3187,-119.7076,Armona,CA,California,True,,4236.0,1064.4,6031,Kings,"{""06031"": 100}",Kings,06031,False,False,America/Los_Angeles,"(36.3187, -119.7076)",11.395049678385742,49841.0,7178_0_no,36.46001310957166,-119.81322606520558,10.0
93242,36.44115,-119.73024,Laton,CA,California,True,,3455.0,32.8,6019,Fresno,"{""06019"": 83.05, ""06031"": 16.95}",Fresno|Kings,06019|06031,False,False,America/Los_Angeles,"(36.44115, -119.73024)",4.79270078755446,49841.0,7178_0_no,36.46001310957166,-119.81322606520558,10.0
93609,36.52616,-119.86388,Caruthers,CA,California,True,,5328.0,33.7,6019,Fresno,"{""06019"": 100}",Fresno,06019,False,False,America/Los_Angeles,"(36.52616, -119.86388)",5.366964000476114,49841.0,7178_0_no,36.46001310957166,-119.81322606520558,10.0
93652,36.59502,-119.90458,Raisin City,CA,California,True,,563.0,105.3,6019,Fresno,"{""06019"": 100}",Fresno,06019,False,False,America/Los_Angeles,"(36.59502, -119.90458)",10.61788287575691,49841.0,7178_0_no,36.46001310957166,-119.81322606520558,10.0
93656,36.45173,-119.93615,Riverdale,CA,California,True,,5806.0,19.8,6019,Fresno,"{""06019"": 90.74, ""06031"": 9.26}",Fresno|Kings,06019|06031,False,False,America/Los_Angeles,"(36.45173, -119.93615)",6.855165182349547,49841.0,7178_0_no,36.46001310957166,-119.81322606520558,10.0
93662,36.53963,-119.64287,Selma,CA,California,True,,30453.0,151.0,6019,Fresno,"{""06019"": 100}",Fresno,06019,False,False,America/Los_Angeles,"(36.53963, -119.64287)",10.944712612756858,49841.0,7178_0_no,36.46001310957166,-119.81322606520558,10.0
