zip,lat,lng,city,state_id,state_name,zcta,parent_zcta,population,density,county_fips,county_name,county_weights,county_names_all,county_fips_all,imprecise,military,timezone,Coord,distance_miles,market_total_population,market_id,market_center_lat,market_center_lng,radius_miles
24137,36.92587,-79.65456,Penhook,VA,Virginia,True,,3286.0,17.7,51067,Franklin,"{""51067"": 78.76, ""51143"": 21.24}",Franklin|Pittsylvania,51067|51143,False,False,America/New_York,"(36.92587, -79.65456)",9.9413854832222,19885.0,7240_0_yes,36.83365961471126,-79.51647717115036,10.0
24527,36.7324,-79.34577,Blairs,VA,Virginia,True,,3141.0,39.2,51143,Pittsylvania,"{""51143"": 100}",Pittsylvania,51143,False,False,America/New_York,"(36.7324, -79.34577)",11.755243202315837,19885.0,7240_0_yes,36.83365961471126,-79.51647717115036,10.0
24530,36.80785,-79.61044,Callands,VA,Virginia,True,,876.0,9.4,51143,Pittsylvania,"{""51143"": 90.29, ""51089"": 9.71}",Pittsylvania|Henry,51143|51089,False,False,America/New_York,"(36.80785, -79.61044)",5.494543924144676,19885.0,7240_0_yes,36.83365961471126,-79.51647717115036,10.0
24531,36.83922,-79.44332,Chatham,VA,Virginia,True,,8697.0,17.1,51143,Pittsylvania,"{""51143"": 100}",Pittsylvania,51143,False,False,America/New_York,"(36.83922, -79.44332)",4.063714826522112,19885.0,7240_0_yes,36.83365961471126,-79.51647717115036,10.0
24549,36.71584,-79.50632,Dry Fork,VA,Virginia,True,,3885.0,29.1,51143,Pittsylvania,"{""51143"": 100}",Pittsylvania,51143,False,False,America/New_York,"(36.71584, -79.50632)",8.159945518883262,19885.0,7240_0_yes,36.83365961471126,-79.51647717115036,10.0
