zip,lat,lng,city,state_id,state_name,zcta,parent_zcta,population,density,county_fips,county_name,county_weights,county_names_all,county_fips_all,imprecise,military,timezone,Coord,distance_miles,market_total_population,market_id,market_center_lat,market_center_lng,radius_miles
24312,36.83117,-80.86897,Austinville,VA,Virginia,True,,2118.0,22.8,51035,Carroll,"{""51035"": 68.73, ""51197"": 31.27}",Carroll|Wythe,51035|51197,False,False,America/New_York,"(36.83117, -80.86897)",5.031726244608075,32885.0,7244_0_yes,36.83584967207125,-80.95976984706832,10.0
24313,36.9105,-80.79805,Barren Springs,VA,Virginia,True,,704.0,35.7,51197,Wythe,"{""51197"": 90.01, ""51155"": 9.99}",Wythe|Pulaski,51197|51155,False,False,America/New_York,"(36.9105, -80.79805)",10.320008885542483,32885.0,7244_0_yes,36.83584967207125,-80.95976984706832,10.0
24322,36.80534,-81.1195,Cripple Creek,VA,Virginia,True,,33.0,0.7,51197,Wythe,"{""51197"": 100}",Wythe,51197,False,False,America/New_York,"(36.80534, -81.1195)",9.08274664749681,32885.0,7244_0_yes,36.83584967207125,-80.95976984706832,10.0
24324,36.97461,-80.78836,Draper,VA,Virginia,True,,2373.0,23.4,51155,Pulaski,"{""51155"": 76.28, ""51197"": 23.72}",Pulaski|Wythe,51155|51197,False,False,America/New_York,"(36.97461, -80.78836)",13.47606108327221,32885.0,7244_0_yes,36.83584967207125,-80.95976984706832,10.0
24330,36.72375,-81.02471,Fries,VA,Virginia,True,,2905.0,26.2,51077,Grayson,"{""51077"": 78.82, ""51035"": 21.18}",Grayson|Carroll,51077|51035,False,False,America/New_York,"(36.72375, -81.02471)",8.538481995003627,32885.0,7244_0_yes,36.83584967207125,-80.95976984706832,10.0
24350,36.81109,-81.01757,Ivanhoe,VA,Virginia,True,,1370.0,10.9,51197,Wythe,"{""51197"": 49.52, ""51035"": 30.01, ""51077"": 20.47}",Wythe|Carroll|Grayson,51197|51035|51077,False,False,America/New_York,"(36.81109, -81.01757)",3.6257843067962248,32885.0,7244_0_yes,36.83584967207125,-80.95976984706832,10.0
24360,36.93917,-80.9023,Max Meadows,VA,Virginia,True,,5816.0,24.3,51197,Wythe,"{""51197"": 98.81, ""51035"": 1.19}",Wythe|Carroll,51197|51035,False,False,America/New_York,"(36.93917, -80.9023)",7.813330897649053,32885.0,7244_0_yes,36.83584967207125,-80.95976984706832,10.0
24381,36.72453,-80.83924,Woodlawn,VA,Virginia,True,,3727.0,28.3,51035,Carroll,"{""51035"": 100}",Carroll,51035,False,False,America/New_York,"(36.72453, -80.83924)",10.180781116873368,32885.0,7244_0_yes,36.83584967207125,-80.95976984706832,10.0
24382,36.95702,-81.10652,Wytheville,VA,Virginia,True,,13839.0,28.1,51197,Wythe,"{""51197"": 100}",Wythe,51197,False,False,America/New_York,"(36.95702, -81.10652)",11.655190204603302,32885.0,7244_0_yes,36.83584967207125,-80.95976984706832,10.0
