zip,lat,lng,city,state_id,state_name,zcta,parent_zcta,population,density,county_fips,county_name,county_weights,county_names_all,county_fips_all,imprecise,military,timezone,Coord,distance_miles,market_total_population,market_id,market_center_lat,market_center_lng,radius_miles
63825,36.93033,-89.94432,Bloomfield,MO,Missouri,True,,4495.0,16.6,29207,Stoddard,"{""29207"": 100}",Stoddard,29207,False,False,America/Chicago,"(36.93033, -89.94432)",5.943911441838137,23186.0,7269_0_yes,36.84954146001594,-89.9812816621755,10.0
63841,36.77198,-89.98169,Dexter,MO,Missouri,True,,13104.0,39.2,29207,Stoddard,"{""29207"": 100}",Stoddard,29207,False,False,America/Chicago,"(36.77198, -89.98169)",5.359034058669272,23186.0,7269_0_yes,36.84954146001594,-89.9812816621755,10.0
63846,36.82229,-89.80199,Essex,MO,Missouri,True,,1431.0,5.4,29207,Stoddard,"{""29207"": 100}",Stoddard,29207,False,False,America/Chicago,"(36.82229, -89.80199)",10.091910385815284,23186.0,7269_0_yes,36.84954146001594,-89.9812816621755,10.0
63936,36.80731,-90.12979,Dudley,MO,Missouri,True,,661.0,3.0,29207,Stoddard,"{""29207"": 100}",Stoddard,29207,False,False,America/Chicago,"(36.80731, -90.12979)",8.716139173368123,23186.0,7269_0_yes,36.84954146001594,-89.9812816621755,10.0
63960,36.96074,-90.12434,Puxico,MO,Missouri,True,,3495.0,11.6,29207,Stoddard,"{""29207"": 90.91, ""29017"": 9.09}",Stoddard|Bollinger,29207|29017,False,False,America/Chicago,"(36.96074, -90.12434)",11.022740352613638,23186.0,7269_0_yes,36.84954146001594,-89.9812816621755,10.0
