zip,lat,lng,city,state_id,state_name,zcta,parent_zcta,population,density,county_fips,county_name,county_weights,county_names_all,county_fips_all,imprecise,military,timezone,Coord,distance_miles,market_total_population,market_id,market_center_lat,market_center_lng,radius_miles
64858,36.89981,-94.52888,Racine,MO,Missouri,True,,419.0,475.5,29145,Newton,"{""29145"": 100}",Newton,29145,False,False,America/Chicago,"(36.89981, -94.52888)",8.510272372600866,15896.0,7282_0_yes,36.85666386846176,-94.6731036714622,10.0
64865,36.84253,-94.57797,Seneca,MO,Missouri,True,,5679.0,29.2,29145,Newton,"{""29145"": 84.33, ""29119"": 15.67}",Newton|McDonald,29145|29119,False,False,America/Chicago,"(36.84253, -94.57797)",5.34977170876452,15896.0,7282_0_yes,36.85666386846176,-94.6731036714622,10.0
74343,36.74287,-94.825,Fairland,OK,Oklahoma,True,,3084.0,18.6,40115,Ottawa,"{""40115"": 100}",Ottawa,40115,False,False,America/Chicago,"(36.74287, -94.825)",11.508260634458283,15896.0,7282_0_yes,36.85666386846176,-94.6731036714622,10.0
74360,36.9801,-94.83636,Picher,OK,Oklahoma,True,,25.0,2.0,40115,Ottawa,"{""40115"": 100}",Ottawa,40115,False,False,America/Chicago,"(36.9801, -94.83636)",12.412317283477936,15896.0,7282_0_yes,36.85666386846176,-94.6731036714622,10.0
74363,36.95341,-94.70965,Quapaw,OK,Oklahoma,True,,2832.0,16.7,40115,Ottawa,"{""40115"": 100}",Ottawa,40115,False,False,America/Chicago,"(36.95341, -94.70965)",6.9828233332626555,15896.0,7282_0_yes,36.85666386846176,-94.6731036714622,10.0
74370,36.76429,-94.68017,Wyandotte,OK,Oklahoma,True,,3857.0,13.8,40115,Ottawa,"{""40115"": 92.49, ""40041"": 7.51}",Ottawa|Delaware,40115|40041,False,False,America/Chicago,"(36.76429, -94.68017)",6.3943853487603315,15896.0,7282_0_yes,36.85666386846176,-94.6731036714622,10.0
