zip,lat,lng,city,state_id,state_name,zcta,parent_zcta,population,density,county_fips,county_name,county_weights,county_names_all,county_fips_all,imprecise,military,timezone,Coord,distance_miles,market_total_population,market_id,market_center_lat,market_center_lng,radius_miles
74333,36.79386,-95.08408,Bluejacket,OK,Oklahoma,True,,922.0,3.9,40035,Craig,"{""40035"": 87.94, ""40115"": 12.06}",Craig|Ottawa,40035|40115,False,False,America/Chicago,"(36.79386, -95.08408)",5.178986710592385,23227.0,7283_0_yes,36.857211821983,-95.03403108826366,10.0
74339,36.934,-94.87975,Commerce,OK,Oklahoma,True,,2393.0,270.5,40115,Ottawa,"{""40115"": 100}",Ottawa,40115,False,False,America/Chicago,"(36.934, -94.87975)",10.041120842589807,23227.0,7283_0_yes,36.857211821983,-95.03403108826366,10.0
74354,36.88962,-94.88096,Miami,OK,Oklahoma,True,,17735.0,37.2,40115,Ottawa,"{""40115"": 96.79, ""40035"": 3.21}",Ottawa|Craig,40115|40035,False,False,America/Chicago,"(36.88962, -94.88096)",8.751872668831092,23227.0,7283_0_yes,36.857211821983,-95.03403108826366,10.0
74358,36.91798,-94.88052,North Miami,OK,Oklahoma,True,,219.0,630.6,40115,Ottawa,"{""40115"": 100}",Ottawa,40115,False,False,America/Chicago,"(36.91798, -94.88052)",9.465494381582868,23227.0,7283_0_yes,36.857211821983,-95.03403108826366,10.0
74369,36.92237,-95.19776,Welch,OK,Oklahoma,True,,1958.0,3.5,40035,Craig,"{""40035"": 100}",Craig,40035,False,False,America/Chicago,"(36.92237, -95.19776)",10.105895269193628,23227.0,7283_0_yes,36.857211821983,-95.03403108826366,10.0
