zip,lat,lng,city,state_id,state_name,zcta,parent_zcta,population,density,county_fips,county_name,county_weights,county_names_all,county_fips_all,imprecise,military,timezone,Coord,distance_miles,market_total_population,market_id,market_center_lat,market_center_lng,radius_miles
24058,37.18257,-80.61637,Belspring,VA,Virginia,True,,222.0,32.0,51155,Pulaski,"{""51155"": 100}",Pulaski,51155,False,False,America/New_York,"(37.18257, -80.61637)",10.468379726279737,30784.0,7407_0_yes,37.12517491434145,-80.7922993571441,10.0
24084,37.11468,-80.79088,Dublin,VA,Virginia,True,,11361.0,38.6,51155,Pulaski,"{""51155"": 74.94, ""51021"": 25.06}",Pulaski|Bland,51155|51021,False,False,America/New_York,"(37.11468, -80.79088)",0.7293336641979635,30784.0,7407_0_yes,37.12517491434145,-80.7922993571441,10.0
24132,37.20534,-80.64707,Parrott,VA,Virginia,True,,301.0,8.0,51155,Pulaski,"{""51155"": 100}",Pulaski,51155,False,False,America/New_York,"(37.20534, -80.64707)",9.727337963646324,30784.0,7407_0_yes,37.12517491434145,-80.7922993571441,10.0
24134,37.24595,-80.77901,Pearisburg,VA,Virginia,True,,5166.0,19.1,51071,Giles,"{""51071"": 100}",Giles,51071,False,False,America/New_York,"(37.24595, -80.77901)",8.376765451882035,30784.0,7407_0_yes,37.12517491434145,-80.7922993571441,10.0
24167,37.24718,-80.7345,Staffordsville,VA,Virginia,True,,140.0,8.7,51071,Giles,"{""51071"": 100}",Giles,51071,False,False,America/New_York,"(37.24718, -80.7345)",9.010162474189357,30784.0,7407_0_yes,37.12517491434145,-80.7922993571441,10.0
24301,37.06319,-80.79735,Pulaski,VA,Virginia,True,,13594.0,61.4,51155,Pulaski,"{""51155"": 100}",Pulaski,51155,False,False,America/New_York,"(37.06319, -80.79735)",4.29178564151386,30784.0,7407_0_yes,37.12517491434145,-80.7922993571441,10.0
