zip,lat,lng,city,state_id,state_name,zcta,parent_zcta,population,density,county_fips,county_name,county_weights,county_names_all,county_fips_all,imprecise,military,timezone,Coord,distance_miles,market_total_population,market_id,market_center_lat,market_center_lng,radius_miles
42516,37.22247,-84.77881,Bethelridge,KY,Kentucky,True,,930.0,28.6,21045,Casey,"{""21045"": 100}",Casey,21045,False,False,America/New_York,"(37.22247, -84.77881)",6.303038918777018,18529.0,7418_0_yes,37.13126170674154,-84.77662672030377,10.0
42544,37.03473,-84.8143,Nancy,KY,Kentucky,True,,5569.0,15.1,21199,Pulaski,"{""21199"": 73.6, ""21207"": 16.53, ""21231"": 9.87}",Pulaski|Russell|Wayne,21199|21207|21231,False,False,America/New_York,"(37.03473, -84.8143)",6.985489367581669,18529.0,7418_0_yes,37.13126170674154,-84.77662672030377,10.0
42553,37.1716,-84.70056,Science Hill,KY,Kentucky,True,,5914.0,34.8,21199,Pulaski,"{""21199"": 100}",Pulaski,21199,False,False,America/New_York,"(37.1716, -84.70056)",5.03148979171474,18529.0,7418_0_yes,37.13126170674154,-84.77662672030377,10.0
42565,37.15008,-84.90086,Windsor,KY,Kentucky,True,,848.0,13.8,21045,Casey,"{""21045"": 99.3, ""21207"": 0.7}",Casey|Russell,21045|21207,False,False,America/New_York,"(37.15008, -84.90086)",6.964983588936501,18529.0,7418_0_yes,37.13126170674154,-84.77662672030377,10.0
42567,37.26441,-84.60454,Eubank,KY,Kentucky,True,,5268.0,23.1,21199,Pulaski,"{""21199"": 87.76, ""21137"": 12.24}",Pulaski|Lincoln,21199|21137,False,False,America/New_York,"(37.26441, -84.60454)",13.203589836176679,18529.0,7418_0_yes,37.13126170674154,-84.77662672030377,10.0
