zip,lat,lng,city,state_id,state_name,zcta,parent_zcta,population,density,county_fips,county_name,county_weights,county_names_all,county_fips_all,imprecise,military,timezone,Coord,distance_miles,market_total_population,market_id,market_center_lat,market_center_lng,radius_miles
42023,36.87623,-88.98742,Bardwell,KY,Kentucky,True,,2267.0,9.2,21039,Carlisle,"{""21039"": 100}",Carlisle,21039,False,False,America/Chicago,"(36.87623, -88.98742)",8.447534652822723,15432.0,7420_0_no,36.99309183381134,-89.03237879745427,10.0
42024,37.0742,-89.05026,Barlow,KY,Kentucky,True,,1059.0,8.8,21007,Ballard,"{""21007"": 100}",Ballard,21007,False,False,America/Chicago,"(37.0742, -89.05026)",5.690164390228622,15432.0,7420_0_no,36.99309183381134,-89.03237879745427,10.0
42053,37.1033,-88.87606,Kevil,KY,Kentucky,True,,5193.0,16.7,21007,Ballard,"{""21007"": 50.84, ""21145"": 49.16}",Ballard|McCracken,21007|21145,False,False,America/Chicago,"(37.1033, -88.87606)",11.501827891828697,15432.0,7420_0_no,36.99309183381134,-89.03237879745427,10.0
42056,37.11088,-88.98452,La Center,KY,Kentucky,True,,1384.0,10.0,21007,Ballard,"{""21007"": 100}",Ballard,21007,False,False,America/Chicago,"(37.11088, -88.98452)",8.555582685374608,15432.0,7420_0_no,36.99309183381134,-89.03237879745427,10.0
42087,36.97328,-89.00323,Wickliffe,KY,Kentucky,True,,2636.0,14.9,21007,Ballard,"{""21007"": 100}",Ballard,21007,False,False,America/Chicago,"(36.97328, -89.00323)",2.1123526879907026,15432.0,7420_0_no,36.99309183381134,-89.03237879745427,10.0
62914,37.04076,-89.20329,Cairo,IL,Illinois,True,,2116.0,40.9,17003,Alexander,"{""17003"": 100}",Alexander,17003,False,False,America/Chicago,"(37.04076, -89.20329)",9.987534800180741,15432.0,7420_0_no,36.99309183381134,-89.03237879745427,10.0
62963,37.0933,-89.16263,Mound City,IL,Illinois,True,,777.0,71.8,17153,Pulaski,"{""17153"": 100}",Pulaski,17153,False,False,America/Chicago,"(37.0933, -89.16263)",9.976812989093398,15432.0,7420_0_no,36.99309183381134,-89.03237879745427,10.0
