zip,lat,lng,city,state_id,state_name,zcta,parent_zcta,population,density,county_fips,county_name,county_weights,county_names_all,county_fips_all,imprecise,military,timezone,Coord,distance_miles,market_total_population,market_id,market_center_lat,market_center_lng,radius_miles
64848,37.18061,-93.99523,La Russell,MO,Missouri,True,,451.0,4.1,29109,Lawrence,"{""29109"": 98.78, ""29097"": 1.22}",Lawrence|Jasper,29109|29097,False,False,America/Chicago,"(37.18061, -93.99523)",9.258039332571798,12447.0,7443_0_yes,37.14510029359358,-93.83310340662403,10.0
65654,37.02164,-93.8975,Freistatt,MO,Missouri,True,,327.0,612.7,29109,Lawrence,"{""29109"": 100}",Lawrence,29109,False,False,America/Chicago,"(37.02164, -93.8975)",9.239322827980118,12447.0,7443_0_yes,37.14510029359358,-93.83310340662403,10.0
65707,37.22862,-93.84574,Miller,MO,Missouri,True,,1917.0,7.8,29109,Lawrence,"{""29109"": 100}",Lawrence,29109,False,False,America/Chicago,"(37.22862, -93.84574)",5.8124320170657455,12447.0,7443_0_yes,37.14510029359358,-93.83310340662403,10.0
65712,37.10964,-93.80645,Mount Vernon,MO,Missouri,True,,9119.0,29.3,29109,Lawrence,"{""29109"": 100}",Lawrence,29109,False,False,America/Chicago,"(37.10964, -93.80645)",2.856344286570208,12447.0,7443_0_yes,37.14510029359358,-93.83310340662403,10.0
65756,37.0981,-93.96315,Stotts City,MO,Missouri,True,,633.0,7.9,29109,Lawrence,"{""29109"": 100}",Lawrence,29109,False,False,America/Chicago,"(37.0981, -93.96315)",7.866146804293656,12447.0,7443_0_yes,37.14510029359358,-93.83310340662403,10.0
