zip,lat,lng,city,state_id,state_name,zcta,parent_zcta,population,density,county_fips,county_name,county_weights,county_names_all,county_fips_all,imprecise,military,timezone,Coord,distance_miles,market_total_population,market_id,market_center_lat,market_center_lng,radius_miles
66713,37.03323,-94.78637,Baxter Springs,KS,Kansas,True,,5398.0,35.3,20021,Cherokee,"{""20021"": 100}",Cherokee,20021,False,False,America/Chicago,"(37.03323, -94.78637)",10.759612585999895,13513.0,7446_0_yes,37.14676138788082,-94.91999148486396,10.0
66725,37.15906,-94.88892,Columbus,KS,Kansas,True,,5803.0,9.8,20021,Cherokee,"{""20021"": 100}",Cherokee,20021,False,False,America/Chicago,"(37.15906, -94.88892)",1.9104687462406935,13513.0,7446_0_yes,37.14676138788082,-94.91999148486396,10.0
66773,37.26599,-94.81262,Scammon,KS,Kansas,True,,635.0,7.3,20021,Cherokee,"{""20021"": 100}",Cherokee,20021,False,False,America/Chicago,"(37.26599, -94.81262)",10.13783782958305,13513.0,7446_0_yes,37.14676138788082,-94.91999148486396,10.0
66782,37.28493,-94.92609,West Mineral,KS,Kansas,True,,130.0,164.9,20021,Cherokee,"{""20021"": 100}",Cherokee,20021,False,False,America/Chicago,"(37.28493, -94.92609)",9.552437470730116,13513.0,7446_0_yes,37.14676138788082,-94.91999148486396,10.0
67336,37.05385,-95.07489,Chetopa,KS,Kansas,True,,1547.0,6.5,20021,Cherokee,"{""20021"": 55.71, ""20099"": 44.29}",Cherokee|Labette,20021|20099,False,False,America/Chicago,"(37.05385, -95.07489)",10.680611293551234,13513.0,7446_0_yes,37.14676138788082,-94.91999148486396,10.0
