zip,lat,lng,city,state_id,state_name,zcta,parent_zcta,population,density,county_fips,county_name,county_weights,county_names_all,county_fips_all,imprecise,military,timezone,Coord,distance_miles,market_total_population,market_id,market_center_lat,market_center_lng,radius_miles
67301,37.21092,-95.75224,Independence,KS,Kansas,True,,12647.0,22.7,20125,Montgomery,"{""20125"": 100}",Montgomery,20125,False,False,America/Chicago,"(37.21092, -95.75224)",7.354796052251145,28724.0,7448_0_yes,37.14786883931334,-95.64459674278808,10.0
67335,37.28005,-95.53381,Cherryvale,KS,Kansas,True,,3409.0,10.4,20125,Montgomery,"{""20125"": 56.92, ""20099"": 41.03, ""20205"": 2.05}",Montgomery|Labette|Wilson,20125|20099|20205,False,False,America/Chicago,"(37.28005, -95.53381)",10.980450979431934,28724.0,7448_0_yes,37.14786883931334,-95.64459674278808,10.0
67337,37.05486,-95.5993,Coffeyville,KS,Kansas,True,,11569.0,30.3,20125,Montgomery,"{""20125"": 71.82, ""20099"": 28.18}",Montgomery|Labette,20125|20099,False,False,America/Chicago,"(37.05486, -95.5993)",6.894064150079956,28724.0,7448_0_yes,37.14786883931334,-95.64459674278808,10.0
67340,37.05948,-95.71207,Dearing,KS,Kansas,True,,512.0,245.5,20125,Montgomery,"{""20125"": 100}",Montgomery,20125,False,False,America/Chicago,"(37.05948, -95.71207)",7.149890871753177,28724.0,7448_0_yes,37.14786883931334,-95.64459674278808,10.0
67351,37.14066,-95.56698,Liberty,KS,Kansas,True,,277.0,2.5,20125,Montgomery,"{""20125"": 80.18, ""20099"": 19.82}",Montgomery|Labette,20125|20099,False,False,America/Chicago,"(37.14066, -95.56698)",4.303707081663303,28724.0,7448_0_yes,37.14786883931334,-95.64459674278808,10.0
67364,37.03683,-95.82184,Tyro,KS,Kansas,True,,310.0,265.7,20125,Montgomery,"{""20125"": 100}",Montgomery,20125,False,False,America/Chicago,"(37.03683, -95.82184)",12.421084557236137,28724.0,7448_0_yes,37.14786883931334,-95.64459674278808,10.0
