zip,lat,lng,city,state_id,state_name,zcta,parent_zcta,population,density,county_fips,county_name,county_weights,county_names_all,county_fips_all,imprecise,military,timezone,Coord,distance_miles,market_total_population,market_id,market_center_lat,market_center_lng,radius_miles
67004,37.28317,-97.76401,Argonia,KS,Kansas,True,,740.0,2.7,20191,Sumner,"{""20191"": 71.9, ""20077"": 28.1}",Sumner|Harper,20191|20077,False,False,America/Chicago,"(37.28317, -97.76401)",9.598671101240873,1269.0,7454_0_yes,37.15119145880124,-97.81847591524284,10.0
67018,37.07108,-97.85872,Bluff City,KS,Kansas,True,,117.0,0.7,20077,Harper,"{""20077"": 91.98, ""20191"": 8.02}",Harper|Sumner,20077|20191,False,False,America/Chicago,"(37.07108, -97.85872)",5.962816631159084,1269.0,7454_0_yes,37.15119145880124,-97.81847591524284,10.0
67036,37.28987,-97.88262,Danville,KS,Kansas,True,,101.0,1.0,20077,Harper,"{""20077"": 100}",Harper,20077,False,False,America/Chicago,"(37.28987, -97.88262)",10.211057425254255,1269.0,7454_0_yes,37.15119145880124,-97.81847591524284,10.0
67049,37.17059,-97.84646,Freeport,KS,Kansas,True,,129.0,1.3,20077,Harper,"{""20077"": 88.86, ""20191"": 11.14}",Harper|Sumner,20077|20191,False,False,America/Chicago,"(37.17059, -97.84646)",2.0422563070273907,1269.0,7454_0_yes,37.15119145880124,-97.81847591524284,10.0
67105,37.22001,-97.67825,Milan,KS,Kansas,True,,182.0,1.2,20191,Sumner,"{""20191"": 100}",Sumner,20191,False,False,America/Chicago,"(37.22001, -97.67825)",9.065816129708058,1269.0,7454_0_yes,37.15119145880124,-97.81847591524284,10.0
