zip,lat,lng,city,state_id,state_name,zcta,parent_zcta,population,density,county_fips,county_name,county_weights,county_names_all,county_fips_all,imprecise,military,timezone,Coord,distance_miles,market_total_population,market_id,market_center_lat,market_center_lng,radius_miles
23934,37.17613,-78.62373,Cullen,VA,Virginia,True,,565.0,5.4,51147,Prince Edward,"{""51147"": 55.31, ""51037"": 44.69}",Prince Edward|Charlotte,51147|51037,False,False,America/New_York,"(37.17613, -78.62373)",8.724658650535554,17434.0,7555_0_no,37.26696445045713,-78.73388393687995,10.0
23958,37.26848,-78.65581,Pamplin,VA,Virginia,True,,2906.0,11.5,51011,Appomattox,"{""51011"": 45.74, ""51147"": 42.74, ""51037"": 11.52}",Appomattox|Prince Edward|Charlotte,51011|51147|51037,False,False,America/New_York,"(37.26848, -78.65581)",4.29421604073846,17434.0,7555_0_no,37.26696445045713,-78.73388393687995,10.0
23960,37.31531,-78.5579,Prospect,VA,Virginia,True,,2089.0,18.9,51147,Prince Edward,"{""51147"": 97.06, ""51011"": 2.94}",Prince Edward|Appomattox,51147|51011,False,False,America/New_York,"(37.31531, -78.5579)",10.234052566326582,17434.0,7555_0_no,37.26696445045713,-78.73388393687995,10.0
23963,37.195,-78.80168,Red House,VA,Virginia,True,,82.0,1.5,51037,Charlotte,"{""51037"": 72.48, ""51031"": 23.65, ""51011"": 3.87}",Charlotte|Campbell|Appomattox,51037|51031|51011,False,False,America/New_York,"(37.195, -78.80168)",6.215589110968469,17434.0,7555_0_no,37.26696445045713,-78.73388393687995,10.0
24522,37.37324,-78.78591,Appomattox,VA,Virginia,True,,9230.0,17.8,51011,Appomattox,"{""51011"": 96.25, ""51029"": 3.49, ""51037"": 0.26}",Appomattox|Buckingham|Charlotte,51011|51029|51037,False,False,America/New_York,"(37.37324, -78.78591)",7.879777404303353,17434.0,7555_0_no,37.26696445045713,-78.73388393687995,10.0
24593,37.32651,-78.91342,Spout Spring,VA,Virginia,True,,2562.0,28.3,51011,Appomattox,"{""51011"": 98.08, ""51031"": 1.92}",Appomattox|Campbell,51011|51031,False,False,America/New_York,"(37.32651, -78.91342)",10.691387005378425,17434.0,7555_0_no,37.26696445045713,-78.73388393687995,10.0
