zip,lat,lng,city,state_id,state_name,zcta,parent_zcta,population,density,county_fips,county_name,county_weights,county_names_all,county_fips_all,imprecise,military,timezone,Coord,distance_miles,market_total_population,market_id,market_center_lat,market_center_lng,radius_miles
24104,37.13546,-79.48773,Huddleston,VA,Virginia,True,,3046.0,15.9,51019,Bedford,"{""51019"": 100}",Bedford,51019,False,False,America/New_York,"(37.13546, -79.48773)",9.292437501441185,55387.0,7557_0_no,37.268076706448056,-79.45963939738404,10.0
24523,37.3364,-79.52347,Bedford,VA,Virginia,True,,20791.0,34.9,51019,Bedford,"{""51019"": 100}",Bedford,51019,False,False,America/New_York,"(37.3364, -79.52347)",5.881499804111809,55387.0,7557_0_no,37.268076706448056,-79.45963939738404,10.0
24551,37.36655,-79.3268,Forest,VA,Virginia,True,,26654.0,138.7,51019,Bedford,"{""51019"": 97.24, ""51031"": 2.41, ""51680"": 0.35}",Bedford|Campbell|Lynchburg,51019|51031|51680,False,False,America/New_York,"(37.36655, -79.3268)",9.978686248634446,55387.0,7557_0_no,37.268076706448056,-79.45963939738404,10.0
24556,37.38093,-79.4021,Goode,VA,Virginia,True,,2626.0,25.6,51019,Bedford,"{""51019"": 100}",Bedford,51019,False,False,America/New_York,"(37.38093, -79.4021)",8.413947114606176,55387.0,7557_0_no,37.268076706448056,-79.45963939738404,10.0
24571,37.13671,-79.37983,Lynch Station,VA,Virginia,True,,2270.0,17.2,51031,Campbell,"{""51031"": 60.26, ""51019"": 39.74}",Campbell|Bedford,51031|51019,False,False,America/New_York,"(37.13671, -79.37983)",10.08341884499762,55387.0,7557_0_no,37.268076706448056,-79.45963939738404,10.0
