zip,lat,lng,city,state_id,state_name,zcta,parent_zcta,population,density,county_fips,county_name,county_weights,county_names_all,county_fips_all,imprecise,military,timezone,Coord,distance_miles,market_total_population,market_id,market_center_lat,market_center_lng,radius_miles
42207,37.30357,-86.27858,Bee Spring,KY,Kentucky,True,,1159.0,23.3,21061,Edmonson,"{""21061"": 97.54, ""21085"": 2.46}",Edmonson|Grayson,21061|21085,False,False,America/Chicago,"(37.30357, -86.27858)",4.532305163718524,10326.0,7576_0_no,37.27864535962552,-86.35484883182099,10.0
42210,37.21724,-86.31438,Brownsville,KY,Kentucky,True,,4294.0,19.8,21061,Edmonson,"{""21061"": 100}",Edmonson,21061,False,False,America/Chicago,"(37.21724, -86.31438)",4.7911039807029585,10326.0,7576_0_no,37.27864535962552,-86.35484883182099,10.0
42275,37.22701,-86.44628,Roundhill,KY,Kentucky,True,,854.0,7.1,21031,Butler,"{""21031"": 72.89, ""21061"": 27.11}",Butler|Edmonson,21031|21061,False,False,America/Chicago,"(37.22701, -86.44628)",6.165460735275977,10326.0,7576_0_no,37.27864535962552,-86.35484883182099,10.0
42285,37.26418,-86.29751,Sweeden,KY,Kentucky,True,,481.0,22.2,21061,Edmonson,"{""21061"": 100}",Edmonson,21061,False,False,America/Chicago,"(37.26418, -86.29751)",3.3072866719601226,10326.0,7576_0_no,37.27864535962552,-86.35484883182099,10.0
42721,37.42173,-86.49593,Caneyville,KY,Kentucky,True,,3538.0,9.6,21085,Grayson,"{""21085"": 89.89, ""21031"": 6.17, ""21061"": 3.94}",Grayson|Butler|Edmonson,21085|21031|21061,False,False,America/Chicago,"(37.42173, -86.49593)",12.561162670059975,10326.0,7576_0_no,37.27864535962552,-86.35484883182099,10.0
