zip,lat,lng,city,state_id,state_name,zcta,parent_zcta,population,density,county_fips,county_name,county_weights,county_names_all,county_fips_all,imprecise,military,timezone,Coord,distance_miles,market_total_population,market_id,market_center_lat,market_center_lng,radius_miles
42320,37.35093,-86.87291,Beaver Dam,KY,Kentucky,True,,8744.0,22.7,21183,Ohio,"{""21183"": 92.36, ""21031"": 7.64}",Ohio|Butler,21183|21031,False,False,America/Chicago,"(37.35093, -86.87291)",6.315826555332251,18669.0,7587_0_yes,37.42398653443973,-86.80376234436257,10.0
42333,37.37718,-86.75609,Cromwell,KY,Kentucky,True,,1211.0,13.0,21183,Ohio,"{""21183"": 94.68, ""21031"": 5.32}",Ohio|Butler,21183|21031,False,False,America/Chicago,"(37.37718, -86.75609)",4.160025037825012,18669.0,7587_0_yes,37.42398653443973,-86.80376234436257,10.0
42338,37.55295,-86.77408,Dundee,KY,Kentucky,True,,26.0,3.2,21183,Ohio,"{""21183"": 100}",Ohio,21183,False,False,America/Chicago,"(37.55295, -86.77408)",9.057902690353234,18669.0,7587_0_yes,37.42398653443973,-86.80376234436257,10.0
42347,37.52414,-86.88715,Hartford,KY,Kentucky,True,,6202.0,19.7,21183,Ohio,"{""21183"": 100}",Ohio,21183,False,False,America/Chicago,"(37.52414, -86.88715)",8.294190319674467,18669.0,7587_0_yes,37.42398653443973,-86.80376234436257,10.0
42349,37.42695,-86.67425,Horse Branch,KY,Kentucky,True,,1899.0,13.0,21183,Ohio,"{""21183"": 89.73, ""21085"": 10.27}",Ohio|Grayson,21183|21085,False,False,America/Chicago,"(37.42695, -86.67425)",7.109312074517629,18669.0,7587_0_yes,37.42398653443973,-86.80376234436257,10.0
42354,37.37915,-86.9273,McHenry,KY,Kentucky,True,,171.0,82.1,21183,Ohio,"{""21183"": 100}",Ohio,21183,False,False,America/Chicago,"(37.37915, -86.9273)",7.454853993719802,18669.0,7587_0_yes,37.42398653443973,-86.80376234436257,10.0
42361,37.51791,-86.69183,Olaton,KY,Kentucky,True,,413.0,4.2,21183,Ohio,"{""21183"": 69.26, ""21085"": 30.74}",Ohio|Grayson,21183|21085,False,False,America/Chicago,"(37.51791, -86.69183)",8.932452233739323,18669.0,7587_0_yes,37.42398653443973,-86.80376234436257,10.0
42370,37.4497,-86.74121,Rosine,KY,Kentucky,True,,3.0,8.4,21183,Ohio,"{""21183"": 100}",Ohio,21183,False,False,America/Chicago,"(37.4497, -86.74121)",3.8643535288384205,18669.0,7587_0_yes,37.42398653443973,-86.80376234436257,10.0
