zip,lat,lng,city,state_id,state_name,zcta,parent_zcta,population,density,county_fips,county_name,county_weights,county_names_all,county_fips_all,imprecise,military,timezone,Coord,distance_miles,market_total_population,market_id,market_center_lat,market_center_lng,radius_miles
64755,37.33685,-94.31112,Jasper,MO,Missouri,True,,2844.0,7.5,29097,Jasper,"{""29097"": 65.24, ""29011"": 34.76}",Jasper|Barton,29097|29011,False,False,America/Chicago,"(37.33685, -94.31112)",3.5496695972942978,48182.0,7598_0_no,37.290887771510285,-94.33998029876452,10.0
64830,37.2308,-94.41053,Alba,MO,Missouri,True,,837.0,212.1,29097,Jasper,"{""29097"": 100}",Jasper,29097,False,False,America/Chicago,"(37.2308, -94.41053)",5.6822014485947046,48182.0,7598_0_no,37.290887771510285,-94.33998029876452,10.0
64835,37.14749,-94.43824,Carterville,MO,Missouri,True,,2228.0,400.0,29097,Jasper,"{""29097"": 100}",Jasper,29097,False,False,America/Chicago,"(37.14749, -94.43824)",11.286889019866736,48182.0,7598_0_no,37.290887771510285,-94.33998029876452,10.0
64836,37.18886,-94.28898,Carthage,MO,Missouri,True,,24375.0,51.1,29097,Jasper,"{""29097"": 100}",Jasper,29097,False,False,America/Chicago,"(37.18886, -94.28898)",7.587127762377416,48182.0,7598_0_no,37.290887771510285,-94.33998029876452,10.0
64849,37.2544,-94.44529,Neck City,MO,Missouri,True,,199.0,221.1,29097,Jasper,"{""29097"": 100}",Jasper,29097,False,False,America/Chicago,"(37.2544, -94.44529)",6.315173752278036,48182.0,7598_0_no,37.290887771510285,-94.33998029876452,10.0
64855,37.29548,-94.48637,Oronogo,MO,Missouri,True,,2317.0,21.0,29097,Jasper,"{""29097"": 86.97, ""29011"": 13.03}",Jasper|Barton,29097|29011,False,False,America/Chicago,"(37.29548, -94.48637)",8.052849798757808,48182.0,7598_0_no,37.290887771510285,-94.33998029876452,10.0
64857,37.24587,-94.43861,Purcell,MO,Missouri,True,,400.0,257.8,29097,Jasper,"{""29097"": 100}",Jasper,29097,False,False,America/Chicago,"(37.24587, -94.43861)",6.251837087596262,48182.0,7598_0_no,37.290887771510285,-94.33998029876452,10.0
64870,37.18474,-94.48136,Webb City,MO,Missouri,True,,14982.0,171.9,29097,Jasper,"{""29097"": 100}",Jasper,29097,False,False,America/Chicago,"(37.18474, -94.48136)",10.689703909816899,48182.0,7598_0_no,37.290887771510285,-94.33998029876452,10.0
