zip,lat,lng,city,state_id,state_name,zcta,parent_zcta,population,density,county_fips,county_name,county_weights,county_names_all,county_fips_all,imprecise,military,timezone,Coord,distance_miles,market_total_population,market_id,market_center_lat,market_center_lng,radius_miles
23086,37.66296,-77.05394,King William,VA,Virginia,True,,3282.0,15.3,51101,King William,"{""51101"": 100}",King William,51101,False,False,America/New_York,"(37.66296, -77.05394)",7.918498564117613,70944.0,7713_0_no,37.55398367187215,-77.09872302870225,10.0
23111,37.6112,-77.24697,Mechanicsville,VA,Virginia,True,,36511.0,182.7,51085,Hanover,"{""51085"": 100}",Hanover,51085,False,False,America/New_York,"(37.6112, -77.24697)",9.028721923537036,70944.0,7713_0_no,37.55398367187215,-77.09872302870225,10.0
23124,37.55271,-77.05949,New Kent,VA,Virginia,True,,4625.0,33.5,51127,New Kent,"{""51127"": 100}",New Kent,51127,False,False,America/New_York,"(37.55271, -77.05949)",2.1508415450705938,70944.0,7713_0_no,37.55398367187215,-77.09872302870225,10.0
23140,37.43852,-77.04818,Providence Forge,VA,Virginia,True,,6453.0,34.5,51127,New Kent,"{""51127"": 57.98, ""51036"": 42.02}",New Kent|Charles City,51127|51036,False,False,America/New_York,"(37.43852, -77.04818)",8.445213603923323,70944.0,7713_0_no,37.55398367187215,-77.09872302870225,10.0
23141,37.53042,-77.15791,Quinton,VA,Virginia,True,,7550.0,82.9,51127,New Kent,"{""51127"": 100}",New Kent,51127,False,False,America/New_York,"(37.53042, -77.15791)",3.628316827679056,70944.0,7713_0_no,37.55398367187215,-77.09872302870225,10.0
23150,37.50718,-77.25402,Sandston,VA,Virginia,True,,12523.0,164.0,51087,Henrico,"{""51087"": 100}",Henrico,51087,False,False,America/New_York,"(37.50718, -77.25402)",9.102964358909041,70944.0,7713_0_no,37.55398367187215,-77.09872302870225,10.0
