zip,lat,lng,city,state_id,state_name,zcta,parent_zcta,population,density,county_fips,county_name,county_weights,county_names_all,county_fips_all,imprecise,military,timezone,Coord,distance_miles,market_total_population,market_id,market_center_lat,market_center_lng,radius_miles
23004,37.68307,-78.40567,Arvonia,VA,Virginia,True,,925.0,9.3,51029,Buckingham,"{""51029"": 100}",Buckingham,51029,False,False,America/New_York,"(37.68307, -78.40567)",8.044165016100454,7725.0,7726_0_yes,37.70037743025277,-78.26017634251924,10.0
23022,37.7353,-78.26432,Bremo Bluff,VA,Virginia,True,,798.0,11.9,51065,Fluvanna,"{""51065"": 100}",Fluvanna,51065,False,False,America/New_York,"(37.7353, -78.26432)",2.423524584235389,7725.0,7726_0_yes,37.70037743025277,-78.26017634251924,10.0
23027,37.64551,-78.13183,Cartersville,VA,Virginia,True,,1385.0,12.2,51049,Cumberland,"{""51049"": 100}",Cumberland,51049,False,False,America/New_York,"(37.64551, -78.13183)",7.9773705651696005,7725.0,7726_0_yes,37.70037743025277,-78.26017634251924,10.0
23038,37.75627,-78.14552,Columbia,VA,Virginia,True,,1612.0,8.3,51075,Goochland,"{""51075"": 40.72, ""51049"": 39.3, ""51065"": 19.98}",Goochland|Cumberland|Fluvanna,51075|51049|51065,False,False,America/New_York,"(37.75627, -78.14552)",7.360180114832598,7725.0,7726_0_yes,37.70037743025277,-78.26017634251924,10.0
23055,37.7706,-78.21852,Fork Union,VA,Virginia,True,,1198.0,33.1,51065,Fluvanna,"{""51065"": 100}",Fluvanna,51065,False,False,America/New_York,"(37.7706, -78.21852)",5.359305260821474,7725.0,7726_0_yes,37.70037743025277,-78.26017634251924,10.0
23123,37.65238,-78.3031,New Canton,VA,Virginia,True,,1807.0,16.1,51029,Buckingham,"{""51029"": 91.74, ""51049"": 8.26}",Buckingham|Cumberland,51029|51049,False,False,America/New_York,"(37.65238, -78.3031)",4.06297483144208,7725.0,7726_0_yes,37.70037743025277,-78.26017634251924,10.0
