zip,lat,lng,city,state_id,state_name,zcta,parent_zcta,population,density,county_fips,county_name,county_weights,county_names_all,county_fips_all,imprecise,military,timezone,Coord,distance_miles,market_total_population,market_id,market_center_lat,market_center_lng,radius_miles
24416,37.72892,-79.35534,Buena Vista,VA,Virginia,True,,8901.0,55.7,51163,Rockbridge,"{""51163"": 89.48, ""51530"": 10.52}",Rockbridge|Buena Vista,51163|51530,False,False,America/New_York,"(37.72892, -79.35534)",1.8550583777843115,17289.0,7729_0_yes,37.70207200700983,-79.35512062971806,10.0
24483,37.81484,-79.2256,Vesuvius,VA,Virginia,True,,846.0,4.6,51163,Rockbridge,"{""51163"": 61.11, ""51009"": 35.97, ""51125"": 2.92}",Rockbridge|Amherst|Nelson,51163|51009|51125,False,False,America/New_York,"(37.81484, -79.2256)",10.524482625600728,17289.0,7729_0_yes,37.70207200700983,-79.35512062971806,10.0
24555,37.6678,-79.47007,Glasgow,VA,Virginia,True,,2249.0,38.0,51163,Rockbridge,"{""51163"": 100}",Rockbridge,51163,False,False,America/New_York,"(37.6678, -79.47007)",6.716630395952524,17289.0,7729_0_yes,37.70207200700983,-79.35512062971806,10.0
24574,37.57589,-79.24714,Monroe,VA,Virginia,True,,4345.0,15.8,51009,Amherst,"{""51009"": 100}",Amherst,51009,False,False,America/New_York,"(37.57589, -79.24714)",10.531558005054356,17289.0,7729_0_yes,37.70207200700983,-79.35512062971806,10.0
24579,37.58763,-79.50483,Natural Bridge Station,VA,Virginia,True,,948.0,11.0,51163,Rockbridge,"{""51163"": 100}",Rockbridge,51163,False,False,America/New_York,"(37.58763, -79.50483)",11.384506964823363,17289.0,7729_0_yes,37.70207200700983,-79.35512062971806,10.0
