zip,lat,lng,city,state_id,state_name,zcta,parent_zcta,population,density,county_fips,county_name,county_weights,county_names_all,county_fips_all,imprecise,military,timezone,Coord,distance_miles,market_total_population,market_id,market_center_lat,market_center_lng,radius_miles
40422,37.64235,-84.80488,Danville,KY,Kentucky,True,,25662.0,91.5,21021,Boyle,"{""21021"": 94.3, ""21137"": 5.7}",Boyle|Lincoln,21021|21137,False,False,America/New_York,"(37.64235, -84.80488)",6.115382388665706,60922.0,7734_0_no,37.56578572607283,-84.74883145282111,10.0
40437,37.44531,-84.85486,Hustonville,KY,Kentucky,True,,5746.0,20.6,21045,Casey,"{""21045"": 52.36, ""21137"": 47.64}",Casey|Lincoln,21045|21137,False,False,America/New_York,"(37.44531, -84.85486)",10.152077405641787,60922.0,7734_0_no,37.56578572607283,-84.74883145282111,10.0
40440,37.57628,-84.8322,Junction City,KY,Kentucky,True,,2140.0,62.6,21021,Boyle,"{""21021"": 99.88, ""21137"": 0.12}",Boyle|Lincoln,21021|21137,False,False,America/New_York,"(37.57628, -84.8322)",4.622756549061643,60922.0,7734_0_no,37.56578572607283,-84.74883145282111,10.0
40444,37.67893,-84.58819,Lancaster,KY,Kentucky,True,,14732.0,35.7,21079,Garrard,"{""21079"": 96.57, ""21137"": 3.43}",Garrard|Lincoln,21079|21137,False,False,America/New_York,"(37.67893, -84.58819)",11.764295395975402,60922.0,7734_0_no,37.56578572607283,-84.74883145282111,10.0
40448,37.45624,-84.75799,McKinney,KY,Kentucky,True,,14.0,60.9,21137,Lincoln,"{""21137"": 100}",Lincoln,21137,False,False,America/New_York,"(37.45624, -84.75799)",7.58551493046006,60922.0,7734_0_no,37.56578572607283,-84.74883145282111,10.0
40464,37.55579,-84.91148,Parksville,KY,Kentucky,True,,1092.0,14.2,21021,Boyle,"{""21021"": 72.15, ""21045"": 27.85}",Boyle|Casey,21021|21045,False,False,America/New_York,"(37.55579, -84.91148)",8.935127618522953,60922.0,7734_0_no,37.56578572607283,-84.74883145282111,10.0
40484,37.5153,-84.676,Stanford,KY,Kentucky,True,,11536.0,31.9,21137,Lincoln,"{""21137"": 96.45, ""21079"": 2.69, ""21045"": 0.86}",Lincoln|Garrard|Casey,21137|21079|21045,False,False,America/New_York,"(37.5153, -84.676)",5.299890556376331,60922.0,7734_0_no,37.56578572607283,-84.74883145282111,10.0
