zip,lat,lng,city,state_id,state_name,zcta,parent_zcta,population,density,county_fips,county_name,county_weights,county_names_all,county_fips_all,imprecise,military,timezone,Coord,distance_miles,market_total_population,market_id,market_center_lat,market_center_lng,radius_miles
40040,37.77433,-85.05727,Mackville,KY,Kentucky,True,,386.0,8.3,21229,Washington,"{""21229"": 100}",Washington,21229,False,False,America/New_York,"(37.77433, -85.05727)",8.712525811426431,12977.0,7745_0_yes,37.71111148844566,-85.19524456865253,10.0
40063,37.57052,-85.34336,Saint Mary,KY,Kentucky,True,,505.0,2601.4,21155,Marion,"{""21155"": 100}",Marion,21155,False,False,America/New_York,"(37.57052, -85.34336)",12.650310714312754,12977.0,7745_0_yes,37.71111148844566,-85.19524456865253,10.0
40069,37.71627,-85.21764,Springfield,KY,Kentucky,True,,8590.0,17.6,21229,Washington,"{""21229"": 97.74, ""21155"": 2.26}",Washington|Marion,21229|21155,False,False,America/New_York,"(37.71627, -85.21764)",1.2749286018242854,12977.0,7745_0_yes,37.71111148844566,-85.19524456865253,10.0
40078,37.84272,-85.14902,Willisburg,KY,Kentucky,True,,2585.0,16.3,21229,Washington,"{""21229"": 100}",Washington,21229,False,False,America/New_York,"(37.84272, -85.14902)",9.437178938541791,12977.0,7745_0_yes,37.71111148844566,-85.19524456865253,10.0
40328,37.56632,-85.02565,Gravel Switch,KY,Kentucky,True,,911.0,5.8,21155,Marion,"{""21155"": 39.24, ""21021"": 33.85, ""21045"": 26.91}",Marion|Boyle|Casey,21155|21021|21045,False,False,America/New_York,"(37.56632, -85.02565)",13.644946980943168,12977.0,7745_0_yes,37.71111148844566,-85.19524456865253,10.0
