zip,lat,lng,city,state_id,state_name,zcta,parent_zcta,population,density,county_fips,county_name,county_weights,county_names_all,county_fips_all,imprecise,military,timezone,Coord,distance_miles,market_total_population,market_id,market_center_lat,market_center_lng,radius_miles
63622,37.78901,-90.90584,Belgrade,MO,Missouri,True,,1167.0,9.9,29221,Washington,"{""29221"": 100}",Washington,29221,False,False,America/Chicago,"(37.78901, -90.90584)",8.558745175377563,4002.0,7761_0_yes,37.72015389947801,-91.03607808427329,10.0
63623,37.67532,-90.8941,Belleview,MO,Missouri,True,,764.0,2.8,29093,Iron,"{""29093"": 100}",Iron,29093,False,False,America/Chicago,"(37.67532, -90.8941)",8.357251577008782,4002.0,7761_0_yes,37.72015389947801,-91.03607808427329,10.0
65439,37.65718,-91.09535,Bixby,MO,Missouri,True,,140.0,1.6,29093,Iron,"{""29093"": 100}",Iron,29093,False,False,America/Chicago,"(37.65718, -91.09535)",5.425370716579163,4002.0,7761_0_yes,37.72015389947801,-91.03607808427329,10.0
65440,37.60388,-91.18539,Boss,MO,Missouri,True,,584.0,2.1,29065,Dent,"{""29065"": 54.45, ""29179"": 40.2, ""29093"": 5.35}",Dent|Reynolds|Iron,29065|29179|29093,False,False,America/Chicago,"(37.60388, -91.18539)",11.455920221493953,4002.0,7761_0_yes,37.72015389947801,-91.03607808427329,10.0
65456,37.78048,-91.20267,Davisville,MO,Missouri,True,,512.0,3.2,29055,Crawford,"{""29055"": 100}",Crawford,29055,False,False,America/Chicago,"(37.78048, -91.20267)",10.010178451527027,4002.0,7761_0_yes,37.72015389947801,-91.03607808427329,10.0
65566,37.76618,-91.14689,Viburnum,MO,Missouri,True,,835.0,28.3,29055,Crawford,"{""29055"": 64.38, ""29093"": 35.62}",Crawford|Iron,29055|29093,False,False,America/Chicago,"(37.76618, -91.14689)",6.838748189092172,4002.0,7761_0_yes,37.72015389947801,-91.03607808427329,10.0
