zip,lat,lng,city,state_id,state_name,zcta,parent_zcta,population,density,county_fips,county_name,county_weights,county_names_all,county_fips_all,imprecise,military,timezone,Coord,distance_miles,market_total_population,market_id,market_center_lat,market_center_lng,radius_miles
67041,38.05404,-97.12755,Elbing,KS,Kansas,True,,309.0,841.2,20015,Butler,"{""20015"": 100}",Butler,20015,False,False,America/Chicago,"(38.05404, -97.12755)",2.423567888770526,24746.0,7939_0_yes,38.01930162487227,-97.13372042628654,10.0
67114,38.07034,-97.28359,Newton,KS,Kansas,True,,21054.0,34.3,20079,Harvey,"{""20079"": 71.96, ""20115"": 13.59, ""20015"": 13.08, ""20113"": 1.37}",Harvey|Marion|Butler|McPherson,20079|20115|20015|20113,False,False,America/Chicago,"(38.07034, -97.28359)",8.884670388267006,24746.0,7939_0_yes,38.01930162487227,-97.13372042628654,10.0
67123,37.94676,-96.99352,Potwin,KS,Kansas,True,,899.0,6.6,20015,Butler,"{""20015"": 100}",Butler,20015,False,False,America/Chicago,"(37.94676, -96.99352)",9.133312692046639,24746.0,7939_0_yes,38.01930162487227,-97.13372042628654,10.0
67151,38.14499,-97.24934,Walton,KS,Kansas,True,,446.0,5.4,20079,Harvey,"{""20079"": 84.63, ""20115"": 15.37}",Harvey|Marion,20079|20115,False,False,America/Chicago,"(38.14499, -97.24934)",10.721706762319968,24746.0,7939_0_yes,38.01930162487227,-97.13372042628654,10.0
67154,37.97079,-97.12117,Whitewater,KS,Kansas,True,,2038.0,10.8,20015,Butler,"{""20015"": 69.73, ""20079"": 30.27}",Butler|Harvey,20015|20079,False,False,America/Chicago,"(37.97079, -97.12117)",3.4207875363780027,24746.0,7939_0_yes,38.01930162487227,-97.13372042628654,10.0
