zip,lat,lng,city,state_id,state_name,zcta,parent_zcta,population,density,county_fips,county_name,county_weights,county_names_all,county_fips_all,imprecise,military,timezone,Coord,distance_miles,market_total_population,market_id,market_center_lat,market_center_lng,radius_miles
21829,38.09892,-75.38324,Girdletree,MD,Maryland,True,,397.0,9.1,24047,Worcester,"{""24047"": 100}",Worcester,24047,False,False,America/New_York,"(38.09892, -75.38324)",7.300599921005537,8457.0,8031_0_no,38.130115875930905,-75.25492864662313,10.0
21841,38.24385,-75.29588,Newark,MD,Maryland,True,,1455.0,19.9,24047,Worcester,"{""24047"": 100}",Worcester,24047,False,False,America/New_York,"(38.24385, -75.29588)",8.166916708986912,8457.0,8031_0_no,38.130115875930905,-75.25492864662313,10.0
21863,38.19167,-75.40327,Snow Hill,MD,Maryland,True,,4578.0,14.4,24047,Worcester,"{""24047"": 100}",Worcester,24047,False,False,America/New_York,"(38.19167, -75.40327)",9.112279335436268,8457.0,8031_0_no,38.130115875930905,-75.25492864662313,10.0
21864,38.04355,-75.40532,Stockton,MD,Maryland,True,,643.0,10.9,24047,Worcester,"{""24047"": 100}",Worcester,24047,False,False,America/New_York,"(38.04355, -75.40532)",10.13225943087428,8457.0,8031_0_no,38.130115875930905,-75.25492864662313,10.0
23356,37.9905,-75.39228,Greenbackville,VA,Virginia,True,,1384.0,150.4,51001,Accomack,"{""51001"": 100}",Accomack,51001,False,False,America/New_York,"(37.9905, -75.39228)",12.201978970656048,8457.0,8031_0_no,38.130115875930905,-75.25492864662313,10.0
