zip,lat,lng,city,state_id,state_name,zcta,parent_zcta,population,density,county_fips,county_name,county_weights,county_names_all,county_fips_all,imprecise,military,timezone,Coord,distance_miles,market_total_population,market_id,market_center_lat,market_center_lng,radius_miles
25507,38.39945,-82.55193,Ceredo,WV,West Virginia,True,,864.0,482.4,54099,Wayne,"{""54099"": 100}",Wayne,54099,False,False,America/New_York,"(38.39945, -82.55193)",10.209272902978565,58648.0,8061_0_yes,38.28631656488278,-82.67311546021178,10.0
25530,38.35629,-82.56337,Kenova,WV,West Virginia,True,,6575.0,170.6,54099,Wayne,"{""54099"": 100}",Wayne,54099,False,False,America/New_York,"(38.35629, -82.56337)",7.665804467512275,58648.0,8061_0_yes,38.28631656488278,-82.67311546021178,10.0
25555,38.23525,-82.55913,Prichard,WV,West Virginia,True,,2214.0,22.7,54099,Wayne,"{""54099"": 100}",Wayne,54099,False,False,America/New_York,"(38.23525, -82.55913)",7.119739841099145,58648.0,8061_0_yes,38.28631656488278,-82.67311546021178,10.0
25704,38.34969,-82.50693,Huntington,WV,West Virginia,True,,16540.0,206.8,54099,Wayne,"{""54099"": 92.68, ""54011"": 7.32}",Wayne|Cabell,54099|54011,False,False,America/New_York,"(38.34969, -82.50693)",10.016569319220219,58648.0,8061_0_yes,38.28631656488278,-82.67311546021178,10.0
41102,38.42045,-82.72425,Ashland,KY,Kentucky,True,,18600.0,144.3,21019,Boyd,"{""21019"": 88.93, ""21089"": 9.71, ""21043"": 1.36}",Boyd|Greenup|Carter,21019|21089|21043,False,False,America/New_York,"(38.42045, -82.72425)",9.673018654964345,58648.0,8061_0_yes,38.28631656488278,-82.67311546021178,10.0
41129,38.31755,-82.64073,Catlettsburg,KY,Kentucky,True,,9730.0,42.9,21019,Boyd,"{""21019"": 78.65, ""21127"": 21.35}",Boyd|Lawrence,21019|21127,False,False,America/New_York,"(38.31755, -82.64073)",2.782185910452945,58648.0,8061_0_yes,38.28631656488278,-82.67311546021178,10.0
41132,38.25667,-82.8314,Denton,KY,Kentucky,True,,356.0,11.0,21043,Carter,"{""21043"": 93.53, ""21127"": 6.47}",Carter|Lawrence,21043|21127,False,False,America/New_York,"(38.25667, -82.8314)",8.826976129555964,58648.0,8061_0_yes,38.28631656488278,-82.67311546021178,10.0
41168,38.30732,-82.76992,Rush,KY,Kentucky,True,,3769.0,24.6,21019,Boyd,"{""21019"": 64.62, ""21043"": 35.38}",Boyd|Carter,21019|21043,False,False,America/New_York,"(38.30732, -82.76992)",5.446156046063188,58648.0,8061_0_yes,38.28631656488278,-82.67311546021178,10.0
