zip,lat,lng,city,state_id,state_name,zcta,parent_zcta,population,density,county_fips,county_name,county_weights,county_names_all,county_fips_all,imprecise,military,timezone,Coord,distance_miles,market_total_population,market_id,market_center_lat,market_center_lng,radius_miles
40350,38.30512,-83.87881,Moorefield,KY,Kentucky,True,,64.0,1.7,21181,Nicholas,"{""21181"": 100}",Nicholas,21181,False,False,America/New_York,"(38.30512, -83.87881)",5.655654337977326,20885.0,8064_0_yes,38.28804701441989,-83.77680499750697,10.0
40360,38.15665,-83.76679,Owingsville,KY,Kentucky,True,,6880.0,17.9,21011,Bath,"{""21011"": 96.04, ""21173"": 3.96}",Bath|Montgomery,21011|21173,False,False,America/New_York,"(38.15665, -83.76679)",9.094930215543888,20885.0,8064_0_yes,38.28804701441989,-83.77680499750697,10.0
40374,38.21419,-83.90359,Sharpsburg,KY,Kentucky,True,,1924.0,12.1,21011,Bath,"{""21011"": 83.95, ""21181"": 11.74, ""21017"": 4.31}",Bath|Nicholas|Bourbon,21011|21181|21017,False,False,America/New_York,"(38.21419, -83.90359)",8.56535979771811,20885.0,8064_0_yes,38.28804701441989,-83.77680499750697,10.0
41039,38.41381,-83.88074,Ewing,KY,Kentucky,True,,2724.0,13.3,21069,Fleming,"{""21069"": 84.66, ""21181"": 10.74, ""21161"": 2.43, ""21201"": 2.17}",Fleming|Nicholas|Mason|Robertson,21069|21181|21161|21201,False,False,America/New_York,"(38.41381, -83.88074)",10.354783974765876,20885.0,8064_0_yes,38.28804701441989,-83.77680499750697,10.0
41041,38.40548,-83.72338,Flemingsburg,KY,Kentucky,True,,7049.0,25.5,21069,Fleming,"{""21069"": 100}",Fleming,21069,False,False,America/New_York,"(38.40548, -83.72338)",8.61483941460405,20885.0,8064_0_yes,38.28804701441989,-83.77680499750697,10.0
41049,38.27465,-83.64581,Hillsboro,KY,Kentucky,True,,2244.0,10.1,21069,Fleming,"{""21069"": 99.75, ""21205"": 0.25}",Fleming|Rowan,21069|21205,False,False,America/New_York,"(38.27465, -83.64581)",7.164796753493434,20885.0,8064_0_yes,38.28804701441989,-83.77680499750697,10.0
