zip,lat,lng,city,state_id,state_name,zcta,parent_zcta,population,density,county_fips,county_name,county_weights,county_names_all,county_fips_all,imprecise,military,timezone,Coord,distance_miles,market_total_population,market_id,market_center_lat,market_center_lng,radius_miles
62237,38.1916,-89.57046,Coulterville,IL,Illinois,True,,2269.0,9.5,17145,Perry,"{""17145"": 49.24, ""17189"": 25.52, ""17157"": 25.24}",Perry|Washington|Randolph,17145|17189|17157,False,False,America/Chicago,"(38.1916, -89.57046)",2.709855680111519,21339.0,8070_0_no,38.152494930350606,-89.57427926891266,10.0
62238,38.04499,-89.5319,Cutler,IL,Illinois,True,,661.0,5.1,17145,Perry,"{""17145"": 100}",Perry,17145,False,False,America/Chicago,"(38.04499, -89.5319)",7.777093346120565,21339.0,8070_0_no,38.152494930350606,-89.57427926891266,10.0
62257,38.28048,-89.73262,Marissa,IL,Illinois,True,,2236.0,10.7,17163,St. Clair,"{""17163"": 57.41, ""17189"": 35.25, ""17157"": 7.34}",St. Clair|Washington|Randolph,17163|17189|17157,False,False,America/Chicago,"(38.28048, -89.73262)",12.332111373553115,21339.0,8070_0_no,38.152494930350606,-89.57427926891266,10.0
62268,38.27208,-89.52612,Oakdale,IL,Illinois,True,,909.0,6.6,17189,Washington,"{""17189"": 95.21, ""17145"": 4.79}",Washington|Perry,17189|17145,False,False,America/Chicago,"(38.27208, -89.52612)",8.66632169438754,21339.0,8070_0_no,38.152494930350606,-89.57427926891266,10.0
62274,38.09312,-89.40064,Pinckneyville,IL,Illinois,True,,8237.0,22.3,17145,Perry,"{""17145"": 99.08, ""17077"": 0.92}",Perry|Jackson,17145|17077,False,False,America/Chicago,"(38.09312, -89.40064)",10.29120355625352,21339.0,8070_0_no,38.152494930350606,-89.57427926891266,10.0
62286,38.11756,-89.7154,Sparta,IL,Illinois,True,,6066.0,23.4,17157,Randolph,"{""17157"": 100}",Randolph,17157,False,False,America/Chicago,"(38.11756, -89.7154)",8.04021657693699,21339.0,8070_0_no,38.152494930350606,-89.57427926891266,10.0
62292,38.21299,-89.68261,Tilden,IL,Illinois,True,,961.0,219.7,17157,Randolph,"{""17157"": 100}",Randolph,17157,False,False,America/Chicago,"(38.21299, -89.68261)",7.217078141165648,21339.0,8070_0_no,38.152494930350606,-89.57427926891266,10.0
