zip,lat,lng,city,state_id,state_name,zcta,parent_zcta,population,density,county_fips,county_name,county_weights,county_names_all,county_fips_all,imprecise,military,timezone,Coord,distance_miles,market_total_population,market_id,market_center_lat,market_center_lng,radius_miles
47115,38.34465,-86.21655,Depauw,IN,Indiana,True,,3506.0,23.3,18061,Harrison,"{""18061"": 100}",Harrison,18061,False,False,America/Kentucky/Louisville,"(38.34465, -86.21655)",8.200619902123451,14270.0,8071_0_yes,38.29208514530696,-86.35218250420903,10.0
47118,38.29788,-86.48449,English,IN,Indiana,True,,3402.0,9.9,18025,Crawford,"{""18025"": 78.59, ""18123"": 11.71, ""18117"": 9.7}",Crawford|Perry|Orange,18025|18123|18117,False,False,America/Indiana/Marengo,"(38.29788, -86.48449)",7.185752642142986,14270.0,8071_0_yes,38.29208514530696,-86.35218250420903,10.0
47123,38.2856,-86.47181,Grantsburg,IN,Indiana,True,,174.0,47.7,18025,Crawford,"{""18025"": 100}",Crawford,18025,False,False,America/Indiana/Marengo,"(38.2856, -86.47181)",6.503000232289382,14270.0,8071_0_yes,38.29208514530696,-86.35218250420903,10.0
47137,38.18899,-86.37626,Leavenworth,IN,Indiana,True,,1570.0,9.7,18025,Crawford,"{""18025"": 93.64, ""18061"": 3.25, ""18123"": 3.11}",Crawford|Harrison|Perry,18025|18061|18123,False,False,America/Indiana/Marengo,"(38.18899, -86.37626)",7.242042408965873,14270.0,8071_0_yes,38.29208514530696,-86.35218250420903,10.0
47140,38.38063,-86.36892,Marengo,IN,Indiana,True,,2356.0,20.4,18025,Crawford,"{""18025"": 58.59, ""18117"": 41.41}",Crawford|Orange,18025|18117,False,False,America/Indiana/Marengo,"(38.38063, -86.36892)",6.184749301891063,14270.0,8071_0_yes,38.29208514530696,-86.35218250420903,10.0
47145,38.33454,-86.30115,Milltown,IN,Indiana,True,,2154.0,20.8,18025,Crawford,"{""18025"": 100}",Crawford,18025,False,False,America/Indiana/Marengo,"(38.33454, -86.30115)",4.032213114243751,14270.0,8071_0_yes,38.29208514530696,-86.35218250420903,10.0
47166,38.30668,-86.16901,Ramsey,IN,Indiana,True,,1108.0,34.3,18061,Harrison,"{""18061"": 100}",Harrison,18061,False,False,America/Kentucky/Louisville,"(38.30668, -86.16901)",9.98328409666177,14270.0,8071_0_yes,38.29208514530696,-86.35218250420903,10.0
