zip,lat,lng,city,state_id,state_name,zcta,parent_zcta,population,density,county_fips,county_name,county_weights,county_names_all,county_fips_all,imprecise,military,timezone,Coord,distance_miles,market_total_population,market_id,market_center_lat,market_center_lng,radius_miles
94559,38.25238,-122.29382,Napa,CA,California,True,,27564.0,257.3,6055,Napa,"{""06055"": 100}",Napa,06055,False,False,America/Los_Angeles,"(38.25238, -122.29382)",9.640398579972684,137615.0,8169_0_yes,38.34868010675039,-122.4224764030965,10.0
94573,38.45726,-122.42348,Rutherford,CA,California,True,,70.0,17.6,6055,Napa,"{""06055"": 100}",Napa,06055,False,False,America/Los_Angeles,"(38.45726, -122.42348)",7.502352858375123,137615.0,8169_0_yes,38.34868010675039,-122.4224764030965,10.0
94599,38.41012,-122.37365,Yountville,CA,California,True,,3070.0,149.2,6055,Napa,"{""06055"": 100}",Napa,06055,False,False,America/Los_Angeles,"(38.41012, -122.37365)",5.001475710221089,137615.0,8169_0_yes,38.34868010675039,-122.4224764030965,10.0
94954,38.24624,-122.56627,Petaluma,CA,California,True,,39018.0,242.3,6097,Sonoma,"{""06097"": 100}",Sonoma,06097,False,False,America/Los_Angeles,"(38.24624, -122.56627)",10.530579019263643,137615.0,8169_0_yes,38.34868010675039,-122.4224764030965,10.0
95409,38.46116,-122.60425,Santa Rosa,CA,California,True,,26739.0,295.2,6097,Sonoma,"{""06097"": 100}",Sonoma,06097,False,False,America/Los_Angeles,"(38.46116, -122.60425)",12.540465548329776,137615.0,8169_0_yes,38.34868010675039,-122.4224764030965,10.0
95431,38.34897,-122.51625,Eldridge,CA,California,True,,121.0,387.9,6097,Sonoma,"{""06097"": 100}",Sonoma,06097,False,False,America/Los_Angeles,"(38.34897, -122.51625)",5.081290192606587,137615.0,8169_0_yes,38.34868010675039,-122.4224764030965,10.0
95442,38.3785,-122.51549,Glen Ellen,CA,California,True,,3143.0,48.6,6097,Sonoma,"{""06097"": 100}",Sonoma,06097,False,False,America/Los_Angeles,"(38.3785, -122.51549)",5.4439886966316084,137615.0,8169_0_yes,38.34868010675039,-122.4224764030965,10.0
95452,38.42969,-122.5362,Kenwood,CA,California,True,,740.0,17.3,6097,Sonoma,"{""06097"": 100}",Sonoma,06097,False,False,America/Los_Angeles,"(38.42969, -122.5362)",8.322284440610499,137615.0,8169_0_yes,38.34868010675039,-122.4224764030965,10.0
95476,38.25531,-122.46055,Sonoma,CA,California,True,,37150.0,133.0,6097,Sonoma,"{""06097"": 97.81, ""06055"": 2.19}",Sonoma|Napa,06097|06055,False,False,America/Los_Angeles,"(38.25531, -122.46055)",6.773515558159966,137615.0,8169_0_yes,38.34868010675039,-122.4224764030965,10.0
