zip,lat,lng,city,state_id,state_name,zcta,parent_zcta,population,density,county_fips,county_name,county_weights,county_names_all,county_fips_all,imprecise,military,timezone,Coord,distance_miles,market_total_population,market_id,market_center_lat,market_center_lng,radius_miles
22812,38.37934,-79.03836,Bridgewater,VA,Virginia,True,,9100.0,70.6,51165,Rockingham,"{""51165"": 59.31, ""51015"": 40.69}",Rockingham|Augusta,51165|51015,False,False,America/New_York,"(38.37934, -79.03836)",5.101798062285439,21752.0,8202_0_no,38.4256505170227,-79.1117475259449,10.0
22821,38.46349,-79.0743,Dayton,VA,Virginia,True,,5791.0,30.8,51165,Rockingham,"{""51165"": 100}",Rockingham,51165,False,False,America/New_York,"(38.46349, -79.0743)",3.3078599102307544,21752.0,8202_0_no,38.4256505170227,-79.1117475259449,10.0
22831,38.56395,-79.10005,Hinton,VA,Virginia,True,,1056.0,5.8,51165,Rockingham,"{""51165"": 100}",Rockingham,51165,False,False,America/New_York,"(38.56395, -79.10005)",9.576498742564604,21752.0,8202_0_no,38.4256505170227,-79.1117475259449,10.0
22843,38.36703,-79.16053,Mount Solon,VA,Virginia,True,,2536.0,9.3,51015,Augusta,"{""51015"": 100}",Augusta,51015,False,False,America/New_York,"(38.36703, -79.16053)",4.835593727579461,21752.0,8202_0_no,38.4256505170227,-79.1117475259449,10.0
24486,38.29366,-78.92925,Weyers Cave,VA,Virginia,True,,3269.0,52.2,51015,Augusta,"{""51015"": 90.8, ""51165"": 9.2}",Augusta|Rockingham,51015|51165,False,False,America/New_York,"(38.29366, -78.92925)",13.450985414778831,21752.0,8202_0_no,38.4256505170227,-79.1117475259449,10.0
