zip,lat,lng,city,state_id,state_name,zcta,parent_zcta,population,density,county_fips,county_name,county_weights,county_names_all,county_fips_all,imprecise,military,timezone,Coord,distance_miles,market_total_population,market_id,market_center_lat,market_center_lng,radius_miles
47557,38.57005,-87.34132,Monroe City,IN,Indiana,True,,1770.0,14.5,18083,Knox,"{""18083"": 100}",Knox,18083,False,False,America/Indiana/Vincennes,"(38.57005, -87.34132)",11.163571563478609,17708.0,8224_0_no,38.438406155282514,-87.22161391078845,10.0
47564,38.48166,-87.09566,Otwell,IN,Indiana,True,,1169.0,11.7,18125,Pike,"{""18125"": 74.0, ""18037"": 26.0}",Pike|Dubois,18125|18037,False,False,America/Indiana/Vincennes,"(38.48166, -87.09566)",7.441018739738472,17708.0,8224_0_no,38.438406155282514,-87.22161391078845,10.0
47567,38.46954,-87.30554,Petersburg,IN,Indiana,True,,6240.0,20.9,18125,Pike,"{""18125"": 100}",Pike,18125,False,False,America/Indiana/Petersburg,"(38.46954, -87.30554)",5.024784609793332,17708.0,8224_0_no,38.438406155282514,-87.22161391078845,10.0
47590,38.35314,-87.10113,Velpen,IN,Indiana,True,,286.0,2.7,18125,Pike,"{""18125"": 85.47, ""18037"": 14.53}",Pike|Dubois,18125|18037,False,False,America/Indiana/Petersburg,"(38.35314, -87.10113)",8.790614634439523,17708.0,8224_0_no,38.438406155282514,-87.22161391078845,10.0
47598,38.3875,-87.20711,Winslow,IN,Indiana,True,,3130.0,17.5,18125,Pike,"{""18125"": 100}",Pike,18125,False,False,America/Indiana/Petersburg,"(38.3875, -87.20711)",3.603862905656405,17708.0,8224_0_no,38.438406155282514,-87.22161391078845,10.0
47660,38.29712,-87.33191,Oakland City,IN,Indiana,True,,5113.0,22.7,18051,Gibson,"{""18051"": 63.65, ""18125"": 35.21, ""18173"": 1.14}",Gibson|Pike|Warrick,18051|18125|18173,False,False,America/Indiana/Petersburg,"(38.29712, -87.33191)",11.445343637552744,17708.0,8224_0_no,38.438406155282514,-87.22161391078845,10.0
