zip,lat,lng,city,state_id,state_name,zcta,parent_zcta,population,density,county_fips,county_name,county_weights,county_names_all,county_fips_all,imprecise,military,timezone,Coord,distance_miles,market_total_population,market_id,market_center_lat,market_center_lng,radius_miles
62801,38.51097,-89.1412,Centralia,IL,Illinois,True,,21070.0,60.5,17121,Marion,"{""17121"": 37.64, ""17027"": 33.01, ""17189"": 15.69, ""17081"": 13.66}",Marion|Clinton|Washington|Jefferson,17121|17027|17189|17081,False,False,America/Chicago,"(38.51097, -89.1412)",6.338190699822423,52406.0,8229_0_no,38.44130597232307,-89.0649643917974,10.0
62808,38.30328,-89.1884,Ashley,IL,Illinois,True,,1740.0,9.0,17189,Washington,"{""17189"": 68.44, ""17081"": 31.56}",Washington|Jefferson,17189|17081,False,False,America/Chicago,"(38.30328, -89.1884)",11.647133727235486,52406.0,8229_0_no,38.44130597232307,-89.0649643917974,10.0
62830,38.44559,-88.96424,Dix,IL,Illinois,True,,1274.0,16.9,17081,Jefferson,"{""17081"": 95.9, ""17121"": 4.1}",Jefferson|Marion,17081|17121,False,False,America/Chicago,"(38.44559, -88.96424)",5.458781615263755,52406.0,8229_0_no,38.44130597232307,-89.0649643917974,10.0
62848,38.43794,-89.16665,Irvington,IL,Illinois,True,,551.0,78.3,17189,Washington,"{""17189"": 100}",Washington,17189,False,False,America/Chicago,"(38.43794, -89.16665)",5.507970974164097,52406.0,8229_0_no,38.44130597232307,-89.0649643917974,10.0
62853,38.51734,-88.91571,Kell,IL,Illinois,True,,1096.0,16.1,17121,Marion,"{""17121"": 100}",Marion,17121,False,False,America/Chicago,"(38.51734, -88.91571)",9.631790386946468,52406.0,8229_0_no,38.44130597232307,-89.0649643917974,10.0
62864,38.33041,-88.90272,Mount Vernon,IL,Illinois,True,,23287.0,62.9,17081,Jefferson,"{""17081"": 100}",Jefferson,17081,False,False,America/Chicago,"(38.33041, -88.90272)",11.65843955031779,52406.0,8229_0_no,38.44130597232307,-89.0649643917974,10.0
62877,38.38983,-89.2057,Richview,IL,Illinois,True,,497.0,6.1,17189,Washington,"{""17189"": 93.54, ""17081"": 6.46}",Washington|Jefferson,17189|17081,False,False,America/Chicago,"(38.38983, -89.2057)",8.408190461162413,52406.0,8229_0_no,38.44130597232307,-89.0649643917974,10.0
62893,38.46776,-89.03087,Walnut Hill,IL,Illinois,True,,820.0,15.8,17081,Jefferson,"{""17081"": 54.98, ""17121"": 45.02}",Jefferson|Marion,17081|17121,False,False,America/Chicago,"(38.46776, -89.03087)",2.596913262953419,52406.0,8229_0_no,38.44130597232307,-89.0649643917974,10.0
62898,38.35041,-89.06209,Woodlawn,IL,Illinois,True,,2071.0,14.8,17081,Jefferson,"{""17081"": 100}",Jefferson,17081,False,False,America/Chicago,"(38.35041, -89.06209)",6.282242042457506,52406.0,8229_0_no,38.44130597232307,-89.0649643917974,10.0
