zip,lat,lng,city,state_id,state_name,zcta,parent_zcta,population,density,county_fips,county_name,county_weights,county_names_all,county_fips_all,imprecise,military,timezone,Coord,distance_miles,market_total_population,market_id,market_center_lat,market_center_lng,radius_miles
62221,38.51187,-89.89922,Belleville,IL,Illinois,True,,30009.0,331.3,17163,St. Clair,"{""17163"": 100}",St. Clair,17163,False,False,America/Chicago,"(38.51187, -89.89922)",7.103813300166322,60110.0,8231_0_no,38.44246598299729,-89.80232523421832,10.0
62225,38.54065,-89.85503,Scott Air Force Base,IL,Illinois,True,,5323.0,391.6,17163,St. Clair,"{""17163"": 100}",St. Clair,17163,False,False,America/Chicago,"(38.54065, -89.85503)",7.358312408538392,60110.0,8231_0_no,38.44246598299729,-89.80232523421832,10.0
62243,38.41841,-89.88978,Freeburg,IL,Illinois,True,,6023.0,45.0,17163,St. Clair,"{""17163"": 100}",St. Clair,17163,False,False,America/Chicago,"(38.41841, -89.88978)",5.016845331627054,60110.0,8231_0_no,38.44246598299729,-89.80232523421832,10.0
62255,38.31244,-89.77842,Lenzburg,IL,Illinois,True,,914.0,13.3,17163,St. Clair,"{""17163"": 100}",St. Clair,17163,False,False,America/Chicago,"(38.31244, -89.77842)",9.076769493230358,60110.0,8231_0_no,38.44246598299729,-89.80232523421832,10.0
62258,38.46014,-89.77287,Mascoutah,IL,Illinois,True,,9985.0,51.1,17163,St. Clair,"{""17163"": 100}",St. Clair,17163,False,False,America/Chicago,"(38.46014, -89.77287)",2.0078500218749094,60110.0,8231_0_no,38.44246598299729,-89.80232523421832,10.0
62264,38.31612,-89.90721,New Athens,IL,Illinois,True,,3357.0,19.8,17163,St. Clair,"{""17163"": 94.43, ""17133"": 5.57}",St. Clair|Monroe,17163|17133,False,False,America/Chicago,"(38.31612, -89.90721)",10.415382926841668,60110.0,8231_0_no,38.44246598299729,-89.80232523421832,10.0
62265,38.50808,-89.67797,New Baden,IL,Illinois,True,,4019.0,46.1,17027,Clinton,"{""17027"": 86.38, ""17163"": 13.62}",Clinton|St. Clair,17027|17163,False,False,America/Chicago,"(38.50808, -89.67797)",8.111683877491107,60110.0,8231_0_no,38.44246598299729,-89.80232523421832,10.0
62282,38.35644,-89.71334,Saint Libory,IL,Illinois,True,,480.0,96.6,17163,St. Clair,"{""17163"": 100}",St. Clair,17163,False,False,America/Chicago,"(38.35644, -89.71334)",7.651549421734333,60110.0,8231_0_no,38.44246598299729,-89.80232523421832,10.0
