zip,lat,lng,city,state_id,state_name,zcta,parent_zcta,population,density,county_fips,county_name,county_weights,county_names_all,county_fips_all,imprecise,military,timezone,Coord,distance_miles,market_total_population,market_id,market_center_lat,market_center_lng,radius_miles
62823,38.51864,-88.43816,Cisne,IL,Illinois,True,,1890.0,9.1,17191,Wayne,"{""17191"": 100}",Wayne,17191,False,False,America/Chicago,"(38.51864, -88.43816)",4.765828022224059,13575.0,8237_0_yes,38.58491051986385,-88.41369747998841,10.0
62824,38.67076,-88.34686,Clay City,IL,Illinois,True,,1665.0,6.4,17025,Clay,"{""17025"": 84.64, ""17191"": 15.36}",Clay|Wayne,17025|17191,False,False,America/Chicago,"(38.67076, -88.34686)",6.942597903523557,13575.0,8237_0_yes,38.58491051986385,-88.41369747998841,10.0
62839,38.66403,-88.49689,Flora,IL,Illinois,True,,6409.0,34.8,17025,Clay,"{""17025"": 100}",Clay,17025,False,False,America/Chicago,"(38.66403, -88.49689)",7.074630663911614,13575.0,8237_0_yes,38.58491051986385,-88.41369747998841,10.0
62842,38.47038,-88.38007,Geff,IL,Illinois,True,,720.0,6.1,17191,Wayne,"{""17191"": 100}",Wayne,17191,False,False,America/Chicago,"(38.47038, -88.38007)",8.119373272228186,13575.0,8237_0_yes,38.58491051986385,-88.41369747998841,10.0
62850,38.49552,-88.58841,Johnsonville,IL,Illinois,True,,645.0,8.7,17191,Wayne,"{""17191"": 100}",Wayne,17191,False,False,America/Chicago,"(38.49552, -88.58841)",11.28260984068694,13575.0,8237_0_yes,38.58491051986385,-88.41369747998841,10.0
62868,38.68073,-88.22939,Noble,IL,Illinois,True,,1852.0,6.9,17159,Richland,"{""17159"": 67.01, ""17025"": 16.77, ""17191"": 16.22}",Richland|Clay|Wayne,17159|17025|17191,False,False,America/Chicago,"(38.68073, -88.22939)",11.949349938268352,13575.0,8237_0_yes,38.58491051986385,-88.41369747998841,10.0
62878,38.57718,-88.49378,Rinard,IL,Illinois,True,,394.0,4.5,17191,Wayne,"{""17191"": 100}",Wayne,17191,False,False,America/Chicago,"(38.57718, -88.49378)",4.358285017755538,13575.0,8237_0_yes,38.58491051986385,-88.41369747998841,10.0
