zip,lat,lng,city,state_id,state_name,zcta,parent_zcta,population,density,county_fips,county_name,county_weights,county_names_all,county_fips_all,imprecise,military,timezone,Coord,distance_miles,market_total_population,market_id,market_center_lat,market_center_lng,radius_miles
25243,38.67841,-81.48216,Gandeeville,WV,West Virginia,True,,421.0,3.0,54087,Roane,"{""54087"": 96.23, ""54035"": 3.77}",Roane|Jackson,54087|54035,False,False,America/New_York,"(38.67841, -81.48216)",3.4099991422258658,15126.0,8368_0_no,38.71895464348597,-81.51821718635387,10.0
25244,38.77068,-81.54237,Gay,WV,West Virginia,True,,610.0,7.4,54035,Jackson,"{""54035"": 67.12, ""54087"": 32.88}",Jackson|Roane,54035|54087,False,False,America/New_York,"(38.77068, -81.54237)",3.80351212867694,15126.0,8368_0_no,38.71895464348597,-81.51821718635387,10.0
25248,38.64255,-81.61454,Kenna,WV,West Virginia,True,,3191.0,18.7,54035,Jackson,"{""54035"": 98.3, ""54039"": 1.7}",Jackson|Kanawha,54035|54039,False,False,America/New_York,"(38.64255, -81.61454)",7.406777790438061,15126.0,8368_0_no,38.71895464348597,-81.51821718635387,10.0
25271,38.78845,-81.68625,Ripley,WV,West Virginia,True,,9185.0,37.1,54035,Jackson,"{""54035"": 100}",Jackson,54035,False,False,America/New_York,"(38.78845, -81.68625)",10.24842322266533,15126.0,8368_0_no,38.71895464348597,-81.51821718635387,10.0
25286,38.62098,-81.39728,Walton,WV,West Virginia,True,,1719.0,11.2,54087,Roane,"{""54087"": 100}",Roane,54087,False,False,America/New_York,"(38.62098, -81.39728)",9.401445214450849,15126.0,8368_0_no,38.71895464348597,-81.51821718635387,10.0
