zip,lat,lng,city,state_id,state_name,zcta,parent_zcta,population,density,county_fips,county_name,county_weights,county_names_all,county_fips_all,imprecise,military,timezone,Coord,distance_miles,market_total_population,market_id,market_center_lat,market_center_lng,radius_miles
62421,38.75219,-87.94345,Claremont,IL,Illinois,True,,536.0,3.9,17159,Richland,"{""17159"": 92.53, ""17033"": 6.01, ""17101"": 1.46}",Richland|Crawford|Lawrence,17159|17033|17101,False,False,America/Chicago,"(38.75219, -87.94345)",8.795313291967663,15941.0,8396_0_yes,38.87366606824862,-87.89461720851295,10.0
62449,39.00419,-87.91069,Oblong,IL,Illinois,True,,3069.0,9.9,17033,Crawford,"{""17033"": 81.45, ""17079"": 17.55, ""17023"": 1.0}",Crawford|Jasper|Clark,17033|17079|17023,False,False,America/Chicago,"(39.00419, -87.91069)",9.059617136563853,15941.0,8396_0_yes,38.87366606824862,-87.89461720851295,10.0
62454,38.99725,-87.75767,Robinson,IL,Illinois,True,,10788.0,33.7,17033,Crawford,"{""17033"": 100}",Crawford,17033,False,False,America/Chicago,"(38.99725, -87.75767)",11.273146737928682,15941.0,8396_0_yes,38.87366606824862,-87.89461720851295,10.0
62459,38.92997,-88.0278,Sainte Marie,IL,Illinois,True,,358.0,125.8,17079,Jasper,"{""17079"": 100}",Jasper,17079,False,False,America/Chicago,"(38.92997, -88.0278)",8.149687943552271,15941.0,8396_0_yes,38.87366606824862,-87.89461720851295,10.0
62475,38.88441,-88.04645,West Liberty,IL,Illinois,True,,583.0,9.6,17079,Jasper,"{""17079"": 100}",Jasper,17079,False,False,America/Chicago,"(38.88441, -88.04645)",8.200351509274764,15941.0,8396_0_yes,38.87366606824862,-87.89461720851295,10.0
62480,38.99864,-88.00129,Willow Hill,IL,Illinois,True,,607.0,4.0,17079,Jasper,"{""17079"": 100}",Jasper,17079,False,False,America/Chicago,"(38.99864, -88.00129)",10.364781932265418,15941.0,8396_0_yes,38.87366606824862,-87.89461720851295,10.0
