zip,lat,lng,city,state_id,state_name,zcta,parent_zcta,population,density,county_fips,county_name,county_weights,county_names_all,county_fips_all,imprecise,military,timezone,Coord,distance_miles,market_total_population,market_id,market_center_lat,market_center_lng,radius_miles
78501,26.21599,-98.2391,Mcallen,TX,Texas,True,,60299.0,1498.2,48215,Hidalgo,"{""48215"": 100}",Hidalgo,48215,False,False,America/Chicago,"(26.21599, -98.2391)",6.387475933313696,356146.0,840_0_yes,26.1323242350652,-98.28291856692448,10.0
78503,26.16229,-98.25132,Mcallen,TX,Texas,True,,20703.0,416.1,48215,Hidalgo,"{""48215"": 100}",Hidalgo,48215,False,False,America/Chicago,"(26.16229, -98.25132)",2.8509006387400593,356146.0,840_0_yes,26.1323242350652,-98.28291856692448,10.0
78504,26.27758,-98.23728,Mcallen,TX,Texas,True,,61182.0,1205.7,48215,Hidalgo,"{""48215"": 100}",Hidalgo,48215,False,False,America/Chicago,"(26.27758, -98.23728)",10.427376264031881,356146.0,840_0_yes,26.1323242350652,-98.28291856692448,10.0
78557,26.10844,-98.25118,Hidalgo,TX,Texas,True,,13984.0,325.4,48215,Hidalgo,"{""48215"": 100}",Hidalgo,48215,False,False,America/Chicago,"(26.10844, -98.25118)",2.569070981540045,356146.0,840_0_yes,26.1323242350652,-98.28291856692448,10.0
78572,26.19848,-98.35633,Mission,TX,Texas,True,,80135.0,576.5,48215,Hidalgo,"{""48215"": 100}",Hidalgo,48215,False,False,America/Chicago,"(26.19848, -98.35633)",6.4512276205119505,356146.0,840_0_yes,26.1323242350652,-98.28291856692448,10.0
78577,26.1665,-98.19082,Pharr,TX,Texas,True,,78731.0,1169.1,48215,Hidalgo,"{""48215"": 100}",Hidalgo,48215,False,False,America/Chicago,"(26.1665, -98.19082)",6.180928649707658,356146.0,840_0_yes,26.1323242350652,-98.28291856692448,10.0
78589,26.15349,-98.15979,San Juan,TX,Texas,True,,41112.0,622.7,48215,Hidalgo,"{""48215"": 100}",Hidalgo,48215,False,False,America/Chicago,"(26.15349, -98.15979)",7.775808842998496,356146.0,840_0_yes,26.1323242350652,-98.28291856692448,10.0
