zip,lat,lng,city,state_id,state_name,zcta,parent_zcta,population,density,county_fips,county_name,county_weights,county_names_all,county_fips_all,imprecise,military,timezone,Coord,distance_miles,market_total_population,market_id,market_center_lat,market_center_lng,radius_miles
21617,39.04985,-76.03819,Centreville,MD,Maryland,True,,10534.0,37.5,24035,Queen Anne's,"{""24035"": 100}",Queen Anne's,24035,False,False,America/New_York,"(39.04985, -76.03819)",6.453987004816356,34070.0,8513_0_no,38.9998968355475,-76.13979037056761,10.0
21619,38.95285,-76.27939,Chester,MD,Maryland,True,,5789.0,240.7,24035,Queen Anne's,"{""24035"": 100}",Queen Anne's,24035,False,False,America/New_York,"(38.95285, -76.27939)",8.17266971697502,34070.0,8513_0_no,38.9998968355475,-76.13979037056761,10.0
21623,39.11915,-75.96268,Church Hill,MD,Maryland,True,,2248.0,23.9,24035,Queen Anne's,"{""24035"": 100}",Queen Anne's,24035,False,False,America/New_York,"(39.11915, -75.96268)",12.576965889218242,34070.0,8513_0_no,38.9998968355475,-76.13979037056761,10.0
21625,38.86925,-75.99216,Cordova,MD,Maryland,True,,2401.0,22.5,24041,Talbot,"{""24041"": 100}",Talbot,24041,False,False,America/New_York,"(38.86925, -75.99216)",12.018276614160209,34070.0,8513_0_no,38.9998968355475,-76.13979037056761,10.0
21638,38.94513,-76.20263,Grasonville,MD,Maryland,True,,5227.0,203.9,24035,Queen Anne's,"{""24035"": 100}",Queen Anne's,24035,False,False,America/New_York,"(38.94513, -76.20263)",5.0708030481484245,34070.0,8513_0_no,38.9998968355475,-76.13979037056761,10.0
21657,38.9534,-75.99042,Queen Anne,MD,Maryland,True,,727.0,9.2,24035,Queen Anne's,"{""24035"": 76.71, ""24041"": 19.85, ""24011"": 3.44}",Queen Anne's|Talbot|Caroline,24035|24041|24011,False,False,America/New_York,"(38.9534, -75.99042)",8.642481972208024,34070.0,8513_0_no,38.9998968355475,-76.13979037056761,10.0
21658,38.94071,-76.13819,Queenstown,MD,Maryland,True,,4177.0,41.4,24035,Queen Anne's,"{""24035"": 97.16, ""24041"": 2.84}",Queen Anne's|Talbot,24035|24041,False,False,America/New_York,"(38.94071, -76.13819)",4.0903243601705555,34070.0,8513_0_no,38.9998968355475,-76.13979037056761,10.0
21661,39.12905,-76.21967,Rock Hall,MD,Maryland,True,,2695.0,31.5,24029,Kent,"{""24029"": 100}",Kent,24029,False,False,America/New_York,"(39.12905, -76.21967)",9.899233908117811,34070.0,8513_0_no,38.9998968355475,-76.13979037056761,10.0
21679,38.91722,-76.08875,Wye Mills,MD,Maryland,True,,272.0,13.4,24041,Talbot,"{""24041"": 96.98, ""24035"": 3.02}",Talbot|Queen Anne's,24041|24035,False,False,America/New_York,"(38.91722, -76.08875)",6.336540162724037,34070.0,8513_0_no,38.9998968355475,-76.13979037056761,10.0
