zip,lat,lng,city,state_id,state_name,zcta,parent_zcta,population,density,county_fips,county_name,county_weights,county_names_all,county_fips_all,imprecise,military,timezone,Coord,distance_miles,market_total_population,market_id,market_center_lat,market_center_lng,radius_miles
26136,38.96553,-81.11478,Big Bend,WV,West Virginia,True,,533.0,12.7,54013,Calhoun,"{""54013"": 100}",Calhoun,54013,False,False,America/New_York,"(38.96553, -81.11478)",8.285025584861355,8857.0,8526_0_no,39.00758895355562,-80.97031417178385,10.0
26137,39.00647,-81.0385,Big Springs,WV,West Virginia,True,,488.0,3.7,54021,Gilmer,"{""54021"": 44.15, ""54013"": 34.4, ""54085"": 21.45}",Gilmer|Calhoun|Ritchie,54021|54013|54085,False,False,America/New_York,"(39.00647, -81.0385)",3.661736232077654,8857.0,8526_0_no,39.00758895355562,-80.97031417178385,10.0
26147,38.91368,-81.07629,Grantsville,WV,West Virginia,True,,2249.0,18.8,54013,Calhoun,"{""54013"": 92.33, ""54021"": 7.67}",Calhoun|Gilmer,54013|54021,False,False,America/New_York,"(38.91368, -81.07629)",8.632361034588325,8857.0,8526_0_no,39.00758895355562,-80.97031417178385,10.0
26178,39.06001,-81.02888,Smithville,WV,West Virginia,True,,191.0,2.0,54085,Ritchie,"{""54085"": 100}",Ritchie,54085,False,False,America/New_York,"(39.06001, -81.02888)",4.795664822834841,8857.0,8526_0_no,39.00758895355562,-80.97031417178385,10.0
26325,39.09749,-80.882,Auburn,WV,West Virginia,True,,240.0,3.8,54085,Ritchie,"{""54085"": 100}",Ritchie,54085,False,False,America/New_York,"(39.09749, -80.882)",7.812656236282207,8857.0,8526_0_no,39.00758895355562,-80.97031417178385,10.0
26327,39.12283,-80.9406,Berea,WV,West Virginia,True,,120.0,4.6,54085,Ritchie,"{""54085"": 100}",Ritchie,54085,False,False,America/New_York,"(39.12283, -80.9406)",8.120392606868965,8857.0,8526_0_no,39.00758895355562,-80.97031417178385,10.0
26342,39.0248,-80.84698,Coxs Mills,WV,West Virginia,True,,194.0,1.4,54021,Gilmer,"{""54021"": 100}",Gilmer,54021,False,False,America/New_York,"(39.0248, -80.84698)",6.726937954045426,8857.0,8526_0_no,39.00758895355562,-80.97031417178385,10.0
26351,38.92846,-80.84479,Glenville,WV,West Virginia,True,,4842.0,26.4,54021,Gilmer,"{""54021"": 95.72, ""54007"": 4.28}",Gilmer|Braxton,54021|54007,False,False,America/New_York,"(38.92846, -80.84479)",8.681088523917694,8857.0,8526_0_no,39.00758895355562,-80.97031417178385,10.0
