zip,lat,lng,city,state_id,state_name,zcta,parent_zcta,population,density,county_fips,county_name,county_weights,county_names_all,county_fips_all,imprecise,military,timezone,Coord,distance_miles,market_total_population,market_id,market_center_lat,market_center_lng,radius_miles
26138,39.02114,-81.18155,Brohard,WV,West Virginia,True,,62.0,2.1,54013,Calhoun,"{""54013"": 55.98, ""54105"": 44.02}",Calhoun|Wirt,54013|54105,False,False,America/New_York,"(39.02114, -81.18155)",11.826846859008983,6383.0,8537_0_yes,39.15227642034156,-81.03981474008438,10.0
26148,39.07122,-81.18088,Macfarlan,WV,West Virginia,True,,281.0,6.0,54085,Ritchie,"{""54085"": 100}",Ritchie,54085,False,False,America/New_York,"(39.07122, -81.18088)",9.410543858582717,6383.0,8537_0_yes,39.15227642034156,-81.03981474008438,10.0
26178,39.06001,-81.02888,Smithville,WV,West Virginia,True,,191.0,2.0,54085,Ritchie,"{""54085"": 100}",Ritchie,54085,False,False,America/New_York,"(39.06001, -81.02888)",6.401903166261089,6383.0,8537_0_yes,39.15227642034156,-81.03981474008438,10.0
26325,39.09749,-80.882,Auburn,WV,West Virginia,True,,240.0,3.8,54085,Ritchie,"{""54085"": 100}",Ritchie,54085,False,False,America/New_York,"(39.09749, -80.882)",9.267341266073405,6383.0,8537_0_yes,39.15227642034156,-81.03981474008438,10.0
26327,39.12283,-80.9406,Berea,WV,West Virginia,True,,120.0,4.6,54085,Ritchie,"{""54085"": 100}",Ritchie,54085,False,False,America/New_York,"(39.12283, -80.9406)",5.692996610899223,6383.0,8537_0_yes,39.15227642034156,-81.03981474008438,10.0
26337,39.23856,-81.16388,Cairo,WV,West Virginia,True,,1313.0,7.8,54085,Ritchie,"{""54085"": 100}",Ritchie,54085,False,False,America/New_York,"(39.23856, -81.16388)",8.926073991871755,6383.0,8537_0_yes,39.15227642034156,-81.03981474008438,10.0
26346,39.29247,-81.06294,Ellenboro,WV,West Virginia,True,,717.0,11.4,54085,Ritchie,"{""54085"": 88.68, ""54073"": 10.83, ""54095"": 0.49}",Ritchie|Pleasants|Tyler,54085|54073|54095,False,False,America/New_York,"(39.29247, -81.06294)",9.76522238555135,6383.0,8537_0_yes,39.15227642034156,-81.03981474008438,10.0
26362,39.15457,-81.05705,Harrisville,WV,West Virginia,True,,3301.0,12.0,54085,Ritchie,"{""54085"": 100}",Ritchie,54085,False,False,America/New_York,"(39.15457, -81.05705)",0.9369475928852439,6383.0,8537_0_yes,39.15227642034156,-81.03981474008438,10.0
26421,39.18412,-80.91607,Pullman,WV,West Virginia,True,,158.0,3.6,54085,Ritchie,"{""54085"": 100}",Ritchie,54085,False,False,America/New_York,"(39.18412, -80.91607)",6.984331613097574,6383.0,8537_0_yes,39.15227642034156,-81.03981474008438,10.0
