zip,lat,lng,city,state_id,state_name,zcta,parent_zcta,population,density,county_fips,county_name,county_weights,county_names_all,county_fips_all,imprecise,military,timezone,Coord,distance_miles,market_total_population,market_id,market_center_lat,market_center_lng,radius_miles
47424,39.01918,-86.86998,Bloomfield,IN,Indiana,True,,8788.0,18.2,18055,Greene,"{""18055"": 100}",Greene,18055,False,False,America/Indiana/Indianapolis,"(39.01918, -86.86998)",2.4904641748580283,19243.0,8542_0_no,39.0170590564861,-86.91629259708972,10.0
47443,38.96651,-87.09059,Lyons,IN,Indiana,True,,1419.0,10.8,18055,Greene,"{""18055"": 100}",Greene,18055,False,False,America/Indiana/Indianapolis,"(38.96651, -87.09059)",9.99048464960615,19243.0,8542_0_no,39.0170590564861,-86.91629259708972,10.0
47449,38.92672,-86.9894,Newberry,IN,Indiana,True,,346.0,6.3,18055,Greene,"{""18055"": 100}",Greene,18055,False,False,America/Indiana/Indianapolis,"(38.92672, -86.9894)",7.374461311405053,19243.0,8542_0_no,39.0170590564861,-86.91629259708972,10.0
47453,38.93472,-86.76773,Owensburg,IN,Indiana,True,,605.0,37.5,18055,Greene,"{""18055"": 100}",Greene,18055,False,False,America/Indiana/Indianapolis,"(38.93472, -86.76773)",9.800216556602237,19243.0,8542_0_no,39.0170590564861,-86.91629259708972,10.0
47457,38.91183,-86.9047,Scotland,IN,Indiana,True,,146.0,6164.8,18055,Greene,"{""18055"": 100}",Greene,18055,False,False,America/Indiana/Indianapolis,"(38.91183, -86.9047)",7.297259643509321,19243.0,8542_0_no,39.0170590564861,-86.91629259708972,10.0
47459,39.11167,-86.75125,Solsberry,IN,Indiana,True,,3935.0,26.0,18055,Greene,"{""18055"": 97.6, ""18119"": 2.4}",Greene|Owen,18055|18119,False,False,America/Indiana/Indianapolis,"(39.11167, -86.75125)",11.005708891776008,19243.0,8542_0_no,39.0170590564861,-86.91629259708972,10.0
47465,39.05474,-87.04338,Switz City,IN,Indiana,True,,431.0,6.3,18055,Greene,"{""18055"": 100}",Greene,18055,False,False,America/Indiana/Indianapolis,"(39.05474, -87.04338)",7.300584522283351,19243.0,8542_0_no,39.0170590564861,-86.91629259708972,10.0
47471,39.14253,-86.99788,Worthington,IN,Indiana,True,,3028.0,18.2,18055,Greene,"{""18055"": 78.93, ""18119"": 21.07}",Greene|Owen,18055|18119,False,False,America/Indiana/Indianapolis,"(39.14253, -86.99788)",9.711034408063822,19243.0,8542_0_no,39.0170590564861,-86.91629259708972,10.0
47522,38.88545,-86.80543,Crane,IN,Indiana,True,,545.0,9.8,18101,Martin,"{""18101"": 100}",Martin,18101,False,False,America/Indiana/Vincennes,"(38.88545, -86.80543)",10.870766001220318,19243.0,8542_0_no,39.0170590564861,-86.91629259708972,10.0
