zip,lat,lng,city,state_id,state_name,zcta,parent_zcta,population,density,county_fips,county_name,county_weights,county_names_all,county_fips_all,imprecise,military,timezone,Coord,distance_miles,market_total_population,market_id,market_center_lat,market_center_lng,radius_miles
47438,39.1582,-87.18237,Jasonville,IN,Indiana,True,,4288.0,27.4,18055,Greene,"{""18055"": 52.04, ""18021"": 35.8, ""18153"": 12.16}",Greene|Clay|Sullivan,18055|18021|18153,False,False,America/Indiana/Indianapolis,"(39.1582, -87.18237)",11.240948235891148,27083.0,8543_0_no,39.0176510435042,-87.28794258127373,10.0
47441,39.03976,-87.1743,Linton,IN,Indiana,True,,8977.0,52.7,18055,Greene,"{""18055"": 100}",Greene,18055,False,False,America/Indiana/Indianapolis,"(39.03976, -87.1743)",6.28801176763865,27083.0,8543_0_no,39.0176510435042,-87.28794258127373,10.0
47578,38.89288,-87.19055,Sandborn,IN,Indiana,True,,681.0,6.0,18083,Knox,"{""18083"": 67.13, ""18055"": 32.87}",Knox|Greene,18083|18055,False,False,America/Indiana/Vincennes,"(38.89288, -87.19055)",10.084742549970208,27083.0,8543_0_no,39.0176510435042,-87.28794258127373,10.0
47838,38.95679,-87.37812,Carlisle,IN,Indiana,True,,3744.0,13.9,18153,Sullivan,"{""18153"": 100}",Sullivan,18153,False,False,America/Indiana/Indianapolis,"(38.95679, -87.37812)",6.413859810431556,27083.0,8543_0_no,39.0176510435042,-87.28794258127373,10.0
47848,39.04159,-87.26108,Dugger,IN,Indiana,True,,1531.0,36.3,18153,Sullivan,"{""18153"": 87.36, ""18055"": 12.64}",Sullivan|Greene,18153|18055,False,False,America/Indiana/Indianapolis,"(39.04159, -87.26108)",2.1942161605461052,27083.0,8543_0_no,39.0176510435042,-87.28794258127373,10.0
47865,39.01908,-87.39259,Paxton,IN,Indiana,True,,116.0,801.0,18153,Sullivan,"{""18153"": 100}",Sullivan,18153,False,False,America/Indiana/Indianapolis,"(39.01908, -87.39259)",5.6185218326069535,27083.0,8543_0_no,39.0176510435042,-87.28794258127373,10.0
47882,39.09034,-87.41186,Sullivan,IN,Indiana,True,,7746.0,21.1,18153,Sullivan,"{""18153"": 100}",Sullivan,18153,False,False,America/Indiana/Indianapolis,"(39.09034, -87.41186)",8.332443381248876,27083.0,8543_0_no,39.0176510435042,-87.28794258127373,10.0
