zip,lat,lng,city,state_id,state_name,zcta,parent_zcta,population,density,county_fips,county_name,county_weights,county_names_all,county_fips_all,imprecise,military,timezone,Coord,distance_miles,market_total_population,market_id,market_center_lat,market_center_lng,radius_miles
47201,39.15074,-85.99432,Columbus,IN,Indiana,True,,47081.0,90.3,18005,Bartholomew,"{""18005"": 84.67, ""18013"": 15.33}",Bartholomew|Brown,18005|18013,False,False,America/Indiana/Indianapolis,"(39.15074, -85.99432)",6.118857516078628,84695.0,8550_0_yes,39.16001019186042,-85.88074181469082,10.0
47203,39.23189,-85.83281,Columbus,IN,Indiana,True,,26033.0,130.4,18005,Bartholomew,"{""18005"": 100}",Bartholomew,18005,False,False,America/Indiana/Indianapolis,"(39.23189, -85.83281)",5.590412906901569,84695.0,8550_0_yes,39.16001019186042,-85.88074181469082,10.0
47226,39.28266,-85.86907,Clifford,IN,Indiana,True,,195.0,851.6,18005,Bartholomew,"{""18005"": 100}",Bartholomew,18005,False,False,America/Indiana/Indianapolis,"(39.28266, -85.86907)",8.497293344307414,84695.0,8550_0_yes,39.16001019186042,-85.88074181469082,10.0
47232,39.11297,-85.79428,Elizabethtown,IN,Indiana,True,,3128.0,37.7,18005,Bartholomew,"{""18005"": 70.28, ""18079"": 29.72}",Bartholomew|Jennings,18005|18079,False,False,America/Indiana/Indianapolis,"(39.11297, -85.79428)",5.6598898883639475,84695.0,8550_0_yes,39.16001019186042,-85.88074181469082,10.0
47244,39.21802,-85.70232,Hartsville,IN,Indiana,True,,646.0,14.6,18005,Bartholomew,"{""18005"": 83.53, ""18031"": 16.47}",Bartholomew|Decatur,18005|18031,False,False,America/Indiana/Indianapolis,"(39.21802, -85.70232)",10.361448953521627,84695.0,8550_0_yes,39.16001019186042,-85.88074181469082,10.0
47246,39.29804,-85.76606,Hope,IN,Indiana,True,,4642.0,30.8,18005,Bartholomew,"{""18005"": 99.34, ""18031"": 0.66}",Bartholomew|Decatur,18005|18031,False,False,America/Indiana/Indianapolis,"(39.29804, -85.76606)",11.341412249097159,84695.0,8550_0_yes,39.16001019186042,-85.88074181469082,10.0
47247,39.05993,-85.88783,Jonesville,IN,Indiana,True,,193.0,525.8,18005,Bartholomew,"{""18005"": 100}",Bartholomew,18005,False,False,America/Indiana/Indianapolis,"(39.05993, -85.88783)",6.925316688871718,84695.0,8550_0_yes,39.16001019186042,-85.88074181469082,10.0
47273,39.07472,-85.7359,Scipio,IN,Indiana,True,,2265.0,27.5,18079,Jennings,"{""18079"": 96.78, ""18005"": 3.22}",Jennings|Bartholomew,18079|18005,False,False,America/Indiana/Indianapolis,"(39.07472, -85.7359)",9.747520519867145,84695.0,8550_0_yes,39.16001019186042,-85.88074181469082,10.0
47280,39.29655,-85.95047,Taylorsville,IN,Indiana,True,,512.0,182.7,18005,Bartholomew,"{""18005"": 100}",Bartholomew,18005,False,False,America/Indiana/Indianapolis,"(39.29655, -85.95047)",10.145350765186938,84695.0,8550_0_yes,39.16001019186042,-85.88074181469082,10.0
