zip,lat,lng,city,state_id,state_name,zcta,parent_zcta,population,density,county_fips,county_name,county_weights,county_names_all,county_fips_all,imprecise,military,timezone,Coord,distance_miles,market_total_population,market_id,market_center_lat,market_center_lng,radius_miles
62420,39.29065,-88.0005,Casey,IL,Illinois,True,,4510.0,14.1,17023,Clark,"{""17023"": 56.86, ""17035"": 36.11, ""17029"": 5.49, ""17079"": 1.54}",Clark|Cumberland|Coles|Jasper,17023|17035|17029|17079,False,False,America/Chicago,"(39.29065, -88.0005)",10.71295475201153,11385.0,8556_0_yes,39.16358033943331,-88.11519462364588,10.0
62428,39.26396,-88.1302,Greenup,IL,Illinois,True,,2764.0,11.1,17035,Cumberland,"{""17035"": 100}",Cumberland,17035,False,False,America/Chicago,"(39.26396, -88.1302)",6.981937435741434,11385.0,8556_0_yes,39.16358033943331,-88.11519462364588,10.0
62432,39.13353,-88.14176,Hidalgo,IL,Illinois,True,,784.0,7.4,17079,Jasper,"{""17079"": 99.72, ""17035"": 0.28}",Jasper|Cumberland,17079|17035,False,False,America/Chicago,"(39.13353, -88.14176)",2.5173676380402874,11385.0,8556_0_yes,39.16358033943331,-88.11519462364588,10.0
62436,39.18247,-88.25613,Jewett,IL,Illinois,True,,600.0,9.7,17035,Cumberland,"{""17035"": 61.86, ""17079"": 38.14}",Cumberland|Jasper,17035|17079,False,False,America/Chicago,"(39.18247, -88.25613)",7.661070537257834,11385.0,8556_0_yes,39.16358033943331,-88.11519462364588,10.0
62468,39.27779,-88.27155,Toledo,IL,Illinois,True,,2383.0,12.4,17035,Cumberland,"{""17035"": 100}",Cumberland,17035,False,False,America/Chicago,"(39.27779, -88.27155)",11.502873641701301,11385.0,8556_0_yes,39.16358033943331,-88.11519462364588,10.0
62481,39.12657,-88.02293,Yale,IL,Illinois,True,,344.0,3.8,17079,Jasper,"{""17079"": 100}",Jasper,17079,False,False,America/Chicago,"(39.12657, -88.02293)",5.566203314035534,11385.0,8556_0_yes,39.16358033943331,-88.11519462364588,10.0
