zip,lat,lng,city,state_id,state_name,zcta,parent_zcta,population,density,county_fips,county_name,county_weights,county_names_all,county_fips_all,imprecise,military,timezone,Coord,distance_miles,market_total_population,market_id,market_center_lat,market_center_lng,radius_miles
65203,38.89497,-92.39928,Columbia,MO,Missouri,True,,58271.0,301.3,29019,Boone,"{""29019"": 100}",Boone,29019,False,False,America/Chicago,"(38.89497, -92.39928)",10.313346533940454,66629.0,8557_0_no,39.02594016654812,-92.491367814779,10.0
65215,38.95171,-92.32043,Columbia,MO,Missouri,True,,277.0,3000.0,29019,Boone,"{""29019"": 100}",Boone,29019,False,False,America/Chicago,"(38.95171, -92.32043)",10.515625686498675,66629.0,8557_0_no,39.02594016654812,-92.491367814779,10.0
65248,39.13952,-92.65894,Fayette,MO,Missouri,True,,4724.0,10.6,29089,Howard,"{""29089"": 100}",Howard,29089,False,False,America/Chicago,"(39.13952, -92.65894)",11.931381149321338,66629.0,8557_0_no,39.02594016654812,-92.491367814779,10.0
65256,39.12713,-92.45568,Harrisburg,MO,Missouri,True,,1452.0,10.1,29019,Boone,"{""29019"": 76.87, ""29089"": 23.13}",Boone|Howard,29019|29089,False,False,America/Chicago,"(39.12713, -92.45568)",7.248860416954856,66629.0,8557_0_no,39.02594016654812,-92.491367814779,10.0
65279,39.01284,-92.52062,Rocheport,MO,Missouri,True,,1621.0,12.0,29019,Boone,"{""29019"": 75.08, ""29089"": 24.92}",Boone|Howard,29019|29089,False,False,America/Chicago,"(39.01284, -92.52062)",1.812474944066195,66629.0,8557_0_no,39.02594016654812,-92.491367814779,10.0
65287,38.88443,-92.51953,Wooldridge,MO,Missouri,True,,284.0,5.1,29135,Moniteau,"{""29135"": 54.88, ""29053"": 45.12}",Moniteau|Cooper,29135|29053,False,False,America/Chicago,"(38.88443, -92.51953)",9.89381471143726,66629.0,8557_0_no,39.02594016654812,-92.491367814779,10.0
