zip,lat,lng,city,state_id,state_name,zcta,parent_zcta,population,density,county_fips,county_name,county_weights,county_names_all,county_fips_all,imprecise,military,timezone,Coord,distance_miles,market_total_population,market_id,market_center_lat,market_center_lng,radius_miles
66007,39.1405,-94.94548,Basehor,KS,Kansas,True,,7175.0,88.3,20103,Leavenworth,"{""20103"": 100}",Leavenworth,20103,False,False,America/Chicago,"(39.1405, -94.94548)",11.00254125556548,97352.0,8564_0_no,39.03008564167504,-95.09330833441182,10.0
66012,39.06091,-94.91658,Bonner Springs,KS,Kansas,True,,12330.0,119.9,20103,Leavenworth,"{""20103"": 55.31, ""20209"": 44.69}",Leavenworth|Wyandotte,20103|20209,False,False,America/Chicago,"(39.06091, -94.91658)",9.719645367317824,97352.0,8564_0_no,39.03008564167504,-95.09330833441182,10.0
66018,38.96524,-94.97232,De Soto,KS,Kansas,True,,6380.0,106.1,20091,Johnson,"{""20091"": 100}",Johnson,20091,False,False,America/Chicago,"(38.96524, -94.97232)",7.89189308584314,97352.0,8564_0_no,39.03008564167504,-95.09330833441182,10.0
66025,38.89824,-95.07863,Eudora,KS,Kansas,True,,7847.0,40.7,20045,Douglas,"{""20045"": 69.36, ""20091"": 30.64}",Douglas|Johnson,20045|20091,False,False,America/Chicago,"(38.89824, -95.07863)",9.143732657294679,97352.0,8564_0_no,39.03008564167504,-95.09330833441182,10.0
66044,39.03187,-95.20991,Lawrence,KS,Kansas,True,,28867.0,173.7,20045,Douglas,"{""20045"": 38.6, ""20087"": 32.71, ""20103"": 28.69}",Douglas|Jefferson|Leavenworth,20045|20087|20103,False,False,America/Chicago,"(39.03187, -95.20991)",6.259476446125457,97352.0,8564_0_no,39.03008564167504,-95.09330833441182,10.0
66045,38.95408,-95.26078,Lawrence,KS,Kansas,True,,2284.0,790.4,20045,Douglas,"{""20045"": 100}",Douglas,20045,False,False,America/Chicago,"(38.95408, -95.26078)",10.414475602450212,97352.0,8564_0_no,39.03008564167504,-95.09330833441182,10.0
66046,38.909,-95.21061,Lawrence,KS,Kansas,True,,19564.0,185.0,20045,Douglas,"{""20045"": 100}",Douglas,20045,False,False,America/Chicago,"(38.909, -95.21061)",10.473777380492736,97352.0,8564_0_no,39.03008564167504,-95.09330833441182,10.0
66052,39.00998,-95.04678,Linwood,KS,Kansas,True,,2104.0,19.9,20103,Leavenworth,"{""20103"": 100}",Leavenworth,20103,False,False,America/Chicago,"(39.00998, -95.04678)",2.857989634379284,97352.0,8564_0_no,39.03008564167504,-95.09330833441182,10.0
66086,39.11578,-95.08043,Tonganoxie,KS,Kansas,True,,10801.0,43.8,20103,Leavenworth,"{""20103"": 98.91, ""20087"": 1.09}",Leavenworth|Jefferson,20103|20087,False,False,America/Chicago,"(39.11578, -95.08043)",5.961077885360335,97352.0,8564_0_no,39.03008564167504,-95.09330833441182,10.0
