zip,lat,lng,city,state_id,state_name,zcta,parent_zcta,population,density,county_fips,county_name,county_weights,county_names_all,county_fips_all,imprecise,military,timezone,Coord,distance_miles,market_total_population,market_id,market_center_lat,market_center_lng,radius_miles
66441,38.98199,-96.80289,Junction City,KS,Kansas,True,,25532.0,42.5,20061,Geary,"{""20061"": 93.84, ""20041"": 4.73, ""20161"": 1.43}",Geary|Dickinson|Riley,20061|20041|20161,False,False,America/Chicago,"(38.98199, -96.80289)",8.745068714049255,44813.0,8569_0_no,39.0330470683585,-96.95193033933684,10.0
66442,39.09302,-96.78963,Fort Riley,KS,Kansas,True,,14629.0,166.2,20161,Riley,"{""20161"": 60.53, ""20061"": 39.47}",Riley|Geary,20161|20061,False,False,America/Chicago,"(39.09302, -96.78963)",9.642786558769874,44813.0,8569_0_no,39.0330470683585,-96.95193033933684,10.0
66514,39.12635,-96.87826,Milford,KS,Kansas,True,,1435.0,33.0,20061,Geary,"{""20061"": 100}",Geary,20061,False,False,America/Chicago,"(39.12635, -96.87826)",7.561203536694969,44813.0,8569_0_no,39.0330470683585,-96.95193033933684,10.0
67431,38.95833,-97.01179,Chapman,KS,Kansas,True,,1889.0,5.9,20041,Dickinson,"{""20041"": 100}",Dickinson,20041,False,False,America/Chicago,"(38.95833, -97.01179)",6.081392573748135,44813.0,8569_0_no,39.0330470683585,-96.95193033933684,10.0
67487,39.17628,-97.06653,Wakefield,KS,Kansas,True,,1328.0,5.2,20027,Clay,"{""20027"": 81.25, ""20041"": 12.93, ""20061"": 5.82}",Clay|Dickinson|Geary,20027|20041|20061,False,False,America/Chicago,"(39.17628, -97.06653)",11.648745921383531,44813.0,8569_0_no,39.0330470683585,-96.95193033933684,10.0
