zip,lat,lng,city,state_id,state_name,zcta,parent_zcta,population,density,county_fips,county_name,county_weights,county_names_all,county_fips_all,imprecise,military,timezone,Coord,distance_miles,market_total_population,market_id,market_center_lat,market_center_lng,radius_miles
45654,39.36671,-82.37774,New Plymouth,OH,Ohio,True,,1038.0,7.5,39163,Vinton,"{""39163"": 72.43, ""39073"": 27.57}",Vinton|Hocking,39163|39073,False,False,America/New_York,"(39.36671, -82.37774)",6.906785958193837,13337.0,8688_0_no,39.29918037873939,-82.28245000303627,10.0
45698,39.28811,-82.39604,Zaleski,OH,Ohio,True,,561.0,92.9,39163,Vinton,"{""39163"": 100}",Vinton,39163,False,False,America/New_York,"(39.28811, -82.39604)",6.121869594835999,13337.0,8688_0_no,39.29918037873939,-82.28245000303627,10.0
45710,39.19763,-82.22574,Albany,OH,Ohio,True,,5226.0,20.8,39105,Meigs,"{""39105"": 45.79, ""39009"": 35.81, ""39163"": 18.4}",Meigs|Athens|Vinton,39105|39009|39163,False,False,America/New_York,"(39.19763, -82.22574)",7.644481594530709,13337.0,8688_0_no,39.29918037873939,-82.28245000303627,10.0
45719,39.39951,-82.1285,Chauncey,OH,Ohio,True,,840.0,479.1,39009,Athens,"{""39009"": 100}",Athens,39009,False,False,America/New_York,"(39.39951, -82.1285)",10.756983699391508,13337.0,8688_0_no,39.29918037873939,-82.28245000303627,10.0
45761,39.42642,-82.0964,Millfield,OH,Ohio,True,,1537.0,17.3,39009,Athens,"{""39009"": 100}",Athens,39009,False,False,America/New_York,"(39.42642, -82.0964)",13.268977931989427,13337.0,8688_0_no,39.29918037873939,-82.28245000303627,10.0
45766,39.31931,-82.26247,New Marshfield,OH,Ohio,True,,1233.0,14.7,39009,Athens,"{""39009"": 79.66, ""39163"": 20.34}",Athens|Vinton,39009|39163,False,False,America/New_York,"(39.31931, -82.26247)",1.7536546965708073,13337.0,8688_0_no,39.29918037873939,-82.28245000303627,10.0
45780,39.36972,-82.13112,The Plains,OH,Ohio,True,,2902.0,383.9,39009,Athens,"{""39009"": 100}",Athens,39009,False,False,America/New_York,"(39.36972, -82.13112)",9.442309718365435,13337.0,8688_0_no,39.29918037873939,-82.28245000303627,10.0
