zip,lat,lng,city,state_id,state_name,zcta,parent_zcta,population,density,county_fips,county_name,county_weights,county_names_all,county_fips_all,imprecise,military,timezone,Coord,distance_miles,market_total_population,market_id,market_center_lat,market_center_lng,radius_miles
47006,39.29141,-85.21365,Batesville,IN,Indiana,True,,11900.0,43.3,18137,Ripley,"{""18137"": 54.04, ""18047"": 45.25, ""18031"": 0.71}",Ripley|Franklin|Decatur,18137|18047|18031,False,False,America/Indiana/Indianapolis,"(39.29141, -85.21365)",3.0141308660664157,20222.0,8696_0_no,39.3039641856962,-85.26763678701779,10.0
47030,39.42686,-85.13319,Metamora,IN,Indiana,True,,2411.0,32.3,18047,Franklin,"{""18047"": 100}",Franklin,18047,False,False,America/Indiana/Indianapolis,"(39.42686, -85.13319)",11.121148219615234,20222.0,8696_0_no,39.3039641856962,-85.26763678701779,10.0
47034,39.20428,-85.32739,Napoleon,IN,Indiana,True,,125.0,373.9,18137,Ripley,"{""18137"": 100}",Ripley,18137,False,False,America/Indiana/Indianapolis,"(39.20428, -85.32739)",7.593307950177953,20222.0,8696_0_no,39.3039641856962,-85.26763678701779,10.0
47036,39.38563,-85.23972,Oldenburg,IN,Indiana,True,,900.0,19.5,18047,Franklin,"{""18047"": 100}",Franklin,18047,False,False,America/Indiana/Indianapolis,"(39.38563, -85.23972)",5.83641189505723,20222.0,8696_0_no,39.3039641856962,-85.26763678701779,10.0
47037,39.16431,-85.31908,Osgood,IN,Indiana,True,,4644.0,22.5,18137,Ripley,"{""18137"": 98.58, ""18079"": 1.42}",Ripley|Jennings,18137|18079,False,False,America/Indiana/Indianapolis,"(39.16431, -85.31908)",10.03426129571412,20222.0,8696_0_no,39.3039641856962,-85.26763678701779,10.0
47263,39.30864,-85.32832,New Point,IN,Indiana,True,,242.0,1071.5,18031,Decatur,"{""18031"": 100}",Decatur,18031,False,False,America/Indiana/Indianapolis,"(39.30864, -85.32832)",3.260319333197347,20222.0,8696_0_no,39.3039641856962,-85.26763678701779,10.0
