zip,lat,lng,city,state_id,state_name,zcta,parent_zcta,population,density,county_fips,county_name,county_weights,county_names_all,county_fips_all,imprecise,military,timezone,Coord,distance_miles,market_total_population,market_id,market_center_lat,market_center_lng,radius_miles
47802,39.35153,-87.4106,Terre Haute,IN,Indiana,True,,33744.0,82.0,18167,Vigo,"{""18167"": 99.74, ""18021"": 0.26}",Vigo|Clay,18167|18021,False,False,America/Indiana/Indianapolis,"(39.35153, -87.4106)",5.965720475980003,41115.0,8702_0_no,39.30755257230897,-87.50666024295569,10.0
47849,39.19196,-87.56131,Fairbanks,IN,Indiana,True,,563.0,9.5,18153,Sullivan,"{""18153"": 100}",Sullivan,18153,False,False,America/Indiana/Indianapolis,"(39.19196, -87.56131)",8.505135243560252,41115.0,8702_0_no,39.30755257230897,-87.50666024295569,10.0
47850,39.24441,-87.43763,Farmersburg,IN,Indiana,True,,2163.0,16.1,18153,Sullivan,"{""18153"": 75.48, ""18167"": 24.52}",Sullivan|Vigo,18153|18167,False,False,America/Indiana/Indianapolis,"(39.24441, -87.43763)",5.715351704224486,41115.0,8702_0_no,39.30755257230897,-87.50666024295569,10.0
47866,39.28302,-87.3247,Pimento,IN,Indiana,True,,504.0,9.8,18167,Vigo,"{""18167"": 85.03, ""18153"": 14.97}",Vigo|Sullivan,18167|18153,False,False,America/Indiana/Indianapolis,"(39.28302, -87.3247)",9.876117086434547,41115.0,8702_0_no,39.30755257230897,-87.50666024295569,10.0
47869,39.2751,-87.49658,Prairie Creek,IN,Indiana,True,,114.0,644.2,18167,Vigo,"{""18167"": 100}",Vigo,18167,False,False,America/Indiana/Indianapolis,"(39.2751, -87.49658)",2.3061394836419944,41115.0,8702_0_no,39.30755257230897,-87.50666024295569,10.0
47879,39.18863,-87.37619,Shelburn,IN,Indiana,True,,3430.0,21.4,18153,Sullivan,"{""18153"": 99.02, ""18021"": 0.98}",Sullivan|Clay,18153|18021,False,False,America/Indiana/Indianapolis,"(39.18863, -87.37619)",10.78194601864523,41115.0,8702_0_no,39.30755257230897,-87.50666024295569,10.0
62477,39.23369,-87.66024,West Union,IL,Illinois,True,,597.0,3.9,17023,Clark,"{""17023"": 100}",Clark,17023,False,False,America/Chicago,"(39.23369, -87.66024)",9.67109002318085,41115.0,8702_0_no,39.30755257230897,-87.50666024295569,10.0
