zip,lat,lng,city,state_id,state_name,zcta,parent_zcta,population,density,county_fips,county_name,county_weights,county_names_all,county_fips_all,imprecise,military,timezone,Coord,distance_miles,market_total_population,market_id,market_center_lat,market_center_lng,radius_miles
61920,39.50415,-88.16448,Charleston,IL,Illinois,True,,23642.0,61.5,17029,Coles,"{""17029"": 100}",Coles,17029,False,False,America/Chicago,"(39.50415, -88.16448)",9.826310891526195,52053.0,8715_0_yes,39.45348745307454,-88.33664593224867,10.0
61928,39.45524,-88.50284,Gays,IL,Illinois,True,,712.0,8.9,17139,Moultrie,"{""17139"": 62.06, ""17173"": 31.96, ""17029"": 5.98}",Moultrie|Shelby|Coles,17139|17173|17029,False,False,America/Chicago,"(39.45524, -88.50284)",8.867141003626887,52053.0,8715_0_yes,39.45348745307454,-88.33664593224867,10.0
61931,39.59067,-88.35883,Humboldt,IL,Illinois,True,,1356.0,16.1,17029,Coles,"{""17029"": 100}",Coles,17029,False,False,America/Chicago,"(39.59067, -88.35883)",9.551870355481176,52053.0,8715_0_yes,39.45348745307454,-88.33664593224867,10.0
61938,39.48004,-88.37571,Mattoon,IL,Illinois,True,,21227.0,64.8,17029,Coles,"{""17029"": 98.73, ""17035"": 1.27}",Coles|Cumberland,17029|17035,False,False,America/Chicago,"(39.48004, -88.37571)",2.7762270709196226,52053.0,8715_0_yes,39.45348745307454,-88.33664593224867,10.0
62440,39.39433,-88.26325,Lerna,IL,Illinois,True,,1155.0,11.0,17029,Coles,"{""17029"": 73.84, ""17035"": 26.16}",Coles|Cumberland,17029|17035,False,False,America/Chicago,"(39.39433, -88.26325)",5.661465166659312,52053.0,8715_0_yes,39.45348745307454,-88.33664593224867,10.0
62447,39.31303,-88.44456,Neoga,IL,Illinois,True,,3428.0,21.7,17035,Cumberland,"{""17035"": 68.76, ""17173"": 31.24}",Cumberland|Shelby,17035|17173,False,False,America/Chicago,"(39.31303, -88.44456)",11.286853219627794,52053.0,8715_0_yes,39.45348745307454,-88.33664593224867,10.0
62469,39.34843,-88.33911,Trilla,IL,Illinois,True,,533.0,10.0,17035,Cumberland,"{""17035"": 84.96, ""17029"": 15.04}",Cumberland|Coles,17035|17029,False,False,America/Chicago,"(39.34843, -88.33911)",7.259970678967842,52053.0,8715_0_yes,39.45348745307454,-88.33664593224867,10.0
