zip,lat,lng,city,state_id,state_name,zcta,parent_zcta,population,density,county_fips,county_name,county_weights,county_names_all,county_fips_all,imprecise,military,timezone,Coord,distance_miles,market_total_population,market_id,market_center_lat,market_center_lng,radius_miles
62076,39.34186,-89.23383,Ohlman,IL,Illinois,True,,103.0,21.4,17135,Montgomery,"{""17135"": 100}",Montgomery,17135,False,False,America/Chicago,"(39.34186, -89.23383)",11.148350864593633,11037.0,8717_0_yes,39.454689871977386,-89.08456835301207,10.0
62083,39.35122,-89.19842,Rosamond,IL,Illinois,True,,168.0,3.0,17021,Christian,"{""17021"": 61.76, ""17135"": 38.24}",Christian|Montgomery,17021|17135,False,False,America/Chicago,"(39.35122, -89.19842)",9.383817846507833,11037.0,8717_0_yes,39.454689871977386,-89.08456835301207,10.0
62510,39.5315,-89.02706,Assumption,IL,Illinois,True,,1554.0,7.8,17021,Christian,"{""17021"": 51.26, ""17173"": 48.74}",Christian|Shelby,17021|17173,False,False,America/Chicago,"(39.5315, -89.02706)",6.12921880207178,11037.0,8717_0_yes,39.454689871977386,-89.08456835301207,10.0
62555,39.46755,-89.21982,Owaneco,IL,Illinois,True,,475.0,4.9,17021,Christian,"{""17021"": 100}",Christian,17021,False,False,America/Chicago,"(39.46755, -89.21982)",7.26937099762534,11037.0,8717_0_yes,39.454689871977386,-89.08456835301207,10.0
62557,39.39974,-89.10503,Pana,IL,Illinois,True,,7087.0,23.4,17021,Christian,"{""17021"": 73.71, ""17173"": 21.29, ""17135"": 5.0}",Christian|Shelby|Montgomery,17021|17173|17135,False,False,America/Chicago,"(39.39974, -89.10503)",3.9506053899095024,11037.0,8717_0_yes,39.454689871977386,-89.08456835301207,10.0
62571,39.38155,-88.95998,Tower Hill,IL,Illinois,True,,1650.0,9.1,17173,Shelby,"{""17173"": 100}",Shelby,17173,False,False,America/Chicago,"(39.38155, -88.95998)",8.352370324049684,11037.0,8717_0_yes,39.454689871977386,-89.08456835301207,10.0
