zip,lat,lng,city,state_id,state_name,zcta,parent_zcta,population,density,county_fips,county_name,county_weights,county_names_all,county_fips_all,imprecise,military,timezone,Coord,distance_miles,market_total_population,market_id,market_center_lat,market_center_lng,radius_miles
43728,39.49188,-81.89676,Chesterhill,OH,Ohio,True,,1551.0,16.4,39115,Morgan,"{""39115"": 96.56, ""39009"": 3.44}",Morgan|Athens,39115|39009,False,False,America/New_York,"(39.49188, -81.89676)",11.043355829271588,15268.0,8844_0_no,39.587780345955984,-81.73095599200337,10.0
43756,39.68993,-81.79574,Mcconnelsville,OH,Ohio,True,,5007.0,14.0,39115,Morgan,"{""39115"": 98.64, ""39119"": 1.36}",Morgan|Muskingum,39115|39119,False,False,America/New_York,"(39.68993, -81.79574)",7.854634587746755,15268.0,8844_0_no,39.587780345955984,-81.73095599200337,10.0
43787,39.53292,-81.80554,Stockport,OH,Ohio,True,,3123.0,16.0,39115,Morgan,"{""39115"": 83.79, ""39167"": 16.21}",Morgan|Washington,39115|39167,False,False,America/New_York,"(39.53292, -81.80554)",5.491081646096718,15268.0,8844_0_no,39.587780345955984,-81.73095599200337,10.0
45715,39.60484,-81.6268,Beverly,OH,Ohio,True,,2405.0,22.2,39115,Morgan,"{""39115"": 58.74, ""39167"": 27.17, ""39121"": 14.09}",Morgan|Washington|Noble,39115|39167|39121,False,False,America/New_York,"(39.60484, -81.6268)",5.669178338754447,15268.0,8844_0_no,39.587780345955984,-81.73095599200337,10.0
45721,39.56563,-81.58347,Coal Run,OH,Ohio,True,,45.0,561.4,39167,Washington,"{""39167"": 100}",Washington,39167,False,False,America/New_York,"(39.56563, -81.58347)",8.002124661905844,15268.0,8844_0_no,39.587780345955984,-81.73095599200337,10.0
45786,39.50365,-81.65451,Waterford,OH,Ohio,True,,3137.0,19.1,39167,Washington,"{""39167"": 95.81, ""39115"": 4.19}",Washington|Morgan,39167|39115,False,False,America/New_York,"(39.50365, -81.65451)",7.097771885239725,15268.0,8844_0_no,39.587780345955984,-81.73095599200337,10.0
