zip,lat,lng,city,state_id,state_name,zcta,parent_zcta,population,density,county_fips,county_name,county_weights,county_names_all,county_fips_all,imprecise,military,timezone,Coord,distance_miles,market_total_population,market_id,market_center_lat,market_center_lng,radius_miles
26033,39.8284,-80.57985,Cameron,WV,West Virginia,True,,1733.0,7.0,54051,Marshall,"{""54051"": 100}",Marshall,54051,False,False,America/New_York,"(39.8284, -80.57985)",8.397509337242571,14566.0,8853_0_yes,39.73063529108068,-80.67380521713716,10.0
26039,39.81641,-80.66969,Glen Easton,WV,West Virginia,True,,542.0,5.8,54051,Marshall,"{""54051"": 100}",Marshall,54051,False,False,America/New_York,"(39.81641, -80.66969)",5.930495651209445,14566.0,8853_0_yes,39.73063529108068,-80.67380521713716,10.0
26055,39.75338,-80.77396,Proctor,WV,West Virginia,True,,1053.0,5.5,54051,Marshall,"{""54051"": 72.36, ""54103"": 27.64}",Marshall|Wetzel,54051|54103,False,False,America/New_York,"(39.75338, -80.77396)",5.548243482598202,14566.0,8853_0_yes,39.73063529108068,-80.67380521713716,10.0
26155,39.6333,-80.76707,New Martinsville,WV,West Virginia,True,,7599.0,25.8,54103,Wetzel,"{""54103"": 85.51, ""54095"": 12.53, ""54051"": 1.96}",Wetzel|Tyler|Marshall,54103|54095|54051,False,False,America/New_York,"(39.6333, -80.76707)",8.356031094763152,14566.0,8853_0_yes,39.73063529108068,-80.67380521713716,10.0
26581,39.66554,-80.56781,Littleton,WV,West Virginia,True,,883.0,7.0,54103,Wetzel,"{""54103"": 100}",Wetzel,54103,False,False,America/New_York,"(39.66554, -80.56781)",7.209791831834951,14566.0,8853_0_yes,39.73063529108068,-80.67380521713716,10.0
43942,39.86367,-80.84875,Powhatan Point,OH,Ohio,True,,2756.0,50.9,39013,Belmont,"{""39013"": 73.24, ""39111"": 26.76}",Belmont|Monroe,39013|39111,False,False,America/New_York,"(39.86367, -80.84875)",13.066695024619936,14566.0,8853_0_yes,39.73063529108068,-80.67380521713716,10.0
