zip,lat,lng,city,state_id,state_name,zcta,parent_zcta,population,density,county_fips,county_name,county_weights,county_names_all,county_fips_all,imprecise,military,timezone,Coord,distance_miles,market_total_population,market_id,market_center_lat,market_center_lng,radius_miles
61818,39.88455,-88.71798,Cerro Gordo,IL,Illinois,True,,1614.0,16.0,17147,Piatt,"{""17147"": 85.57, ""17115"": 14.43}",Piatt|Macon,17147|17115,False,False,America/Chicago,"(39.88455, -88.71798)",12.896395796028324,10919.0,8874_0_yes,39.74338743873513,-88.55900302116862,10.0
61911,39.70452,-88.47068,Arthur,IL,Illinois,True,,5021.0,30.5,17139,Moultrie,"{""17139"": 47.06, ""17041"": 41.24, ""17029"": 11.7}",Moultrie|Douglas|Coles,17139|17041|17029,False,False,America/Chicago,"(39.70452, -88.47068)",5.407612740901454,10919.0,8874_0_yes,39.74338743873513,-88.55900302116862,10.0
61913,39.82657,-88.47156,Atwood,IL,Illinois,True,,1528.0,14.4,17147,Piatt,"{""17147"": 48.18, ""17041"": 47.85, ""17139"": 3.97}",Piatt|Douglas|Moultrie,17147|17041|17139,False,False,America/Chicago,"(39.82657, -88.47156)",7.388344580467797,10919.0,8874_0_yes,39.74338743873513,-88.55900302116862,10.0
61929,39.82338,-88.62271,Hammond,IL,Illinois,True,,690.0,6.8,17147,Piatt,"{""17147"": 99.46, ""17139"": 0.54}",Piatt|Moultrie,17147|17139,False,False,America/Chicago,"(39.82338, -88.62271)",6.479909779798009,10919.0,8874_0_yes,39.74338743873513,-88.55900302116862,10.0
61936,39.80319,-88.72684,La Place,IL,Illinois,True,,270.0,34.3,17147,Piatt,"{""17147"": 100}",Piatt,17147,False,False,America/Chicago,"(39.80319, -88.72684)",9.824010983613068,10919.0,8874_0_yes,39.74338743873513,-88.55900302116862,10.0
61937,39.73872,-88.65542,Lovington,IL,Illinois,True,,1796.0,7.3,17139,Moultrie,"{""17139"": 92.76, ""17115"": 7.24}",Moultrie|Macon,17139|17115,False,False,America/Chicago,"(39.73872, -88.65542)",5.132660126737614,10919.0,8874_0_yes,39.74338743873513,-88.55900302116862,10.0
