zip,lat,lng,city,state_id,state_name,zcta,parent_zcta,population,density,county_fips,county_name,county_weights,county_names_all,county_fips_all,imprecise,military,timezone,Coord,distance_miles,market_total_population,market_id,market_center_lat,market_center_lng,radius_miles
64625,39.74378,-93.80527,Breckenridge,MO,Missouri,True,,723.0,4.3,29025,Caldwell,"{""29025"": 66.59, ""29061"": 22.93, ""29117"": 10.48}",Caldwell|Daviess|Livingston,29025|29061|29117,False,False,America/Chicago,"(39.74378, -93.80527)",0.8228054388385309,4907.0,8888_0_yes,39.75189205824228,-93.81660919380232,10.0
64644,39.7418,-93.97384,Hamilton,MO,Missouri,True,,3493.0,12.5,29025,Caldwell,"{""29025"": 80.39, ""29061"": 19.61}",Caldwell|Daviess,29025|29061,False,False,America/Chicago,"(39.7418, -93.97384)",8.381836884754557,4907.0,8888_0_yes,39.75189205824228,-93.81660919380232,10.0
64654,39.84864,-93.77552,Lock Springs,MO,Missouri,True,,50.0,199.4,29061,Daviess,"{""29061"": 100}",Daviess,29061,False,False,America/Chicago,"(39.84864, -93.77552)",7.031491623855154,4907.0,8888_0_yes,39.75189205824228,-93.81660919380232,10.0
64656,39.67803,-93.69375,Ludlow,MO,Missouri,True,,327.0,5.9,29117,Livingston,"{""29117"": 100}",Livingston,29117,False,False,America/Chicago,"(39.67803, -93.69375)",8.287533339802659,4907.0,8888_0_yes,39.75189205824228,-93.81660919380232,10.0
64664,39.74601,-93.66027,Mooresville,MO,Missouri,True,,314.0,2.5,29117,Livingston,"{""29117"": 100}",Livingston,29117,False,False,America/Chicago,"(39.74601, -93.66027)",8.315099993890243,4907.0,8888_0_yes,39.75189205824228,-93.81660919380232,10.0
