zip,lat,lng,city,state_id,state_name,zcta,parent_zcta,population,density,county_fips,county_name,county_weights,county_names_all,county_fips_all,imprecise,military,timezone,Coord,distance_miles,market_total_population,market_id,market_center_lat,market_center_lng,radius_miles
08005,39.75503,-74.30626,Barnegat,NJ,New Jersey,True,,24444.0,176.3,34029,Ocean,"{""34029"": 100}",Ocean,34029,False,False,America/New_York,"(39.75503, -74.30626)",9.158835906270811,175032.0,8982_0_no,39.86536551969035,-74.40190003039802,10.0
08015,39.92981,-74.53966,Browns Mills,NJ,New Jersey,True,,19236.0,132.1,34005,Burlington,"{""34005"": 100}",Burlington,34005,False,False,America/New_York,"(39.92981, -74.53966)",8.55283775100777,175032.0,8982_0_no,39.86536551969035,-74.40190003039802,10.0
08019,39.76733,-74.52781,Chatsworth,NJ,New Jersey,True,,1142.0,3.9,34005,Burlington,"{""34005"": 100}",Burlington,34005,False,False,America/New_York,"(39.76733, -74.52781)",9.514863599725045,175032.0,8982_0_no,39.86536551969035,-74.40190003039802,10.0
08640,40.0093,-74.58424,Joint Base Mdl,NJ,New Jersey,True,,8350.0,174.1,34005,Burlington,"{""34005"": 100}",Burlington,34005,False,False,America/New_York,"(40.0093, -74.58424)",13.864132840017131,175032.0,8982_0_no,39.86536551969035,-74.40190003039802,10.0
08731,39.85946,-74.29363,Forked River,NJ,New Jersey,True,,20347.0,100.6,34029,Ocean,"{""34029"": 100}",Ocean,34029,False,False,America/New_York,"(39.85946, -74.29363)",5.756593485519126,175032.0,8982_0_no,39.86536551969035,-74.40190003039802,10.0
08755,40.00968,-74.22457,Toms River,NJ,New Jersey,True,,26398.0,636.6,34029,Ocean,"{""34029"": 100}",Ocean,34029,False,False,America/New_York,"(40.00968, -74.22457)",13.699611659469449,175032.0,8982_0_no,39.86536551969035,-74.40190003039802,10.0
08757,39.96061,-74.25884,Toms River,NJ,New Jersey,True,,33543.0,728.3,34029,Ocean,"{""34029"": 100}",Ocean,34029,False,False,America/New_York,"(39.96061, -74.25884)",10.039286449470206,175032.0,8982_0_no,39.86536551969035,-74.40190003039802,10.0
08758,39.79529,-74.25296,Waretown,NJ,New Jersey,True,,8254.0,176.4,34029,Ocean,"{""34029"": 100}",Ocean,34029,False,False,America/New_York,"(39.79529, -74.25296)",9.268007600449309,175032.0,8982_0_no,39.86536551969035,-74.40190003039802,10.0
08759,39.96239,-74.35902,Manchester Township,NJ,New Jersey,True,,33318.0,209.7,34029,Ocean,"{""34029"": 97.76, ""34005"": 2.24}",Ocean|Burlington,34029|34005,False,False,America/New_York,"(39.96239, -74.35902)",7.078438417269563,175032.0,8982_0_no,39.86536551969035,-74.40190003039802,10.0
