zip,lat,lng,city,state_id,state_name,zcta,parent_zcta,population,density,county_fips,county_name,county_weights,county_names_all,county_fips_all,imprecise,military,timezone,Coord,distance_miles,market_total_population,market_id,market_center_lat,market_center_lng,radius_miles
47832,39.87879,-87.25463,Bloomingdale,IN,Indiana,True,,1261.0,11.2,18121,Parke,"{""18121"": 100}",Parke,18121,False,False,America/Indiana/Indianapolis,"(39.87879, -87.25463)",3.249221873178582,16141.0,9016_0_no,39.88611308705338,-87.19409423543377,10.0
47859,39.88595,-87.16999,Marshall,IN,Indiana,True,,1139.0,10.3,18121,Parke,"{""18121"": 100}",Parke,18121,False,False,America/Indiana/Indianapolis,"(39.88595, -87.16999)",1.2779807112107868,16141.0,9016_0_no,39.88611308705338,-87.19409423543377,10.0
47862,39.77184,-87.34527,Montezuma,IN,Indiana,True,,1394.0,13.5,18121,Parke,"{""18121"": 100}",Parke,18121,False,False,America/Indiana/Indianapolis,"(39.77184, -87.34527)",11.255402859188068,16141.0,9016_0_no,39.88611308705338,-87.19409423543377,10.0
47872,39.75331,-87.16271,Rockville,IN,Indiana,True,,8290.0,18.9,18121,Parke,"{""18121"": 99.68, ""18133"": 0.32}",Parke|Putnam,18121|18133,False,False,America/Indiana/Indianapolis,"(39.75331, -87.16271)",9.32574685667977,16141.0,9016_0_no,39.88611308705338,-87.19409423543377,10.0
47916,39.98343,-87.05524,Alamo,IN,Indiana,True,,69.0,427.9,18107,Montgomery,"{""18107"": 100}",Montgomery,18107,False,False,America/Indiana/Indianapolis,"(39.98343, -87.05524)",9.966338055757568,16141.0,9016_0_no,39.88611308705338,-87.19409423543377,10.0
47952,39.96186,-87.30049,Kingman,IN,Indiana,True,,2917.0,10.2,18045,Fountain,"{""18045"": 65.54, ""18121"": 34.46}",Fountain|Parke,18045|18121,False,False,America/Indiana/Indianapolis,"(39.96186, -87.30049)",7.6924470596883285,16141.0,9016_0_no,39.88611308705338,-87.19409423543377,10.0
47989,39.88871,-87.05243,Waveland,IN,Indiana,True,,1071.0,10.3,18107,Montgomery,"{""18107"": 65.36, ""18121"": 32.85, ""18133"": 1.79}",Montgomery|Parke|Putnam,18107|18121|18133,False,False,America/Indiana/Indianapolis,"(39.88871, -87.05243)",7.512584958648199,16141.0,9016_0_no,39.88611308705338,-87.19409423543377,10.0
