zip,lat,lng,city,state_id,state_name,zcta,parent_zcta,population,density,county_fips,county_name,county_weights,county_names_all,county_fips_all,imprecise,military,timezone,Coord,distance_miles,market_total_population,market_id,market_center_lat,market_center_lng,radius_miles
62323,39.81306,-90.68607,Chambersburg,IL,Illinois,True,,188.0,1.7,17149,Pike,"{""17149"": 98.21, ""17009"": 1.79}",Pike|Brown,17149|17009,False,False,America/Chicago,"(39.81306, -90.68607)",7.782569776579817,16739.0,9025_0_no,39.89160763036024,-90.58090877331784,10.0
62353,39.97277,-90.75735,Mount Sterling,IL,Illinois,True,,5103.0,10.4,17009,Brown,"{""17009"": 98.1, ""17149"": 1.21, ""17169"": 0.69}",Brown|Pike|Schuyler,17009|17149|17169,False,False,America/Chicago,"(39.97277, -90.75735)",10.901073987828104,16739.0,9025_0_no,39.89160763036024,-90.58090877331784,10.0
62378,39.89602,-90.63652,Versailles,IL,Illinois,True,,928.0,5.4,17009,Brown,"{""17009"": 100}",Brown,17009,False,False,America/Chicago,"(39.89602, -90.63652)",2.963720084570789,16739.0,9025_0_no,39.89160763036024,-90.58090877331784,10.0
62611,39.88493,-90.39984,Arenzville,IL,Illinois,True,,1222.0,6.5,17017,Cass,"{""17017"": 66.36, ""17137"": 33.64}",Cass|Morgan,17017|17137,False,False,America/Chicago,"(39.88493, -90.39984)",9.610465473505439,16739.0,9025_0_no,39.89160763036024,-90.58090877331784,10.0
62618,40.00534,-90.39542,Beardstown,IL,Illinois,True,,6966.0,26.7,17017,Cass,"{""17017"": 100}",Cass,17017,False,False,America/Chicago,"(40.00534, -90.39542)",12.581038894343752,16739.0,9025_0_no,39.89160763036024,-90.58090877331784,10.0
62628,39.7794,-90.40199,Chapin,IL,Illinois,True,,831.0,8.2,17137,Morgan,"{""17137"": 87.23, ""17171"": 12.77}",Morgan|Scott,17137|17171,False,False,America/Chicago,"(39.7794, -90.40199)",12.256315881773547,16739.0,9025_0_no,39.89160763036024,-90.58090877331784,10.0
62665,39.81627,-90.53462,Meredosia,IL,Illinois,True,,1501.0,12.9,17137,Morgan,"{""17137"": 75.1, ""17171"": 24.9}",Morgan|Scott,17137|17171,False,False,America/Chicago,"(39.81627, -90.53462)",5.755317414526043,16739.0,9025_0_no,39.89160763036024,-90.58090877331784,10.0
