zip,lat,lng,city,state_id,state_name,zcta,parent_zcta,population,density,county_fips,county_name,county_weights,county_names_all,county_fips_all,imprecise,military,timezone,Coord,distance_miles,market_total_population,market_id,market_center_lat,market_center_lng,radius_miles
47916,39.98343,-87.05524,Alamo,IN,Indiana,True,,69.0,427.9,18107,Montgomery,"{""18107"": 100}",Montgomery,18107,False,False,America/Indiana/Indianapolis,"(39.98343, -87.05524)",8.985902270208507,36572.0,9027_0_yes,40.03021240340232,-86.89681442720708,10.0
47933,40.03728,-86.90234,Crawfordsville,IN,Indiana,True,,27780.0,45.5,18107,Montgomery,"{""18107"": 98.2, ""18045"": 1.37, ""18011"": 0.43}",Montgomery|Fountain|Boone,18107|18045|18011,False,False,America/Indiana/Indianapolis,"(40.03728, -86.90234)",0.569130576921516,36572.0,9027_0_yes,40.03021240340232,-86.89681442720708,10.0
47940,40.11749,-86.7447,Darlington,IN,Indiana,True,,1686.0,15.8,18107,Montgomery,"{""18107"": 100}",Montgomery,18107,False,False,America/Indiana/Indianapolis,"(40.11749, -86.7447)",10.052176823627823,36572.0,9027_0_yes,40.03021240340232,-86.89681442720708,10.0
47954,39.90048,-86.8178,Ladoga,IN,Indiana,True,,2368.0,14.0,18107,Montgomery,"{""18107"": 94.4, ""18133"": 5.6}",Montgomery|Putnam,18107|18133,False,False,America/Indiana/Indianapolis,"(39.90048, -86.8178)",9.8921693972235,36572.0,9027_0_yes,40.03021240340232,-86.89681442720708,10.0
47965,39.95452,-86.91996,New Market,IN,Indiana,True,,639.0,624.7,18107,Montgomery,"{""18107"": 100}",Montgomery,18107,False,False,America/Indiana/Indianapolis,"(39.95452, -86.91996)",5.371444346686952,36572.0,9027_0_yes,40.03021240340232,-86.89681442720708,10.0
47968,39.96209,-86.74542,New Ross,IN,Indiana,True,,1228.0,18.2,18107,Montgomery,"{""18107"": 88.18, ""18011"": 10.41, ""18063"": 1.41}",Montgomery|Boone|Hendricks,18107|18011|18063,False,False,America/Indiana/Indianapolis,"(39.96209, -86.74542)",9.293601147249785,36572.0,9027_0_yes,40.03021240340232,-86.89681442720708,10.0
47989,39.88871,-87.05243,Waveland,IN,Indiana,True,,1071.0,10.3,18107,Montgomery,"{""18107"": 65.36, ""18121"": 32.85, ""18133"": 1.79}",Montgomery|Parke|Putnam,18107|18121|18133,False,False,America/Indiana/Indianapolis,"(39.88871, -87.05243)",12.787030183054423,36572.0,9027_0_yes,40.03021240340232,-86.89681442720708,10.0
47990,40.06118,-87.05952,Waynetown,IN,Indiana,True,,1731.0,15.0,18107,Montgomery,"{""18107"": 90.66, ""18045"": 9.34}",Montgomery|Fountain,18107|18045,False,False,America/Indiana/Indianapolis,"(40.06118, -87.05952)",8.868011958773634,36572.0,9027_0_yes,40.03021240340232,-86.89681442720708,10.0
