zip,lat,lng,city,state_id,state_name,zcta,parent_zcta,population,density,county_fips,county_name,county_weights,county_names_all,county_fips_all,imprecise,military,timezone,Coord,distance_miles,market_total_population,market_id,market_center_lat,market_center_lng,radius_miles
62301,39.93139,-91.38741,Quincy,IL,Illinois,True,,31744.0,1097.2,17001,Adams,"{""17001"": 100}",Adams,17001,False,False,America/Chicago,"(39.93139, -91.38741)",3.90383233985236,55519.0,9027_0_no,39.89282878447181,-91.3335709490231,10.0
62305,39.92915,-91.34441,Quincy,IL,Illinois,True,,19016.0,52.7,17001,Adams,"{""17001"": 100}",Adams,17001,False,False,America/Chicago,"(39.92915, -91.34441)",2.5744632813771555,55519.0,9027_0_no,39.89282878447181,-91.3335709490231,10.0
62338,39.99309,-91.23889,Fowler,IL,Illinois,True,,1105.0,12.3,17001,Adams,"{""17001"": 100}",Adams,17001,False,False,America/Chicago,"(39.99309, -91.23889)",8.552433567375825,55519.0,9027_0_no,39.89282878447181,-91.3335709490231,10.0
62359,40.03239,-91.20851,Paloma,IL,Illinois,True,,174.0,19.2,17001,Adams,"{""17001"": 100}",Adams,17001,False,False,America/Chicago,"(40.03239, -91.20851)",11.698117345645988,55519.0,9027_0_no,39.89282878447181,-91.3335709490231,10.0
62360,39.81731,-91.26143,Payson,IL,Illinois,True,,1949.0,20.2,17001,Adams,"{""17001"": 100}",Adams,17001,False,False,America/Chicago,"(39.81731, -91.26143)",6.47050264323453,55519.0,9027_0_no,39.89282878447181,-91.3335709490231,10.0
62365,39.79559,-91.16018,Plainville,IL,Illinois,True,,549.0,7.7,17001,Adams,"{""17001"": 100}",Adams,17001,False,False,America/Chicago,"(39.79559, -91.16018)",11.39064371966666,55519.0,9027_0_no,39.89282878447181,-91.3335709490231,10.0
63471,39.92511,-91.50652,Taylor,MO,Missouri,True,,982.0,8.2,29127,Marion,"{""29127"": 77.73, ""29111"": 22.27}",Marion|Lewis,29127|29111,False,False,America/Chicago,"(39.92511, -91.50652)",9.433610798683514,55519.0,9027_0_no,39.89282878447181,-91.3335709490231,10.0
