zip,lat,lng,city,state_id,state_name,zcta,parent_zcta,population,density,county_fips,county_name,county_weights,county_names_all,county_fips_all,imprecise,military,timezone,Coord,distance_miles,market_total_population,market_id,market_center_lat,market_center_lng,radius_miles
63438,39.96084,-91.68828,Durham,MO,Missouri,True,,322.0,9.4,29111,Lewis,"{""29111"": 67.35, ""29127"": 32.65}",Lewis|Marion,29111|29127,False,False,America/Chicago,"(39.96084, -91.68828)",4.795851623583172,10223.0,9028_0_no,39.89343938123357,-91.70990704557994,10.0
63439,39.80382,-91.85963,Emden,MO,Missouri,True,,203.0,3.6,29205,Shelby,"{""29205"": 72.32, ""29127"": 27.68}",Shelby|Marion,29205|29127,False,False,America/Chicago,"(39.80382, -91.85963)",10.070761630757556,10223.0,9028_0_no,39.89343938123357,-91.70990704557994,10.0
63440,39.97551,-91.75376,Ewing,MO,Missouri,True,,1121.0,5.0,29111,Lewis,"{""29111"": 72.07, ""29127"": 25.61, ""29205"": 2.32}",Lewis|Marion|Shelby,29111|29127|29205,False,False,America/Chicago,"(39.97551, -91.75376)",6.128030026629701,10223.0,9028_0_no,39.89343938123357,-91.70990704557994,10.0
63448,40.02168,-91.55416,La Grange,MO,Missouri,True,,1466.0,11.4,29111,Lewis,"{""29111"": 100}",Lewis,29111,False,False,America/Chicago,"(40.02168, -91.55416)",12.105751074566243,10223.0,9028_0_no,39.89343938123357,-91.70990704557994,10.0
63454,39.92389,-91.64897,Maywood,MO,Missouri,True,,1019.0,9.4,29127,Marion,"{""29127"": 71.65, ""29111"": 28.35}",Marion|Lewis,29127|29111,False,False,America/Chicago,"(39.92389, -91.64897)",3.8544811878507703,10223.0,9028_0_no,39.89343938123357,-91.70990704557994,10.0
63461,39.79757,-91.55577,Palmyra,MO,Missouri,True,,5395.0,13.4,29127,Marion,"{""29127"": 100}",Marion,29127,False,False,America/Chicago,"(39.79757, -91.55577)",10.523062684127007,10223.0,9028_0_no,39.89343938123357,-91.70990704557994,10.0
63463,39.84533,-91.75976,Philadelphia,MO,Missouri,True,,697.0,5.8,29127,Marion,"{""29127"": 100}",Marion,29127,False,False,America/Chicago,"(39.84533, -91.75976)",4.247157088144127,10223.0,9028_0_no,39.89343938123357,-91.70990704557994,10.0
