zip,lat,lng,city,state_id,state_name,zcta,parent_zcta,population,density,county_fips,county_name,county_weights,county_names_all,county_fips_all,imprecise,military,timezone,Coord,distance_miles,market_total_population,market_id,market_center_lat,market_center_lng,radius_miles
62301,39.93139,-91.38741,Quincy,IL,Illinois,True,,31744.0,1097.2,17001,Adams,"{""17001"": 100}",Adams,17001,False,False,America/Chicago,"(39.93139, -91.38741)",7.563344611145459,57311.0,9039_0_yes,40.0375759821092,-91.42211785494275,10.0
62305,39.92915,-91.34441,Quincy,IL,Illinois,True,,19016.0,52.7,17001,Adams,"{""17001"": 100}",Adams,17001,False,False,America/Chicago,"(39.92915, -91.34441)",8.546791781439993,57311.0,9039_0_yes,40.0375759821092,-91.42211785494275,10.0
62338,39.99309,-91.23889,Fowler,IL,Illinois,True,,1105.0,12.3,17001,Adams,"{""17001"": 100}",Adams,17001,False,False,America/Chicago,"(39.99309, -91.23889)",10.171355021211802,57311.0,9039_0_yes,40.0375759821092,-91.42211785494275,10.0
62351,40.11374,-91.26751,Mendon,IL,Illinois,True,,1933.0,10.2,17001,Adams,"{""17001"": 95.14, ""17067"": 4.86}",Adams|Hancock,17001|17067,False,False,America/Chicago,"(40.11374, -91.26751)",9.721583386410472,57311.0,9039_0_yes,40.0375759821092,-91.42211785494275,10.0
62376,40.1148,-91.40662,Ursa,IL,Illinois,True,,1065.0,6.5,17001,Adams,"{""17001"": 100}",Adams,17001,False,False,America/Chicago,"(40.1148, -91.40662)",5.39821702035448,57311.0,9039_0_yes,40.0375759821092,-91.42211785494275,10.0
63448,40.02168,-91.55416,La Grange,MO,Missouri,True,,1466.0,11.4,29111,Lewis,"{""29111"": 100}",Lewis,29111,False,False,America/Chicago,"(40.02168, -91.55416)",7.071586938531898,57311.0,9039_0_yes,40.0375759821092,-91.42211785494275,10.0
63471,39.92511,-91.50652,Taylor,MO,Missouri,True,,982.0,8.2,29127,Marion,"{""29127"": 77.73, ""29111"": 22.27}",Marion|Lewis,29127|29111,False,False,America/Chicago,"(39.92511, -91.50652)",8.963855600063196,57311.0,9039_0_yes,40.0375759821092,-91.42211785494275,10.0
