zip,lat,lng,city,state_id,state_name,zcta,parent_zcta,population,density,county_fips,county_name,county_weights,county_names_all,county_fips_all,imprecise,military,timezone,Coord,distance_miles,market_total_population,market_id,market_center_lat,market_center_lng,radius_miles
66935,39.82694,-97.63538,Belleville,KS,Kansas,True,,2239.0,7.0,20157,Republic,"{""20157"": 100}",Republic,20157,False,False,America/Chicago,"(39.82694, -97.63538)",7.340642555526715,4329.0,9044_0_no,39.90321071653948,-97.73173886294347,10.0
66939,39.85179,-97.89754,Courtland,KS,Kansas,True,,483.0,1.7,20157,Republic,"{""20157"": 82.51, ""20089"": 17.49}",Republic|Jewell,20157|20089,False,False,America/Chicago,"(39.85179, -97.89754)",9.48211097969003,4329.0,9044_0_no,39.90321071653948,-97.73173886294347,10.0
66964,39.93465,-97.80004,Republic,KS,Kansas,True,,117.0,0.9,20157,Republic,"{""20157"": 100}",Republic,20157,False,False,America/Chicago,"(39.93465, -97.80004)",4.221199641547588,4329.0,9044_0_no,39.90321071653948,-97.73173886294347,10.0
66966,39.7793,-97.76206,Scandia,KS,Kansas,True,,695.0,2.9,20157,Republic,"{""20157"": 100}",Republic,20157,False,False,America/Chicago,"(39.7793, -97.76206)",8.71122021767788,4329.0,9044_0_no,39.90321071653948,-97.73173886294347,10.0
68325,40.0131,-97.75156,Byron,NE,Nebraska,True,,150.0,1.2,31169,Thayer,"{""31169"": 55.18, ""20157"": 44.82}",Thayer|Republic,31169|20157,False,False,America/Chicago,"(40.0131, -97.75156)",7.664851240238692,4329.0,9044_0_no,39.90321071653948,-97.73173886294347,10.0
68327,40.01079,-97.62113,Chester,NE,Nebraska,True,,357.0,2.9,31169,Thayer,"{""31169"": 66.07, ""20157"": 33.93}",Thayer|Republic,31169|20157,False,False,America/Chicago,"(40.01079, -97.62113)",9.463964916292316,4329.0,9044_0_no,39.90321071653948,-97.73173886294347,10.0
68943,40.03916,-97.88589,Hardy,NE,Nebraska,True,,288.0,1.9,31129,Nuckolls,"{""31129"": 84.06, ""20157"": 11.82, ""31169"": 4.12}",Nuckolls|Republic|Thayer,31129|20157|31169,False,False,America/Chicago,"(40.03916, -97.88589)",12.444183578624218,4329.0,9044_0_no,39.90321071653948,-97.73173886294347,10.0
