zip,lat,lng,city,state_id,state_name,zcta,parent_zcta,population,density,county_fips,county_name,county_weights,county_names_all,county_fips_all,imprecise,military,timezone,Coord,distance_miles,market_total_population,market_id,market_center_lat,market_center_lng,radius_miles
84606,40.2149,-111.62619,Provo,UT,Utah,True,,37351.0,1245.7,49049,Utah,"{""49049"": 100}",Utah,49049,False,False,America/Denver,"(40.2149, -111.62619)",13.263716987784706,88883.0,9093_0_yes,40.070735728782665,-111.792012123832,10.0
84633,39.94026,-111.89281,Goshen,UT,Utah,True,,1032.0,16.0,49049,Utah,"{""49049"": 100}",Utah,49049,False,False,America/Denver,"(39.94026, -111.89281)",10.475164832186659,88883.0,9093_0_yes,40.070735728782665,-111.792012123832,10.0
84651,39.95633,-111.69342,Payson,UT,Utah,True,,27142.0,82.7,49049,Utah,"{""49049"": 100}",Utah,49049,False,False,America/Denver,"(39.95633, -111.69342)",9.471236584269713,88883.0,9093_0_yes,40.070735728782665,-111.792012123832,10.0
84653,40.04803,-111.66804,Salem,UT,Utah,True,,9481.0,228.0,49049,Utah,"{""49049"": 100}",Utah,49049,False,False,America/Denver,"(40.04803, -111.66804)",6.741056948068325,88883.0,9093_0_yes,40.070735728782665,-111.792012123832,10.0
84655,39.97427,-111.80716,Santaquin,UT,Utah,True,,13877.0,115.8,49049,Utah,"{""49049"": 100}",Utah,49049,False,False,America/Denver,"(39.97427, -111.80716)",6.713164214611148,88883.0,9093_0_yes,40.070735728782665,-111.792012123832,10.0
