zip,lat,lng,city,state_id,state_name,zcta,parent_zcta,population,density,county_fips,county_name,county_weights,county_names_all,county_fips_all,imprecise,military,timezone,Coord,distance_miles,market_total_population,market_id,market_center_lat,market_center_lng,radius_miles
47320,40.2787,-85.2672,Albany,IN,Indiana,True,,3879.0,45.9,18035,Delaware,"{""18035"": 94.43, ""18135"": 4.96, ""18075"": 0.61}",Delaware|Randolph|Jay,18035|18135|18075,False,False,America/Indiana/Indianapolis,"(40.2787, -85.2672)",9.779282875588125,23771.0,9167_0_no,40.17228052471408,-85.14498158666753,10.0
47340,40.181,-85.1318,Farmland,IN,Indiana,True,,3175.0,23.0,18135,Randolph,"{""18135"": 100}",Randolph,18135,False,False,America/Indiana/Indianapolis,"(40.181, -85.1318)",0.9204337655507252,23771.0,9167_0_no,40.17228052471408,-85.14498158666753,10.0
47354,40.04628,-85.19933,Losantville,IN,Indiana,True,,1241.0,16.5,18135,Randolph,"{""18135"": 56.83, ""18065"": 22.87, ""18035"": 14.29, ""18177"": 6.01}",Randolph|Henry|Delaware|Wayne,18135|18065|18035|18177,False,False,America/Indiana/Indianapolis,"(40.04628, -85.19933)",9.167296426115573,23771.0,9167_0_no,40.17228052471408,-85.14498158666753,10.0
47358,40.05488,-85.11204,Modoc,IN,Indiana,True,,985.0,10.1,18135,Randolph,"{""18135"": 93.57, ""18177"": 6.43}",Randolph|Wayne,18135|18177,False,False,America/Indiana/Indianapolis,"(40.05488, -85.11204)",8.296262452709554,23771.0,9167_0_no,40.17228052471408,-85.14498158666753,10.0
47368,40.18082,-85.20025,Parker City,IN,Indiana,True,,2230.0,24.5,18135,Randolph,"{""18135"": 76.67, ""18035"": 23.33}",Randolph|Delaware,18135|18035,False,False,America/Indiana/Indianapolis,"(40.18082, -85.20025)",2.9767635693974452,23771.0,9167_0_no,40.17228052471408,-85.14498158666753,10.0
47380,40.28553,-85.03439,Ridgeville,IN,Indiana,True,,1485.0,9.3,18135,Randolph,"{""18135"": 88.63, ""18075"": 11.37}",Randolph|Jay,18135|18075,False,False,America/Indiana/Indianapolis,"(40.28553, -85.03439)",9.760147504423859,23771.0,9167_0_no,40.17228052471408,-85.14498158666753,10.0
47383,40.15123,-85.26399,Selma,IN,Indiana,True,,2953.0,35.7,18035,Delaware,"{""18035"": 100}",Delaware,18035,False,False,America/Indiana/Indianapolis,"(40.15123, -85.26399)",6.450127926782525,23771.0,9167_0_no,40.17228052471408,-85.14498158666753,10.0
47394,40.1679,-84.98667,Winchester,IN,Indiana,True,,7823.0,24.7,18135,Randolph,"{""18135"": 100}",Randolph,18135,False,False,America/Indiana/Indianapolis,"(40.1679, -84.98667)",8.363783041289764,23771.0,9167_0_no,40.17228052471408,-85.14498158666753,10.0
