zip,lat,lng,city,state_id,state_name,zcta,parent_zcta,population,density,county_fips,county_name,county_weights,county_names_all,county_fips_all,imprecise,military,timezone,Coord,distance_miles,market_total_population,market_id,market_center_lat,market_center_lng,radius_miles
43009,40.17188,-83.64234,Cable,OH,Ohio,True,,2226.0,25.4,39021,Champaign,"{""39021"": 100}",Champaign,39021,False,False,America/New_York,"(40.17188, -83.64234)",10.391330642122371,36053.0,9175_0_yes,40.31448878026723,-83.70491638396442,10.0
43060,40.21978,-83.57295,North Lewisburg,OH,Ohio,True,,2758.0,40.8,39021,Champaign,"{""39021"": 69.14, ""39091"": 21.79, ""39159"": 9.07}",Champaign|Logan|Union,39021|39091|39159,False,False,America/New_York,"(40.21978, -83.57295)",9.551233123235582,36053.0,9175_0_yes,40.31448878026723,-83.70491638396442,10.0
43311,40.36427,-83.75812,Bellefontaine,OH,Ohio,True,,18753.0,69.7,39091,Logan,"{""39091"": 100}",Logan,39091,False,False,America/New_York,"(40.36427, -83.75812)",4.436378359271208,36053.0,9175_0_yes,40.31448878026723,-83.70491638396442,10.0
43319,40.30525,-83.57738,East Liberty,OH,Ohio,True,,930.0,19.1,39091,Logan,"{""39091"": 99.16, ""39159"": 0.84}",Logan|Union,39091|39159,False,False,America/New_York,"(40.30525, -83.57738)",6.749845457228508,36053.0,9175_0_yes,40.31448878026723,-83.70491638396442,10.0
43324,40.44632,-83.81207,Huntsville,OH,Ohio,True,,2783.0,37.5,39091,Logan,"{""39091"": 100}",Logan,39091,False,False,America/New_York,"(40.44632, -83.81207)",10.713302789363372,36053.0,9175_0_yes,40.31448878026723,-83.70491638396442,10.0
43357,40.25316,-83.74711,West Liberty,OH,Ohio,True,,4123.0,23.4,39091,Logan,"{""39091"": 56.26, ""39021"": 43.74}",Logan|Champaign,39091|39021,False,False,America/New_York,"(40.25316, -83.74711)",4.78556109217285,36053.0,9175_0_yes,40.31448878026723,-83.70491638396442,10.0
43358,40.41898,-83.53129,West Mansfield,OH,Ohio,True,,2838.0,18.0,39159,Union,"{""39159"": 51.7, ""39091"": 48.3}",Union|Logan,39159|39091,False,False,America/New_York,"(40.41898, -83.53129)",11.647648268234763,36053.0,9175_0_yes,40.31448878026723,-83.70491638396442,10.0
43360,40.33272,-83.63114,Zanesfield,OH,Ohio,True,,1642.0,21.0,39091,Logan,"{""39091"": 100}",Logan,39091,False,False,America/New_York,"(40.33272, -83.63114)",4.085361319646894,36053.0,9175_0_yes,40.31448878026723,-83.70491638396442,10.0
