zip,lat,lng,city,state_id,state_name,zcta,parent_zcta,population,density,county_fips,county_name,county_weights,county_names_all,county_fips_all,imprecise,military,timezone,Coord,distance_miles,market_total_population,market_id,market_center_lat,market_center_lng,radius_miles
07001,40.58342,-74.26992,Avenel,NJ,New Jersey,True,,17539.0,1814.0,34023,Middlesex,"{""34023"": 100}",Middlesex,34023,False,False,America/New_York,"(40.58342, -74.26992)",10.520245962298869,1041121.0,9295_0_no,40.44404330737761,-74.35055051035023,10.0
07008,40.58489,-74.2284,Carteret,NJ,New Jersey,True,,23501.0,2063.6,34023,Middlesex,"{""34023"": 100}",Middlesex,34023,False,False,America/New_York,"(40.58489, -74.2284)",11.65642789556021,1041121.0,9295_0_no,40.44404330737761,-74.35055051035023,10.0
07064,40.56865,-74.2464,Port Reading,NJ,New Jersey,True,,3973.0,1163.2,34023,Middlesex,"{""34023"": 100}",Middlesex,34023,False,False,America/New_York,"(40.56865, -74.2464)",10.200993395815487,1041121.0,9295_0_no,40.44404330737761,-74.35055051035023,10.0
07077,40.55415,-74.25489,Sewaren,NJ,New Jersey,True,,2708.0,677.9,34023,Middlesex,"{""34023"": 100}",Middlesex,34023,False,False,America/New_York,"(40.55415, -74.25489)",9.117935712022343,1041121.0,9295_0_no,40.44404330737761,-74.35055051035023,10.0
07080,40.57483,-74.41542,South Plainfield,NJ,New Jersey,True,,23961.0,1125.3,34023,Middlesex,"{""34023"": 100}",Middlesex,34023,False,False,America/New_York,"(40.57483, -74.41542)",9.657677901193592,1041121.0,9295_0_no,40.44404330737761,-74.35055051035023,10.0
07095,40.55358,-74.28743,Woodbridge,NJ,New Jersey,True,,20297.0,1700.7,34023,Middlesex,"{""34023"": 100}",Middlesex,34023,False,False,America/New_York,"(40.55358, -74.28743)",8.26297748755238,1041121.0,9295_0_no,40.44404330737761,-74.35055051035023,10.0
07721,40.43556,-74.23555,Cliffwood,NJ,New Jersey,True,,3337.0,1412.9,34025,Monmouth,"{""34025"": 88.95, ""34023"": 11.05}",Monmouth|Middlesex,34025|34023,False,False,America/New_York,"(40.43556, -74.23555)",6.075774448316868,1041121.0,9295_0_no,40.44404330737761,-74.35055051035023,10.0
07730,40.42611,-74.17422,Hazlet,NJ,New Jersey,True,,16664.0,1238.2,34025,Monmouth,"{""34025"": 100}",Monmouth,34025,False,False,America/New_York,"(40.42611, -74.17422)",9.35561083260383,1041121.0,9295_0_no,40.44404330737761,-74.35055051035023,10.0
07733,40.37683,-74.17259,Holmdel,NJ,New Jersey,True,,16530.0,359.1,34025,Monmouth,"{""34025"": 100}",Monmouth,34025,False,False,America/New_York,"(40.37683, -74.17259)",10.45084652909806,1041121.0,9295_0_no,40.44404330737761,-74.35055051035023,10.0
07735,40.44108,-74.2028,Keyport,NJ,New Jersey,True,,18530.0,1473.6,34025,Monmouth,"{""34025"": 84.12, ""34023"": 15.88}",Monmouth|Middlesex,34025|34023,False,False,America/New_York,"(40.44108, -74.2028)",7.772010145772178,1041121.0,9295_0_no,40.44404330737761,-74.35055051035023,10.0
07746,40.31675,-74.25029,Marlboro,NJ,New Jersey,True,,18164.0,566.7,34025,Monmouth,"{""34025"": 100}",Monmouth,34025,False,False,America/New_York,"(40.31675, -74.25029)",10.256739233206712,1041121.0,9295_0_no,40.44404330737761,-74.35055051035023,10.0
07747,40.41312,-74.2521,Matawan,NJ,New Jersey,True,,31402.0,947.9,34023,Middlesex,"{""34023"": 53.76, ""34025"": 46.24}",Middlesex|Monmouth,34023|34025,False,False,America/New_York,"(40.41312, -74.2521)",5.601491996928077,1041121.0,9295_0_no,40.44404330737761,-74.35055051035023,10.0
07751,40.36191,-74.25821,Morganville,NJ,New Jersey,True,,19851.0,460.6,34025,Monmouth,"{""34025"": 100}",Monmouth,34025,False,False,America/New_York,"(40.36191, -74.25821)",7.470548311400768,1041121.0,9295_0_no,40.44404330737761,-74.35055051035023,10.0
08512,40.32166,-74.52586,Cranbury,NJ,New Jersey,True,,10880.0,184.2,34023,Middlesex,"{""34023"": 93.42, ""34021"": 6.58}",Middlesex|Mercer,34023|34021,False,False,America/New_York,"(40.32166, -74.52586)",12.515311623240368,1041121.0,9295_0_no,40.44404330737761,-74.35055051035023,10.0
08805,40.57165,-74.53783,Bound Brook,NJ,New Jersey,True,,12100.0,1589.3,34035,Somerset,"{""34035"": 100}",Somerset,34035,False,False,America/New_York,"(40.57165, -74.53783)",13.210917099268782,1041121.0,9295_0_no,40.44404330737761,-74.35055051035023,10.0
08810,40.37073,-74.49641,Dayton,NJ,New Jersey,True,,8774.0,614.1,34023,Middlesex,"{""34023"": 100}",Middlesex,34023,False,False,America/New_York,"(40.37073, -74.49641)",9.194970285496613,1041121.0,9295_0_no,40.44404330737761,-74.35055051035023,10.0
08816,40.42943,-74.41602,East Brunswick,NJ,New Jersey,True,,47323.0,903.0,34023,Middlesex,"{""34023"": 100}",Middlesex,34023,False,False,America/New_York,"(40.42943, -74.41602)",3.5879435851664714,1041121.0,9295_0_no,40.44404330737761,-74.35055051035023,10.0
08817,40.51559,-74.3939,Edison,NJ,New Jersey,True,,44582.0,1621.5,34023,Middlesex,"{""34023"": 100}",Middlesex,34023,False,False,America/New_York,"(40.51559, -74.3939)",5.443121393293485,1041121.0,9295_0_no,40.44404330737761,-74.35055051035023,10.0
08820,40.57725,-74.36599,Edison,NJ,New Jersey,True,,37295.0,1380.5,34023,Middlesex,"{""34023"": 100}",Middlesex,34023,False,False,America/New_York,"(40.57725, -74.36599)",9.239372151203009,1041121.0,9295_0_no,40.44404330737761,-74.35055051035023,10.0
08828,40.37767,-74.42383,Helmetta,NJ,New Jersey,True,,2232.0,1040.4,34023,Middlesex,"{""34023"": 100}",Middlesex,34023,False,False,America/New_York,"(40.37767, -74.42383)",5.991090194373719,1041121.0,9295_0_no,40.44404330737761,-74.35055051035023,10.0
08830,40.56964,-74.31719,Iselin,NJ,New Jersey,True,,17343.0,2117.8,34023,Middlesex,"{""34023"": 100}",Middlesex,34023,False,False,America/New_York,"(40.56964, -74.31719)",8.853104739303719,1041121.0,9295_0_no,40.44404330737761,-74.35055051035023,10.0
08831,40.32908,-74.43066,Monroe Township,NJ,New Jersey,True,,51245.0,385.7,34023,Middlesex,"{""34023"": 100}",Middlesex,34023,False,False,America/New_York,"(40.32908, -74.43066)",8.992722805991933,1041121.0,9295_0_no,40.44404330737761,-74.35055051035023,10.0
08832,40.51138,-74.31387,Keasbey,NJ,New Jersey,True,,2825.0,501.9,34023,Middlesex,"{""34023"": 100}",Middlesex,34023,False,False,America/New_York,"(40.51138, -74.31387)",5.03610686546549,1041121.0,9295_0_no,40.44404330737761,-74.35055051035023,10.0
08837,40.51432,-74.34477,Edison,NJ,New Jersey,True,,17999.0,760.6,34023,Middlesex,"{""34023"": 100}",Middlesex,34023,False,False,America/New_York,"(40.51432, -74.34477)",4.865151283864939,1041121.0,9295_0_no,40.44404330737761,-74.35055051035023,10.0
08840,40.54361,-74.35856,Metuchen,NJ,New Jersey,True,,16792.0,2021.3,34023,Middlesex,"{""34023"": 100}",Middlesex,34023,False,False,America/New_York,"(40.54361, -74.35856)",6.892263985378933,1041121.0,9295_0_no,40.44404330737761,-74.35055051035023,10.0
08846,40.57439,-74.5011,Middlesex,NJ,New Jersey,True,,13606.0,1506.0,34023,Middlesex,"{""34023"": 100}",Middlesex,34023,False,False,America/New_York,"(40.57439, -74.5011)",11.98567057418715,1041121.0,9295_0_no,40.44404330737761,-74.35055051035023,10.0
08850,40.44826,-74.43994,Milltown,NJ,New Jersey,True,,8420.0,1410.3,34023,Middlesex,"{""34023"": 100}",Middlesex,34023,False,False,America/New_York,"(40.44826, -74.43994)",4.709227179479967,1041121.0,9295_0_no,40.44404330737761,-74.35055051035023,10.0
08854,40.54648,-74.46342,Piscataway,NJ,New Jersey,True,,56948.0,1161.6,34023,Middlesex,"{""34023"": 100}",Middlesex,34023,False,False,America/New_York,"(40.54648, -74.46342)",9.233869587111343,1041121.0,9295_0_no,40.44404330737761,-74.35055051035023,10.0
08857,40.39188,-74.33059,Old Bridge,NJ,New Jersey,True,,39601.0,635.8,34023,Middlesex,"{""34023"": 100}",Middlesex,34023,False,False,America/New_York,"(40.39188, -74.33059)",3.753972281546899,1041121.0,9295_0_no,40.44404330737761,-74.35055051035023,10.0
08859,40.45897,-74.30401,Parlin,NJ,New Jersey,True,,22383.0,1817.2,34023,Middlesex,"{""34023"": 100}",Middlesex,34023,False,False,America/New_York,"(40.45897, -74.30401)",2.6554229849824416,1041121.0,9295_0_no,40.44404330737761,-74.35055051035023,10.0
08861,40.52087,-74.27397,Perth Amboy,NJ,New Jersey,True,,53899.0,4081.3,34023,Middlesex,"{""34023"": 100}",Middlesex,34023,False,False,America/New_York,"(40.52087, -74.27397)",6.661376187226208,1041121.0,9295_0_no,40.44404330737761,-74.35055051035023,10.0
08863,40.53733,-74.31216,Fords,NJ,New Jersey,True,,12509.0,2821.3,34023,Middlesex,"{""34023"": 100}",Middlesex,34023,False,False,America/New_York,"(40.53733, -74.31216)",6.753802245177915,1041121.0,9295_0_no,40.44404330737761,-74.35055051035023,10.0
08872,40.46482,-74.34002,Sayreville,NJ,New Jersey,True,,19627.0,801.0,34023,Middlesex,"{""34023"": 100}",Middlesex,34023,False,False,America/New_York,"(40.46482, -74.34002)",1.5385934913724948,1041121.0,9295_0_no,40.44404330737761,-74.35055051035023,10.0
08873,40.49865,-74.53284,Somerset,NJ,New Jersey,True,,54416.0,653.9,34035,Somerset,"{""34035"": 100}",Somerset,34035,False,False,America/New_York,"(40.49865, -74.53284)",10.297501221675226,1041121.0,9295_0_no,40.44404330737761,-74.35055051035023,10.0
08879,40.46532,-74.27691,South Amboy,NJ,New Jersey,True,,23183.0,1263.9,34023,Middlesex,"{""34023"": 100}",Middlesex,34023,False,False,America/New_York,"(40.46532, -74.27691)",4.141320196136292,1041121.0,9295_0_no,40.44404330737761,-74.35055051035023,10.0
08880,40.55354,-74.52771,South Bound Brook,NJ,New Jersey,True,,4541.0,2714.9,34035,Somerset,"{""34035"": 100}",Somerset,34035,False,False,America/New_York,"(40.55354, -74.52771)",11.994781490464625,1041121.0,9295_0_no,40.44404330737761,-74.35055051035023,10.0
08882,40.44556,-74.37842,South River,NJ,New Jersey,True,,15783.0,2176.3,34023,Middlesex,"{""34023"": 100}",Middlesex,34023,False,False,America/New_York,"(40.44556, -74.37842)",1.4691826707660929,1041121.0,9295_0_no,40.44404330737761,-74.35055051035023,10.0
08884,40.39493,-74.39196,Spotswood,NJ,New Jersey,True,,8255.0,1379.6,34023,Middlesex,"{""34023"": 100}",Middlesex,34023,False,False,America/New_York,"(40.39493, -74.39196)",4.032352395047296,1041121.0,9295_0_no,40.44404330737761,-74.35055051035023,10.0
08901,40.48426,-74.44275,New Brunswick,NJ,New Jersey,True,,57607.0,3549.3,34023,Middlesex,"{""34023"": 100}",Middlesex,34023,False,False,America/New_York,"(40.48426, -74.44275)",5.586711044605604,1041121.0,9295_0_no,40.44404330737761,-74.35055051035023,10.0
08902,40.44236,-74.48579,North Brunswick,NJ,New Jersey,True,,40630.0,1191.1,34023,Middlesex,"{""34023"": 100}",Middlesex,34023,False,False,America/New_York,"(40.44236, -74.48579)",7.112316724032572,1041121.0,9295_0_no,40.44404330737761,-74.35055051035023,10.0
08904,40.50057,-74.42832,Highland Park,NJ,New Jersey,True,,13803.0,2926.5,34023,Middlesex,"{""34023"": 100}",Middlesex,34023,False,False,America/New_York,"(40.50057, -74.42832)",5.653541225343347,1041121.0,9295_0_no,40.44404330737761,-74.35055051035023,10.0
10307,40.50817,-74.24254,Staten Island,NY,New York,True,,15053.0,3601.9,36085,Richmond,"{""36085"": 100}",Richmond,36085,False,False,America/New_York,"(40.50817, -74.24254)",7.201202716960961,1041121.0,9295_0_no,40.44404330737761,-74.35055051035023,10.0
10309,40.53001,-74.21912,Staten Island,NY,New York,True,,33896.0,1804.1,36085,Richmond,"{""36085"": 100}",Richmond,36085,False,False,America/New_York,"(40.53001, -74.21912)",9.109395373163293,1041121.0,9295_0_no,40.44404330737761,-74.35055051035023,10.0
10312,40.54489,-74.18084,Staten Island,NY,New York,True,,61114.0,3433.8,36085,Richmond,"{""36085"": 100}",Richmond,36085,False,False,America/New_York,"(40.54489, -74.18084)",11.316649591760513,1041121.0,9295_0_no,40.44404330737761,-74.35055051035023,10.0
