zip,lat,lng,city,state_id,state_name,zcta,parent_zcta,population,density,county_fips,county_name,county_weights,county_names_all,county_fips_all,imprecise,military,timezone,Coord,distance_miles,market_total_population,market_id,market_center_lat,market_center_lng,radius_miles
16611,40.56719,-78.10214,Alexandria,PA,Pennsylvania,True,,2624.0,22.4,42061,Huntingdon,"{""42061"": 100}",Huntingdon,42061,False,False,America/New_York,"(40.56719, -78.10214)",8.381210666242854,30938.0,9305_0_no,40.450269444487645,-78.14463532149877,10.0
16622,40.32853,-78.0692,Calvin,PA,Pennsylvania,True,,132.0,7.1,42061,Huntingdon,"{""42061"": 100}",Huntingdon,42061,False,False,America/New_York,"(40.32853, -78.0692)",9.301132249209381,30938.0,9305_0_no,40.450269444487645,-78.14463532149877,10.0
16638,40.33809,-78.2012,Entriken,PA,Pennsylvania,True,,40.0,16.5,42061,Huntingdon,"{""42061"": 100}",Huntingdon,42061,False,False,America/New_York,"(40.33809, -78.2012)",8.302747484684334,30938.0,9305_0_no,40.450269444487645,-78.14463532149877,10.0
16647,40.39514,-78.09798,Hesston,PA,Pennsylvania,True,,765.0,11.6,42061,Huntingdon,"{""42061"": 100}",Huntingdon,42061,False,False,America/New_York,"(40.39514, -78.09798)",4.53116490872256,30938.0,9305_0_no,40.450269444487645,-78.14463532149877,10.0
16648,40.44231,-78.33242,Hollidaysburg,PA,Pennsylvania,True,,14374.0,92.4,42013,Blair,"{""42013"": 100}",Blair,42013,False,False,America/New_York,"(40.44231, -78.33242)",9.889224303438109,30938.0,9305_0_no,40.450269444487645,-78.14463532149877,10.0
16657,40.32486,-78.17757,James Creek,PA,Pennsylvania,True,,1397.0,10.9,42061,Huntingdon,"{""42061"": 98.09, ""42009"": 1.91}",Huntingdon|Bedford,42061|42009,False,False,America/New_York,"(40.32486, -78.17757)",8.836618233274566,30938.0,9305_0_no,40.450269444487645,-78.14463532149877,10.0
16662,40.30635,-78.29961,Martinsburg,PA,Pennsylvania,True,,5967.0,42.8,42013,Blair,"{""42013"": 84.95, ""42009"": 15.05}",Blair|Bedford,42013|42009,False,False,America/New_York,"(40.30635, -78.29961)",12.8614527649738,30938.0,9305_0_no,40.450269444487645,-78.14463532149877,10.0
16693,40.46519,-78.21593,Williamsburg,PA,Pennsylvania,True,,4066.0,20.3,42013,Blair,"{""42013"": 100}",Blair,42013,False,False,America/New_York,"(40.46519, -78.21593)",3.8873043914024596,30938.0,9305_0_no,40.450269444487645,-78.14463532149877,10.0
17052,40.31577,-77.98195,Mapleton Depot,PA,Pennsylvania,True,,1573.0,14.8,42061,Huntingdon,"{""42061"": 100}",Huntingdon,42061,False,False,America/New_York,"(40.31577, -77.98195)",12.636130813517632,30938.0,9305_0_no,40.450269444487645,-78.14463532149877,10.0
