zip,lat,lng,city,state_id,state_name,zcta,parent_zcta,population,density,county_fips,county_name,county_weights,county_names_all,county_fips_all,imprecise,military,timezone,Coord,distance_miles,market_total_population,market_id,market_center_lat,market_center_lng,radius_miles
08802,40.6783,-75.02515,Asbury,NJ,New Jersey,True,,4299.0,67.8,34019,Hunterdon,"{""34019"": 57.93, ""34041"": 42.07}",Hunterdon|Warren,34019|34041,False,False,America/New_York,"(40.6783, -75.02515)",9.403660749807287,209698.0,9309_0_yes,40.5898831358768,-75.16149380466824,10.0
08804,40.64412,-75.09936,Bloomsbury,NJ,New Jersey,True,,2579.0,70.8,34019,Hunterdon,"{""34019"": 60.14, ""34041"": 39.86}",Hunterdon|Warren,34019|34041,False,False,America/New_York,"(40.64412, -75.09936)",4.966139084373887,209698.0,9309_0_yes,40.5898831358768,-75.16149380466824,10.0
08825,40.51353,-75.02341,Frenchtown,NJ,New Jersey,True,,4040.0,53.9,34019,Hunterdon,"{""34019"": 100}",Hunterdon,34019,False,False,America/New_York,"(40.51353, -75.02341)",8.965584902574644,209698.0,9309_0_yes,40.5898831358768,-75.16149380466824,10.0
08827,40.66775,-74.97351,Hampton,NJ,New Jersey,True,,3914.0,83.5,34019,Hunterdon,"{""34019"": 90.27, ""34041"": 9.73}",Hunterdon|Warren,34019|34041,False,False,America/New_York,"(40.66775, -74.97351)",11.23011898340996,209698.0,9309_0_yes,40.5898831358768,-75.16149380466824,10.0
08848,40.59386,-75.09569,Milford,NJ,New Jersey,True,,8857.0,104.5,34019,Hunterdon,"{""34019"": 100}",Hunterdon,34019,False,False,America/New_York,"(40.59386, -75.09569)",3.463446996318043,209698.0,9309_0_yes,40.5898831358768,-75.16149380466824,10.0
08865,40.7094,-75.15109,Phillipsburg,NJ,New Jersey,True,,29142.0,271.3,34041,Warren,"{""34041"": 100}",Warren,34041,False,False,America/New_York,"(40.7094, -75.15109)",8.275819008562854,209698.0,9309_0_yes,40.5898831358768,-75.16149380466824,10.0
08886,40.69302,-75.10565,Stewartsville,NJ,New Jersey,True,,7143.0,178.4,34041,Warren,"{""34041"": 100}",Warren,34041,False,False,America/New_York,"(40.69302, -75.10565)",7.704084159093016,209698.0,9309_0_yes,40.5898831358768,-75.16149380466824,10.0
18020,40.67267,-75.32692,Bethlehem,PA,Pennsylvania,True,,21196.0,628.6,42095,Northampton,"{""42095"": 100}",Northampton,42095,False,False,America/New_York,"(40.67267, -75.32692)",10.390486162496996,209698.0,9309_0_yes,40.5898831358768,-75.16149380466824,10.0
18042,40.6497,-75.22376,Easton,PA,Pennsylvania,True,,42387.0,740.1,42095,Northampton,"{""42095"": 99.3, ""42017"": 0.7}",Northampton|Bucks,42095|42017,False,False,America/New_York,"(40.6497, -75.22376)",5.267366859295219,209698.0,9309_0_yes,40.5898831358768,-75.16149380466824,10.0
18045,40.6919,-75.27494,Easton,PA,Pennsylvania,True,,26070.0,522.6,42095,Northampton,"{""42095"": 100}",Northampton,42095,False,False,America/New_York,"(40.6919, -75.27494)",9.222830573171326,209698.0,9309_0_yes,40.5898831358768,-75.16149380466824,10.0
18055,40.58794,-75.29929,Hellertown,PA,Pennsylvania,True,,12000.0,231.9,42095,Northampton,"{""42095"": 94.35, ""42017"": 5.65}",Northampton|Bucks,42095|42017,False,False,America/New_York,"(40.58794, -75.29929)",7.23132270214367,209698.0,9309_0_yes,40.5898831358768,-75.16149380466824,10.0
18077,40.56603,-75.24115,Riegelsville,PA,Pennsylvania,True,,2279.0,65.6,42017,Bucks,"{""42017"": 93.21, ""42095"": 6.79}",Bucks|Northampton,42017|42095,False,False,America/New_York,"(40.56603, -75.24115)",4.49335418976342,209698.0,9309_0_yes,40.5898831358768,-75.16149380466824,10.0
18081,40.56236,-75.28396,Springtown,PA,Pennsylvania,True,,159.0,119.9,42017,Bucks,"{""42017"": 99.58, ""42095"": 0.42}",Bucks|Northampton,42017|42095,False,False,America/New_York,"(40.56236, -75.28396)",6.7023894823290995,209698.0,9309_0_yes,40.5898831358768,-75.16149380466824,10.0
18920,40.49264,-75.09067,Erwinna,PA,Pennsylvania,True,,205.0,20.5,42017,Bucks,"{""42017"": 100}",Bucks,42017,False,False,America/New_York,"(40.49264, -75.09067)",7.679322790468484,209698.0,9309_0_yes,40.5898831358768,-75.16149380466824,10.0
18930,40.52926,-75.2142,Kintnersville,PA,Pennsylvania,True,,2454.0,51.0,42017,Bucks,"{""42017"": 100}",Bucks,42017,False,False,America/New_York,"(40.52926, -75.2142)",5.01989505101435,209698.0,9309_0_yes,40.5898831358768,-75.16149380466824,10.0
18942,40.47167,-75.16261,Ottsville,PA,Pennsylvania,True,,2805.0,53.4,42017,Bucks,"{""42017"": 100}",Bucks,42017,False,False,America/New_York,"(40.47167, -75.16261)",8.167960059818212,209698.0,9309_0_yes,40.5898831358768,-75.16149380466824,10.0
18950,40.44709,-75.06544,Point Pleasant,PA,Pennsylvania,True,,204.0,148.8,42017,Bucks,"{""42017"": 100}",Bucks,42017,False,False,America/New_York,"(40.44709, -75.06544)",11.081204796405212,209698.0,9309_0_yes,40.5898831358768,-75.16149380466824,10.0
18951,40.45294,-75.33833,Quakertown,PA,Pennsylvania,True,,35331.0,190.3,42017,Bucks,"{""42017"": 99.57, ""42077"": 0.43}",Bucks|Lehigh,42017|42077,False,False,America/New_York,"(40.45294, -75.33833)",13.25861129036984,209698.0,9309_0_yes,40.5898831358768,-75.16149380466824,10.0
18955,40.48469,-75.3141,Richlandtown,PA,Pennsylvania,True,,1414.0,197.4,42017,Bucks,"{""42017"": 100}",Bucks,42017,False,False,America/New_York,"(40.48469, -75.3141)",10.818473832866253,209698.0,9309_0_yes,40.5898831358768,-75.16149380466824,10.0
18972,40.53395,-75.11997,Upper Black Eddy,PA,Pennsylvania,True,,3220.0,53.8,42017,Bucks,"{""42017"": 100}",Bucks,42017,False,False,America/New_York,"(40.53395, -75.11997)",4.436880128109751,209698.0,9309_0_yes,40.5898831358768,-75.16149380466824,10.0
