zip,lat,lng,city,state_id,state_name,zcta,parent_zcta,population,density,county_fips,county_name,county_weights,county_names_all,county_fips_all,imprecise,military,timezone,Coord,distance_miles,market_total_population,market_id,market_center_lat,market_center_lng,radius_miles
15006,40.63351,-79.87678,Bairdford,PA,Pennsylvania,True,,292.0,466.9,42003,Allegheny,"{""42003"": 100}",Allegheny,42003,False,False,America/New_York,"(40.63351, -79.87678)",8.376824016964195,284390.0,9321_0_yes,40.59739302031348,-79.72431628928001,10.0
15014,40.60859,-79.74149,Brackenridge,PA,Pennsylvania,True,,3055.0,2418.2,42003,Allegheny,"{""42003"": 100}",Allegheny,42003,False,False,America/New_York,"(40.60859, -79.74149)",1.1874942726317348,284390.0,9321_0_yes,40.59739302031348,-79.72431628928001,10.0
15024,40.57649,-79.84649,Cheswick,PA,Pennsylvania,True,,8555.0,188.2,42003,Allegheny,"{""42003"": 100}",Allegheny,42003,False,False,America/New_York,"(40.57649, -79.84649)",6.571241563690094,284390.0,9321_0_yes,40.59739302031348,-79.72431628928001,10.0
15030,40.58492,-79.78074,Creighton,PA,Pennsylvania,True,,1124.0,288.9,42003,Allegheny,"{""42003"": 100}",Allegheny,42003,False,False,America/New_York,"(40.58492, -79.78074)",3.08330483352656,284390.0,9321_0_yes,40.59739302031348,-79.72431628928001,10.0
15049,40.55545,-79.80366,Harwick,PA,Pennsylvania,True,,904.0,622.5,42003,Allegheny,"{""42003"": 100}",Allegheny,42003,False,False,America/New_York,"(40.55545, -79.80366)",5.073096403720973,284390.0,9321_0_yes,40.59739302031348,-79.72431628928001,10.0
15051,40.56812,-79.86076,Indianola,PA,Pennsylvania,True,,466.0,378.1,42003,Allegheny,"{""42003"": 100}",Allegheny,42003,False,False,America/New_York,"(40.56812, -79.86076)",7.439967844001069,284390.0,9321_0_yes,40.59739302031348,-79.72431628928001,10.0
15065,40.64192,-79.72766,Natrona Heights,PA,Pennsylvania,True,,11280.0,349.6,42003,Allegheny,"{""42003"": 100}",Allegheny,42003,False,False,America/New_York,"(40.64192, -79.72766)",3.08151501518367,284390.0,9321_0_yes,40.59739302031348,-79.72431628928001,10.0
15068,40.56241,-79.7124,New Kensington,PA,Pennsylvania,True,,37442.0,318.1,42129,Westmoreland,"{""42129"": 77.84, ""42003"": 22.16}",Westmoreland|Allegheny,42129|42003,False,False,America/New_York,"(40.56241, -79.7124)",2.496674931102915,284390.0,9321_0_yes,40.59739302031348,-79.72431628928001,10.0
15075,40.58665,-79.82693,Rural Ridge,PA,Pennsylvania,True,,50.0,703.0,42003,Allegheny,"{""42003"": 100}",Allegheny,42003,False,False,America/New_York,"(40.58665, -79.82693)",5.4347520682042285,284390.0,9321_0_yes,40.59739302031348,-79.72431628928001,10.0
15076,40.60949,-79.8374,Russellton,PA,Pennsylvania,True,,723.0,223.4,42003,Allegheny,"{""42003"": 100}",Allegheny,42003,False,False,America/New_York,"(40.60949, -79.8374)",5.990732252307828,284390.0,9321_0_yes,40.59739302031348,-79.72431628928001,10.0
15084,40.6282,-79.8028,Tarentum,PA,Pennsylvania,True,,10034.0,133.9,42003,Allegheny,"{""42003"": 100}",Allegheny,42003,False,False,America/New_York,"(40.6282, -79.8028)",4.6342729654705686,284390.0,9321_0_yes,40.59739302031348,-79.72431628928001,10.0
15139,40.52192,-79.83479,Oakmont,PA,Pennsylvania,True,,6504.0,1306.2,42003,Allegheny,"{""42003"": 100}",Allegheny,42003,False,False,America/New_York,"(40.52192, -79.83479)",7.798819292601159,284390.0,9321_0_yes,40.59739302031348,-79.72431628928001,10.0
15144,40.54759,-79.78317,Springdale,PA,Pennsylvania,True,,4002.0,743.4,42003,Allegheny,"{""42003"": 100}",Allegheny,42003,False,False,America/New_York,"(40.54759, -79.78317)",4.624005167052035,284390.0,9321_0_yes,40.59739302031348,-79.72431628928001,10.0
15147,40.49704,-79.82858,Verona,PA,Pennsylvania,True,,16693.0,643.8,42003,Allegheny,"{""42003"": 100}",Allegheny,42003,False,False,America/New_York,"(40.49704, -79.82858)",8.83413537563528,284390.0,9321_0_yes,40.59739302031348,-79.72431628928001,10.0
15206,40.47244,-79.91324,Pittsburgh,PA,Pennsylvania,True,,29197.0,2366.4,42003,Allegheny,"{""42003"": 100}",Allegheny,42003,False,False,America/New_York,"(40.47244, -79.91324)",13.151286600202411,284390.0,9321_0_yes,40.59739302031348,-79.72431628928001,10.0
15208,40.45387,-79.89883,Pittsburgh,PA,Pennsylvania,True,,8916.0,2297.8,42003,Allegheny,"{""42003"": 100}",Allegheny,42003,False,False,America/New_York,"(40.45387, -79.89883)",13.503299172937258,284390.0,9321_0_yes,40.59739302031348,-79.72431628928001,10.0
15215,40.50457,-79.91338,Pittsburgh,PA,Pennsylvania,True,,12637.0,788.4,42003,Allegheny,"{""42003"": 100}",Allegheny,42003,False,False,America/New_York,"(40.50457, -79.91338)",11.817418368977089,284390.0,9321_0_yes,40.59739302031348,-79.72431628928001,10.0
15235,40.45968,-79.82194,Pittsburgh,PA,Pennsylvania,True,,34339.0,895.0,42003,Allegheny,"{""42003"": 100}",Allegheny,42003,False,False,America/New_York,"(40.45968, -79.82194)",10.808387004205501,284390.0,9321_0_yes,40.59739302031348,-79.72431628928001,10.0
15238,40.53405,-79.88115,Pittsburgh,PA,Pennsylvania,True,,12358.0,302.3,42003,Allegheny,"{""42003"": 100}",Allegheny,42003,False,False,America/New_York,"(40.53405, -79.88115)",9.32294256305893,284390.0,9321_0_yes,40.59739302031348,-79.72431628928001,10.0
15239,40.48437,-79.73753,Pittsburgh,PA,Pennsylvania,True,,20523.0,484.9,42003,Allegheny,"{""42003"": 100}",Allegheny,42003,False,False,America/New_York,"(40.48437, -79.73753)",7.839907563476878,284390.0,9321_0_yes,40.59739302031348,-79.72431628928001,10.0
15613,40.55355,-79.56577,Apollo,PA,Pennsylvania,True,,13122.0,87.5,42129,Westmoreland,"{""42129"": 62.03, ""42005"": 37.97}",Westmoreland|Armstrong,42129|42005,False,False,America/New_York,"(40.55355, -79.56577)",8.854773257191502,284390.0,9321_0_yes,40.59739302031348,-79.72431628928001,10.0
15629,40.59731,-79.56304,East Vandergrift,PA,Pennsylvania,True,,697.0,2133.2,42129,Westmoreland,"{""42129"": 100}",Westmoreland,42129,False,False,America/New_York,"(40.59731, -79.56304)",8.46099501542474,284390.0,9321_0_yes,40.59739302031348,-79.72431628928001,10.0
15641,40.63151,-79.58909,Hyde Park,PA,Pennsylvania,True,,486.0,780.5,42129,Westmoreland,"{""42129"": 100}",Westmoreland,42129,False,False,America/New_York,"(40.63151, -79.58909)",7.473992829435857,284390.0,9321_0_yes,40.59739302031348,-79.72431628928001,10.0
15656,40.64114,-79.61981,Leechburg,PA,Pennsylvania,True,,9717.0,117.7,42129,Westmoreland,"{""42129"": 57.11, ""42005"": 42.89}",Westmoreland|Armstrong,42129|42005,False,False,America/New_York,"(40.64114, -79.61981)",6.2591055222864505,284390.0,9321_0_yes,40.59739302031348,-79.72431628928001,10.0
15668,40.46352,-79.67168,Murrysville,PA,Pennsylvania,True,,13469.0,232.3,42129,Westmoreland,"{""42129"": 99.77, ""42003"": 0.23}",Westmoreland|Allegheny,42129|42003,False,False,America/New_York,"(40.46352, -79.67168)",9.653941813778982,284390.0,9321_0_yes,40.59739302031348,-79.72431628928001,10.0
15673,40.59383,-79.55634,North Apollo,PA,Pennsylvania,True,,1186.0,847.4,42005,Armstrong,"{""42005"": 100}",Armstrong,42005,False,False,America/New_York,"(40.59383, -79.55634)",8.816160389318249,284390.0,9321_0_yes,40.59739302031348,-79.72431628928001,10.0
15690,40.6455,-79.54243,Vandergrift,PA,Pennsylvania,True,,8977.0,131.6,42005,Armstrong,"{""42005"": 90.5, ""42129"": 9.5}",Armstrong|Westmoreland,42005|42129,False,False,America/New_York,"(40.6455, -79.54243)",10.10133743294668,284390.0,9321_0_yes,40.59739302031348,-79.72431628928001,10.0
16055,40.7157,-79.74753,Sarver,PA,Pennsylvania,True,,8036.0,80.6,42019,Butler,"{""42019"": 88.42, ""42005"": 11.58}",Butler|Armstrong,42019|42005,False,False,America/New_York,"(40.7157, -79.74753)",8.264299008521135,284390.0,9321_0_yes,40.59739302031348,-79.72431628928001,10.0
16056,40.72301,-79.83911,Saxonburg,PA,Pennsylvania,True,,4403.0,80.8,42019,Butler,"{""42019"": 100}",Butler,42019,False,False,America/New_York,"(40.72301, -79.83911)",10.560838213102734,284390.0,9321_0_yes,40.59739302031348,-79.72431628928001,10.0
16229,40.71624,-79.64567,Freeport,PA,Pennsylvania,True,,5203.0,74.8,42005,Armstrong,"{""42005"": 87.15, ""42019"": 6.76, ""42129"": 6.09}",Armstrong|Butler|Westmoreland,42005|42019|42129,False,False,America/New_York,"(40.71624, -79.64567)",9.188199765825408,284390.0,9321_0_yes,40.59739302031348,-79.72431628928001,10.0
