zip,lat,lng,city,state_id,state_name,zcta,parent_zcta,population,density,county_fips,county_name,county_weights,county_names_all,county_fips_all,imprecise,military,timezone,Coord,distance_miles,market_total_population,market_id,market_center_lat,market_center_lng,radius_miles
43326,40.64149,-83.61443,Kenton,OH,Ohio,True,,13393.0,27.7,39065,Hardin,"{""39065"": 99.31, ""39101"": 0.69}",Hardin|Marion,39065|39101,False,False,America/New_York,"(40.64149, -83.61443)",5.275367074314487,19469.0,9331_0_yes,40.60365276950819,-83.52705843324483,10.0
43332,40.58369,-83.37769,La Rue,OH,Ohio,True,,1566.0,9.9,39101,Marion,"{""39101"": 86.71, ""39065"": 9.42, ""39175"": 3.87}",Marion|Hardin|Wyandot,39101|39065|39175,False,False,America/New_York,"(40.58369, -83.37769)",7.957161363615438,19469.0,9331_0_yes,40.60365276950819,-83.52705843324483,10.0
43340,40.53748,-83.48,Mount Victory,OH,Ohio,True,,2153.0,17.1,39065,Hardin,"{""39065"": 79.95, ""39159"": 20.05}",Hardin|Union,39065|39159,False,False,America/New_York,"(40.53748, -83.48)",5.196541910121894,19469.0,9331_0_yes,40.60365276950819,-83.52705843324483,10.0
43345,40.51341,-83.58167,Ridgeway,OH,Ohio,True,,1013.0,13.7,39091,Logan,"{""39091"": 53.08, ""39065"": 46.51, ""39159"": 0.41}",Logan|Hardin|Union,39091|39065|39159,False,False,America/New_York,"(40.51341, -83.58167)",6.86262711871864,19469.0,9331_0_yes,40.60365276950819,-83.52705843324483,10.0
43347,40.47771,-83.65804,Rushsylvania,OH,Ohio,True,,1344.0,16.9,39091,Logan,"{""39091"": 89.75, ""39065"": 10.25}",Logan|Hardin,39091|39065,False,False,America/New_York,"(40.47771, -83.65804)",11.091490511334758,19469.0,9331_0_yes,40.60365276950819,-83.52705843324483,10.0
