zip,lat,lng,city,state_id,state_name,zcta,parent_zcta,population,density,county_fips,county_name,county_weights,county_names_all,county_fips_all,imprecise,military,timezone,Coord,distance_miles,market_total_population,market_id,market_center_lat,market_center_lng,radius_miles
52542,40.62712,-92.05164,Cantril,IA,Iowa,True,,298.0,2.5,19177,Van Buren,"{""19177"": 80.48, ""29199"": 19.52}",Van Buren|Scotland,19177|29199,False,False,America/Chicago,"(40.62712, -92.05164)",8.27641949314213,5467.0,9353_0_yes,40.617429059537685,-91.894340364537,10.0
52565,40.74005,-91.94332,Keosauqua,IA,Iowa,True,,1714.0,5.8,19177,Van Buren,"{""19177"": 100}",Van Buren,19177,False,False,America/Chicago,"(40.74005, -91.94332)",8.852494045157572,5467.0,9353_0_yes,40.617429059537685,-91.894340364537,10.0
52573,40.62378,-91.92979,Mount Sterling,IA,Iowa,True,,193.0,2.0,19177,Van Buren,"{""19177"": 65.33, ""29045"": 23.85, ""29199"": 10.82}",Van Buren|Clark|Scotland,19177|29045|29199,False,False,America/Chicago,"(40.62378, -91.92979)",1.9102212414670596,5467.0,9353_0_yes,40.617429059537685,-91.894340364537,10.0
52620,40.7032,-91.79563,Bonaparte,IA,Iowa,True,,898.0,6.4,19177,Van Buren,"{""19177"": 100}",Van Buren,19177,False,False,America/Chicago,"(40.7032, -91.79563)",7.866857596656332,5467.0,9353_0_yes,40.617429059537685,-91.894340364537,10.0
52626,40.63201,-91.72119,Farmington,IA,Iowa,True,,1264.0,5.5,19111,Lee,"{""19111"": 54.1, ""19177"": 24.67, ""29045"": 21.23}",Lee|Van Buren|Clark,19111|19177|29045,False,False,America/Chicago,"(40.63201, -91.72119)",9.135936393281476,5467.0,9353_0_yes,40.617429059537685,-91.894340364537,10.0
63432,40.50058,-91.99551,Arbela,MO,Missouri,True,,616.0,2.8,29199,Scotland,"{""29199"": 87.63, ""29045"": 12.37}",Scotland|Clark,29199|29045,False,False,America/Chicago,"(40.50058, -91.99551)",9.663575392601171,5467.0,9353_0_yes,40.617429059537685,-91.894340364537,10.0
63453,40.49511,-91.86495,Luray,MO,Missouri,True,,484.0,3.5,29045,Clark,"{""29045"": 100}",Clark,29045,False,False,America/Chicago,"(40.49511, -91.86495)",8.591114173008759,5467.0,9353_0_yes,40.617429059537685,-91.894340364537,10.0
