zip,lat,lng,city,state_id,state_name,zcta,parent_zcta,population,density,county_fips,county_name,county_weights,county_names_all,county_fips_all,imprecise,military,timezone,Coord,distance_miles,market_total_population,market_id,market_center_lat,market_center_lng,radius_miles
51640,40.62262,-95.6634,Hamburg,IA,Iowa,True,,1660.0,5.6,19071,Fremont,"{""19071"": 81.66, ""29005"": 18.34}",Fremont|Atchison,19071|29005,False,False,America/Chicago,"(40.62262, -95.6634)",1.8274776510606774,12169.0,9363_0_yes,40.62369321161872,-95.69821858354544,10.0
51648,40.74215,-95.80325,Percival,IA,Iowa,True,,215.0,1.5,19071,Fremont,"{""19071"": 100}",Fremont,19071,False,False,America/Chicago,"(40.74215, -95.80325)",9.862673522089143,12169.0,9363_0_yes,40.62369321161872,-95.69821858354544,10.0
51650,40.673,-95.5492,Riverton,IA,Iowa,True,,282.0,3.5,19071,Fremont,"{""19071"": 100}",Fremont,19071,False,False,America/Chicago,"(40.673, -95.5492)",8.522483746998581,12169.0,9363_0_yes,40.62369321161872,-95.69821858354544,10.0
64496,40.49563,-95.62372,Watson,MO,Missouri,True,,86.0,0.9,29005,Atchison,"{""29005"": 100}",Atchison,29005,False,False,America/Chicago,"(40.49563, -95.62372)",9.673967179083265,12169.0,9363_0_yes,40.62369321161872,-95.69821858354544,10.0
68410,40.63729,-95.88584,Nebraska City,NE,Nebraska,True,,8761.0,23.6,31131,Otoe,"{""31131"": 100}",Otoe,31131,False,False,America/Chicago,"(40.63729, -95.88584)",9.88300055547324,12169.0,9363_0_yes,40.62369321161872,-95.69821858354544,10.0
68421,40.492,-95.74426,Peru,NE,Nebraska,True,,1165.0,9.1,31127,Nemaha,"{""31127"": 94.21, ""31131"": 5.79}",Nemaha|Otoe,31127|31131,False,False,America/Chicago,"(40.492, -95.74426)",9.414646529488945,12169.0,9363_0_yes,40.62369321161872,-95.69821858354544,10.0
