zip,lat,lng,city,state_id,state_name,zcta,parent_zcta,population,density,county_fips,county_name,county_weights,county_names_all,county_fips_all,imprecise,military,timezone,Coord,distance_miles,market_total_population,market_id,market_center_lat,market_center_lng,radius_miles
68333,40.62126,-96.94901,Crete,NE,Nebraska,True,,8525.0,29.9,31151,Saline,"{""31151"": 66.8, ""31109"": 33.2}",Saline|Lancaster,31151|31109,False,False,America/Chicago,"(40.62126, -96.94901)",5.753225947698226,30779.0,9366_0_yes,40.62557272574698,-96.83945134799131,10.0
68339,40.73214,-96.86696,Denton,NE,Nebraska,True,,987.0,8.5,31109,Lancaster,"{""31109"": 86.75, ""31159"": 8.8, ""31151"": 4.45}",Lancaster|Seward|Saline,31109|31159|31151,False,False,America/Chicago,"(40.73214, -96.86696)",7.502858546393396,30779.0,9366_0_yes,40.62557272574698,-96.83945134799131,10.0
68368,40.55598,-96.81665,Hallam,NE,Nebraska,True,,558.0,5.7,31109,Lancaster,"{""31109"": 89.67, ""31067"": 10.33}",Lancaster|Gage,31109|31067,False,False,America/Chicago,"(40.55598, -96.81665)",4.95499039531203,30779.0,9366_0_yes,40.62557272574698,-96.83945134799131,10.0
68404,40.619,-96.75566,Martell,NE,Nebraska,True,,1015.0,7.8,31109,Lancaster,"{""31109"": 100}",Lancaster,31109,False,False,America/Chicago,"(40.619, -96.75566)",4.417686702459353,30779.0,9366_0_yes,40.62557272574698,-96.83945134799131,10.0
68430,40.66599,-96.66012,Roca,NE,Nebraska,True,,1559.0,13.2,31109,Lancaster,"{""31109"": 100}",Lancaster,31109,False,False,America/Chicago,"(40.66599, -96.66012)",9.807374019152,30779.0,9366_0_yes,40.62557272574698,-96.83945134799131,10.0
68438,40.62656,-96.74463,Sprague,NE,Nebraska,True,,73.0,279.7,31109,Lancaster,"{""31109"": 100}",Lancaster,31109,False,False,America/Chicago,"(40.62656, -96.74463)",4.972917036630329,30779.0,9366_0_yes,40.62557272574698,-96.83945134799131,10.0
68465,40.49248,-97.01987,Wilber,NE,Nebraska,True,,2680.0,10.1,31151,Saline,"{""31151"": 91.29, ""31067"": 6.01, ""31109"": 2.7}",Saline|Gage|Lancaster,31151|31067|31109,False,False,America/Chicago,"(40.49248, -97.01987)",13.200640629468271,30779.0,9366_0_yes,40.62557272574698,-96.83945134799131,10.0
68512,40.73746,-96.70567,Lincoln,NE,Nebraska,True,,13900.0,588.6,31109,Lancaster,"{""31109"": 100}",Lancaster,31109,False,False,America/Chicago,"(40.73746, -96.70567)",10.435470112759713,30779.0,9366_0_yes,40.62557272574698,-96.83945134799131,10.0
68523,40.73555,-96.75708,Lincoln,NE,Nebraska,True,,1482.0,36.4,31109,Lancaster,"{""31109"": 100}",Lancaster,31109,False,False,America/Chicago,"(40.73555, -96.75708)",8.738909224258178,30779.0,9366_0_yes,40.62557272574698,-96.83945134799131,10.0
