zip,lat,lng,city,state_id,state_name,zcta,parent_zcta,population,density,county_fips,county_name,county_weights,county_names_all,county_fips_all,imprecise,military,timezone,Coord,distance_miles,market_total_population,market_id,market_center_lat,market_center_lng,radius_miles
96008,40.73559,-122.11091,Bella Vista,CA,California,True,,1343.0,8.4,6089,Shasta,"{""06089"": 100}",Shasta,06089,False,False,America/Los_Angeles,"(40.73559, -122.11091)",9.458497016818331,4959.0,9432_0_yes,40.66695342308707,-121.95467554681171,10.0
96062,40.56373,-122.06646,Millville,CA,California,True,,1217.0,7.0,6089,Shasta,"{""06089"": 100}",Shasta,06089,False,False,America/Los_Angeles,"(40.56373, -122.06646)",9.232566750567267,4959.0,9432_0_yes,40.66695342308707,-121.95467554681171,10.0
96069,40.68226,-122.02341,Oak Run,CA,California,True,,1167.0,4.9,6089,Shasta,"{""06089"": 100}",Shasta,06089,False,False,America/Los_Angeles,"(40.68226, -122.02341)",3.753883072933826,4959.0,9432_0_yes,40.66695342308707,-121.95467554681171,10.0
96084,40.79395,-121.91519,Round Mountain,CA,California,True,,514.0,3.7,6089,Shasta,"{""06089"": 100}",Shasta,06089,False,False,America/Los_Angeles,"(40.79395, -121.91519)",9.014886910184858,4959.0,9432_0_yes,40.66695342308707,-121.95467554681171,10.0
96096,40.63738,-121.87552,Whitmore,CA,California,True,,718.0,2.7,6089,Shasta,"{""06089"": 100}",Shasta,06089,False,False,America/Los_Angeles,"(40.63738, -121.87552)",4.62514405707593,4959.0,9432_0_yes,40.66695342308707,-121.95467554681171,10.0
