zip,lat,lng,city,state_id,state_name,zcta,parent_zcta,population,density,county_fips,county_name,county_weights,county_names_all,county_fips_all,imprecise,military,timezone,Coord,distance_miles,market_total_population,market_id,market_center_lat,market_center_lng,radius_miles
44611,40.60785,-82.08141,Big Prairie,OH,Ohio,True,,2283.0,33.1,39075,Holmes,"{""39075"": 95.05, ""39169"": 4.95}",Holmes|Wayne,39075|39169,False,False,America/New_York,"(40.60785, -82.08141)",9.958750556221876,98346.0,9471_0_no,40.74625446836126,-82.13446486344027,10.0
44638,40.6502,-82.13521,Lakeville,OH,Ohio,True,,1111.0,15.1,39075,Holmes,"{""39075"": 62.43, ""39005"": 27.48, ""39169"": 10.09}",Holmes|Ashland|Wayne,39075|39005|39169,False,False,America/New_York,"(40.6502, -82.13521)",6.636846409503794,98346.0,9471_0_no,40.74625446836126,-82.13446486344027,10.0
44676,40.6891,-82.03266,Shreve,OH,Ohio,True,,5083.0,35.3,39169,Wayne,"{""39169"": 73.16, ""39075"": 26.84}",Wayne|Holmes,39169|39075,False,False,America/New_York,"(40.6891, -82.03266)",6.6345851141143015,98346.0,9471_0_no,40.74625446836126,-82.13446486344027,10.0
44691,40.80714,-81.97971,Wooster,OH,Ohio,True,,45210.0,112.7,39169,Wayne,"{""39169"": 99.53, ""39005"": 0.47}",Wayne|Ashland,39169|39005,False,False,America/New_York,"(40.80714, -81.97971)",9.124644838579705,98346.0,9471_0_no,40.74625446836126,-82.13446486344027,10.0
44805,40.87335,-82.32096,Ashland,OH,Ohio,True,,32600.0,83.3,39005,Ashland,"{""39005"": 94.9, ""39139"": 5.1}",Ashland|Richland,39005|39139,False,False,America/New_York,"(40.87335, -82.32096)",13.123746541957622,98346.0,9471_0_no,40.74625446836126,-82.13446486344027,10.0
44838,40.77186,-82.25947,Hayesville,OH,Ohio,True,,177.0,245.6,39005,Ashland,"{""39005"": 100}",Ashland,39005,False,False,America/New_York,"(40.77186, -82.25947)",6.777214296220462,98346.0,9471_0_no,40.74625446836126,-82.13446486344027,10.0
44840,40.79231,-82.17973,Jeromesville,OH,Ohio,True,,2763.0,21.9,39005,Ashland,"{""39005"": 99.77, ""39169"": 0.23}",Ashland|Wayne,39005|39169,False,False,America/New_York,"(40.79231, -82.17973)",3.9669021295173974,98346.0,9471_0_no,40.74625446836126,-82.13446486344027,10.0
44842,40.64903,-82.22498,Loudonville,OH,Ohio,True,,5315.0,28.2,39005,Ashland,"{""39005"": 71.03, ""39075"": 26.7, ""39083"": 2.27}",Ashland|Holmes|Knox,39005|39075|39083,False,False,America/New_York,"(40.64903, -82.22498)",8.222404928781842,98346.0,9471_0_no,40.74625446836126,-82.13446486344027,10.0
44864,40.66748,-82.31871,Perrysville,OH,Ohio,True,,3804.0,24.7,39005,Ashland,"{""39005"": 73.92, ""39139"": 26.08}",Ashland|Richland,39005|39139,False,False,America/New_York,"(40.66748, -82.31871)",11.079231662103387,98346.0,9471_0_no,40.74625446836126,-82.13446486344027,10.0
