zip,lat,lng,city,state_id,state_name,zcta,parent_zcta,population,density,county_fips,county_name,county_weights,county_names_all,county_fips_all,imprecise,military,timezone,Coord,distance_miles,market_total_population,market_id,market_center_lat,market_center_lng,radius_miles
46911,40.62859,-85.94673,Amboy,IN,Indiana,True,,1551.0,15.6,18103,Miami,"{""18103"": 79.19, ""18169"": 20.81}",Miami|Wabash,18103|18169,False,False,America/Indiana/Indianapolis,"(40.62859, -85.94673)",8.5647906964539,46071.0,9481_0_no,40.7525469922407,-85.94567513446607,10.0
46914,40.63068,-86.09515,Bunker Hill,IN,Indiana,True,,2733.0,36.3,18103,Miami,"{""18103"": 100}",Miami,18103,False,False,America/Indiana/Indianapolis,"(40.63068, -86.09515)",11.498743558396422,46071.0,9481_0_no,40.7525469922407,-85.94567513446607,10.0
46926,40.88283,-86.04945,Denver,IN,Indiana,True,,1289.0,13.9,18103,Miami,"{""18103"": 93.31, ""18017"": 4.16, ""18169"": 2.53}",Miami|Cass|Wabash,18103|18017|18169,False,False,America/Indiana/Indianapolis,"(40.88283, -86.04945)",10.510736365940257,46071.0,9481_0_no,40.7525469922407,-85.94567513446607,10.0
46958,40.81817,-86.12107,Mexico,IN,Indiana,True,,513.0,153.2,18103,Miami,"{""18103"": 100}",Miami,18103,False,False,America/Indiana/Indianapolis,"(40.81817, -86.12107)",10.234884789059349,46071.0,9481_0_no,40.7525469922407,-85.94567513446607,10.0
46959,40.61272,-86.11245,Miami,IN,Indiana,True,,714.0,672.4,18103,Miami,"{""18103"": 100}",Miami,18103,False,False,America/Indiana/Indianapolis,"(40.61272, -86.11245)",13.026702117375752,46071.0,9481_0_no,40.7525469922407,-85.94567513446607,10.0
46970,40.75827,-86.0614,Peru,IN,Indiana,True,,23280.0,50.0,18103,Miami,"{""18103"": 91.55, ""18017"": 7.65, ""18169"": 0.8}",Miami|Cass|Wabash,18103|18017|18169,False,False,America/Indiana/Indianapolis,"(40.75827, -86.0614)",6.069758944638392,46071.0,9481_0_no,40.7525469922407,-85.94567513446607,10.0
46984,40.66777,-85.82975,Somerset,IN,Indiana,True,,60.0,433.0,18169,Wabash,"{""18169"": 100}",Wabash,18169,False,False,America/Indiana/Indianapolis,"(40.66777, -85.82975)",8.436436836903669,46071.0,9481_0_no,40.7525469922407,-85.94567513446607,10.0
46992,40.78509,-85.82961,Wabash,IN,Indiana,True,,15931.0,37.7,18169,Wabash,"{""18169"": 99.55, ""18103"": 0.45}",Wabash|Miami,18169|18103,False,False,America/Indiana/Indianapolis,"(40.78509, -85.82961)",6.476307890962042,46071.0,9481_0_no,40.7525469922407,-85.94567513446607,10.0
