zip,lat,lng,city,state_id,state_name,zcta,parent_zcta,population,density,county_fips,county_name,county_weights,county_names_all,county_fips_all,imprecise,military,timezone,Coord,distance_miles,market_total_population,market_id,market_center_lat,market_center_lng,radius_miles
50839,41.04874,-94.82206,Carbon,IA,Iowa,True,,52.0,40.0,19003,Adams,"{""19003"": 100}",Adams,19003,False,False,America/Chicago,"(41.04874, -94.82206)",9.498024794369291,4915.0,9516_0_yes,40.91177524224619,-94.80651782225196,10.0
50841,41.01147,-94.76342,Corning,IA,Iowa,True,,2393.0,4.0,19003,Adams,"{""19003"": 89.06, ""19173"": 10.94}",Adams|Taylor,19003|19173,False,False,America/Chicago,"(41.01147, -94.76342)",7.24599866820156,4915.0,9516_0_yes,40.91177524224619,-94.80651782225196,10.0
50848,40.78685,-94.76758,Gravity,IA,Iowa,True,,225.0,1.8,19173,Taylor,"{""19173"": 100}",Taylor,19173,False,False,America/Chicago,"(40.78685, -94.76758)",8.868172797404664,4915.0,9516_0_yes,40.91177524224619,-94.80651782225196,10.0
50857,40.94045,-94.88011,Nodaway,IA,Iowa,True,,165.0,1.3,19003,Adams,"{""19003"": 72.7, ""19173"": 25.89, ""19137"": 1.41}",Adams|Taylor|Montgomery,19003|19173|19137,False,False,America/Chicago,"(40.94045, -94.88011)",4.32258058122717,4915.0,9516_0_yes,40.91177524224619,-94.80651782225196,10.0
50862,40.81304,-94.65136,Sharpsburg,IA,Iowa,True,,222.0,3.9,19173,Taylor,"{""19173"": 100}",Taylor,19173,False,False,America/Chicago,"(40.81304, -94.65136)",10.595890063175933,4915.0,9516_0_yes,40.91177524224619,-94.80651782225196,10.0
50864,40.97648,-94.98009,Villisca,IA,Iowa,True,,1858.0,4.9,19137,Montgomery,"{""19137"": 65.59, ""19145"": 19.82, ""19173"": 8.92, ""19003"": 3.95, ""19029"": 1.72}",Montgomery|Page|Taylor|Adams|Cass,19137|19145|19173|19003|19029,False,False,America/Chicago,"(40.97648, -94.98009)",10.101800102318238,4915.0,9516_0_yes,40.91177524224619,-94.80651782225196,10.0
