zip,lat,lng,city,state_id,state_name,zcta,parent_zcta,population,density,county_fips,county_name,county_weights,county_names_all,county_fips_all,imprecise,military,timezone,Coord,distance_miles,market_total_population,market_id,market_center_lat,market_center_lng,radius_miles
16035,41.10779,-80.01659,Forestville,PA,Pennsylvania,True,,127.0,56.3,42019,Butler,"{""42019"": 100}",Butler,42019,False,False,America/New_York,"(41.10779, -80.01659)",6.264909321276404,55411.0,9632_0_yes,41.17680867424659,-80.09467614296692,10.0
16038,41.15967,-79.95042,Harrisville,PA,Pennsylvania,True,,3656.0,30.8,42019,Butler,"{""42019"": 62.4, ""42121"": 37.6}",Butler|Venango,42019|42121,False,False,America/New_York,"(41.15967, -79.95042)",7.5959403919704185,55411.0,9632_0_yes,41.17680867424659,-80.09467614296692,10.0
16057,41.03427,-80.0579,Slippery Rock,PA,Pennsylvania,True,,14434.0,62.9,42019,Butler,"{""42019"": 86.19, ""42073"": 12.69, ""42085"": 1.12}",Butler|Lawrence|Mercer,42019|42073|42085,False,False,America/New_York,"(41.03427, -80.0579)",10.032869243061086,55411.0,9632_0_yes,41.17680867424659,-80.09467614296692,10.0
16127,41.17433,-80.07002,Grove City,PA,Pennsylvania,True,,15263.0,80.5,42085,Mercer,"{""42085"": 89.98, ""42121"": 7.99, ""42073"": 1.69, ""42019"": 0.34}",Mercer|Venango|Lawrence|Butler,42085|42121|42073|42019,False,False,America/New_York,"(41.17433, -80.07002)",1.2936614007276073,55411.0,9632_0_yes,41.17680867424659,-80.09467614296692,10.0
16133,41.27101,-80.11562,Jackson Center,PA,Pennsylvania,True,,1516.0,21.4,42085,Mercer,"{""42085"": 100}",Mercer,42085,False,False,America/New_York,"(41.27101, -80.11562)",6.599068111261653,55411.0,9632_0_yes,41.17680867424659,-80.09467614296692,10.0
16137,41.23219,-80.2397,Mercer,PA,Pennsylvania,True,,12769.0,45.4,42085,Mercer,"{""42085"": 100}",Mercer,42085,False,False,America/New_York,"(41.23219, -80.2397)",8.454338824364584,55411.0,9632_0_yes,41.17680867424659,-80.09467614296692,10.0
16153,41.31845,-80.08122,Stoneboro,PA,Pennsylvania,True,,2296.0,20.6,42085,Mercer,"{""42085"": 86.59, ""42121"": 13.41}",Mercer|Venango,42085|42121,False,False,America/New_York,"(41.31845, -80.08122)",9.811417148072291,55411.0,9632_0_yes,41.17680867424659,-80.09467614296692,10.0
16156,41.09702,-80.21943,Volant,PA,Pennsylvania,True,,3148.0,23.7,42073,Lawrence,"{""42073"": 78.68, ""42085"": 21.32}",Lawrence|Mercer,42073|42085,False,False,America/New_York,"(41.09702, -80.21943)",8.516772140968737,55411.0,9632_0_yes,41.17680867424659,-80.09467614296692,10.0
16342,41.31995,-79.9294,Polk,PA,Pennsylvania,True,,2202.0,12.8,42121,Venango,"{""42121"": 96.68, ""42085"": 3.32}",Venango|Mercer,42121|42085,False,False,America/New_York,"(41.31995, -79.9294)",13.096988032137228,55411.0,9632_0_yes,41.17680867424659,-80.09467614296692,10.0
