zip,lat,lng,city,state_id,state_name,zcta,parent_zcta,population,density,county_fips,county_name,county_weights,county_names_all,county_fips_all,imprecise,military,timezone,Coord,distance_miles,market_total_population,market_id,market_center_lat,market_center_lng,radius_miles
60420,41.08795,-88.42127,Dwight,IL,Illinois,True,,4699.0,18.8,17105,Livingston,"{""17105"": 71.59, ""17063"": 28.41}",Livingston|Grundy,17105|17063,False,False,America/Chicago,"(41.08795, -88.42127)",9.234832220510171,11814.0,9654_0_yes,41.190864474865386,-88.53450838262148,10.0
60437,41.16168,-88.54981,Kinsman,IL,Illinois,True,,133.0,2.7,17063,Grundy,"{""17063"": 99.83, ""17105"": 0.17}",Grundy|Livingston,17063|17105,False,False,America/Chicago,"(41.16168, -88.54981)",2.167797227648895,11814.0,9654_0_yes,41.190864474865386,-88.53450838262148,10.0
60444,41.24246,-88.40403,Mazon,IL,Illinois,True,,1927.0,15.0,17063,Grundy,"{""17063"": 100}",Grundy,17063,False,False,America/Chicago,"(41.24246, -88.40403)",7.661365870629604,11814.0,9654_0_yes,41.190864474865386,-88.53450838262148,10.0
60470,41.16592,-88.63876,Ransom,IL,Illinois,True,,430.0,3.9,17099,LaSalle,"{""17099"": 91.7, ""17105"": 4.35, ""17063"": 3.95}",LaSalle|Livingston|Grundy,17099|17105|17063,False,False,America/Chicago,"(41.16592, -88.63876)",5.688866911993484,11814.0,9654_0_yes,41.190864474865386,-88.53450838262148,10.0
60479,41.23174,-88.52078,Verona,IL,Illinois,True,,1082.0,10.7,17063,Grundy,"{""17063"": 100}",Grundy,17063,False,False,America/Chicago,"(41.23174, -88.52078)",2.9129813416832926,11814.0,9654_0_yes,41.190864474865386,-88.53450838262148,10.0
61313,41.07237,-88.66993,Blackstone,IL,Illinois,True,,236.0,2.2,17105,Livingston,"{""17105"": 100}",Livingston,17105,False,False,America/Chicago,"(41.07237, -88.66993)",10.802651961351609,11814.0,9654_0_yes,41.190864474865386,-88.53450838262148,10.0
61360,41.33439,-88.60522,Seneca,IL,Illinois,True,,3307.0,26.9,17099,LaSalle,"{""17099"": 78.79, ""17063"": 21.21}",LaSalle|Grundy,17099|17063,False,False,America/Chicago,"(41.33439, -88.60522)",10.57487571808194,11814.0,9654_0_yes,41.190864474865386,-88.53450838262148,10.0
