zip,lat,lng,city,state_id,state_name,zcta,parent_zcta,population,density,county_fips,county_name,county_weights,county_names_all,county_fips_all,imprecise,military,timezone,Coord,distance_miles,market_total_population,market_id,market_center_lat,market_center_lng,radius_miles
06001,41.79185,-72.85107,Avon,CT,Connecticut,True,,18410.0,290.7,9003,Hartford,"{""09003"": 100}",Hartford,09003,False,False,America/New_York,"(41.79185, -72.85107)",7.20516257911531,666326.0,9921_0_yes,41.74315799250693,-72.727432401303,10.0
06002,41.84286,-72.73714,Bloomfield,CT,Connecticut,True,,21128.0,317.5,9003,Hartford,"{""09003"": 100}",Hartford,09003,False,False,America/New_York,"(41.84286, -72.73714)",6.906879209035815,666326.0,9921_0_yes,41.74315799250693,-72.727432401303,10.0
06019,41.8592,-72.90717,Canton,CT,Connecticut,True,,10172.0,174.3,9003,Hartford,"{""09003"": 100}",Hartford,09003,False,False,America/New_York,"(41.8592, -72.90717)",12.246971217723651,666326.0,9921_0_yes,41.74315799250693,-72.727432401303,10.0
06023,41.61355,-72.72072,East Berlin,CT,Connecticut,True,,1632.0,633.4,9003,Hartford,"{""09003"": 99.71, ""09007"": 0.29}",Hartford|Middlesex,09003|09007,False,False,America/New_York,"(41.61355, -72.72072)",8.961756331573708,666326.0,9921_0_yes,41.74315799250693,-72.727432401303,10.0
06032,41.72528,-72.83147,Farmington,CT,Connecticut,True,,17901.0,299.4,9003,Hartford,"{""09003"": 100}",Hartford,09003,False,False,America/New_York,"(41.72528, -72.83147)",5.504599605662017,666326.0,9921_0_yes,41.74315799250693,-72.727432401303,10.0
06033,41.70593,-72.53915,Glastonbury,CT,Connecticut,True,,28738.0,302.0,9003,Hartford,"{""09003"": 100}",Hartford,09003,False,False,America/New_York,"(41.70593, -72.53915)",10.044299874835122,666326.0,9921_0_yes,41.74315799250693,-72.727432401303,10.0
06037,41.61148,-72.7775,Berlin,CT,Connecticut,True,,18828.0,285.4,9003,Hartford,"{""09003"": 100}",Hartford,09003,False,False,America/New_York,"(41.61148, -72.7775)",9.457856814333459,666326.0,9921_0_yes,41.74315799250693,-72.727432401303,10.0
06051,41.66519,-72.76983,New Britain,CT,Connecticut,True,,30618.0,2880.7,9003,Hartford,"{""09003"": 100}",Hartford,09003,False,False,America/New_York,"(41.66519, -72.76983)",5.814102791390132,666326.0,9921_0_yes,41.74315799250693,-72.727432401303,10.0
06052,41.65736,-72.80506,New Britain,CT,Connecticut,True,,7852.0,1169.2,9003,Hartford,"{""09003"": 100}",Hartford,09003,False,False,America/New_York,"(41.65736, -72.80506)",7.1539541946649186,666326.0,9921_0_yes,41.74315799250693,-72.727432401303,10.0
06053,41.68874,-72.7941,New Britain,CT,Connecticut,True,,34142.0,1658.5,9003,Hartford,"{""09003"": 100}",Hartford,09003,False,False,America/New_York,"(41.68874, -72.7941)",5.095046116226777,666326.0,9921_0_yes,41.74315799250693,-72.727432401303,10.0
06062,41.67338,-72.86079,Plainville,CT,Connecticut,True,,17605.0,776.5,9003,Hartford,"{""09003"": 100}",Hartford,09003,False,False,America/New_York,"(41.67338, -72.86079)",8.400058509109448,666326.0,9921_0_yes,41.74315799250693,-72.727432401303,10.0
06067,41.6574,-72.66259,Rocky Hill,CT,Connecticut,True,,20147.0,585.2,9003,Hartford,"{""09003"": 100}",Hartford,09003,False,False,America/New_York,"(41.6574, -72.66259)",6.804319272091522,666326.0,9921_0_yes,41.74315799250693,-72.727432401303,10.0
06070,41.87674,-72.81626,Simsbury,CT,Connecticut,True,,15277.0,258.7,9003,Hartford,"{""09003"": 100}",Hartford,09003,False,False,America/New_York,"(41.87674, -72.81626)",10.3011125923567,666326.0,9921_0_yes,41.74315799250693,-72.727432401303,10.0
06073,41.65753,-72.56742,South Glastonbury,CT,Connecticut,True,,5756.0,153.1,9003,Hartford,"{""09003"": 100}",Hartford,09003,False,False,America/New_York,"(41.65753, -72.56742)",10.155885382701824,666326.0,9921_0_yes,41.74315799250693,-72.727432401303,10.0
06074,41.83528,-72.57332,South Windsor,CT,Connecticut,True,,25962.0,357.3,9003,Hartford,"{""09003"": 100}",Hartford,09003,False,False,America/New_York,"(41.83528, -72.57332)",10.175735964083536,666326.0,9921_0_yes,41.74315799250693,-72.727432401303,10.0
06085,41.74717,-72.88883,Unionville,CT,Connecticut,True,,7204.0,618.5,9003,Hartford,"{""09003"": 100}",Hartford,09003,False,False,America/New_York,"(41.74717, -72.88883)",8.324909645175131,666326.0,9921_0_yes,41.74315799250693,-72.727432401303,10.0
06089,41.83801,-72.82343,Weatogue,CT,Connecticut,True,,3034.0,403.8,9003,Hartford,"{""09003"": 100}",Hartford,09003,False,False,America/New_York,"(41.83801, -72.82343)",8.210146407844377,666326.0,9921_0_yes,41.74315799250693,-72.727432401303,10.0
06092,41.87266,-72.86101,West Simsbury,CT,Connecticut,True,,4958.0,257.8,9003,Hartford,"{""09003"": 100}",Hartford,09003,False,False,America/New_York,"(41.87266, -72.86101)",11.286629835965956,666326.0,9921_0_yes,41.74315799250693,-72.727432401303,10.0
06095,41.87229,-72.67348,Windsor,CT,Connecticut,True,,28829.0,385.2,9003,Hartford,"{""09003"": 100}",Hartford,09003,False,False,America/New_York,"(41.87229, -72.67348)",9.344830416421273,666326.0,9921_0_yes,41.74315799250693,-72.727432401303,10.0
06103,41.76477,-72.67012,Hartford,CT,Connecticut,True,,1883.0,1253.3,9003,Hartford,"{""09003"": 100}",Hartford,09003,False,False,America/New_York,"(41.76477, -72.67012)",3.3100929622995383,666326.0,9921_0_yes,41.74315799250693,-72.727432401303,10.0
06105,41.77322,-72.70442,Hartford,CT,Connecticut,True,,19892.0,3388.7,9003,Hartford,"{""09003"": 100}",Hartford,09003,False,False,America/New_York,"(41.77322, -72.70442)",2.391878969122455,666326.0,9921_0_yes,41.74315799250693,-72.727432401303,10.0
06106,41.74818,-72.69683,Hartford,CT,Connecticut,True,,38012.0,3522.7,9003,Hartford,"{""09003"": 100}",Hartford,09003,False,False,America/New_York,"(41.74818, -72.69683)",1.6152974034963419,666326.0,9921_0_yes,41.74315799250693,-72.727432401303,10.0
06107,41.75375,-72.75966,West Hartford,CT,Connecticut,True,,20017.0,1161.5,9003,Hartford,"{""09003"": 100}",Hartford,09003,False,False,America/New_York,"(41.75375, -72.75966)",1.8153498299266635,666326.0,9921_0_yes,41.74315799250693,-72.727432401303,10.0
06108,41.78078,-72.62165,East Hartford,CT,Connecticut,True,,23996.0,1137.7,9003,Hartford,"{""09003"": 100}",Hartford,09003,False,False,America/New_York,"(41.78078, -72.62165)",6.039814878120476,666326.0,9921_0_yes,41.74315799250693,-72.727432401303,10.0
06109,41.70131,-72.67035,Wethersfield,CT,Connecticut,True,,26068.0,818.1,9003,Hartford,"{""09003"": 100}",Hartford,09003,False,False,America/New_York,"(41.70131, -72.67035)",4.126244822474872,666326.0,9921_0_yes,41.74315799250693,-72.727432401303,10.0
06110,41.73247,-72.73378,West Hartford,CT,Connecticut,True,,12560.0,1490.0,9003,Hartford,"{""09003"": 100}",Hartford,09003,False,False,America/New_York,"(41.73247, -72.73378)",0.807738106009808,666326.0,9921_0_yes,41.74315799250693,-72.727432401303,10.0
06111,41.68677,-72.73057,Newington,CT,Connecticut,True,,30114.0,892.4,9003,Hartford,"{""09003"": 100}",Hartford,09003,False,False,America/New_York,"(41.68677, -72.73057)",3.899398468592183,666326.0,9921_0_yes,41.74315799250693,-72.727432401303,10.0
06112,41.79317,-72.69741,Hartford,CT,Connecticut,True,,19991.0,2599.6,9003,Hartford,"{""09003"": 100}",Hartford,09003,False,False,America/New_York,"(41.79317, -72.69741)",3.7860461938170715,666326.0,9921_0_yes,41.74315799250693,-72.727432401303,10.0
06114,41.7394,-72.66949,Hartford,CT,Connecticut,True,,27823.0,2656.0,9003,Hartford,"{""09003"": 100}",Hartford,09003,False,False,America/New_York,"(41.7394, -72.66949)",2.9984640580361996,666326.0,9921_0_yes,41.74315799250693,-72.727432401303,10.0
06117,41.7875,-72.76203,West Hartford,CT,Connecticut,True,,16593.0,659.2,9003,Hartford,"{""09003"": 100}",Hartford,09003,False,False,America/New_York,"(41.7875, -72.76203)",3.544798117490332,666326.0,9921_0_yes,41.74315799250693,-72.727432401303,10.0
06118,41.74871,-72.60976,East Hartford,CT,Connecticut,True,,26073.0,1020.6,9003,Hartford,"{""09003"": 100}",Hartford,09003,False,False,America/New_York,"(41.74871, -72.60976)",6.078237129223024,666326.0,9921_0_yes,41.74315799250693,-72.727432401303,10.0
06119,41.76351,-72.72711,West Hartford,CT,Connecticut,True,,14733.0,2731.2,9003,Hartford,"{""09003"": 100}",Hartford,09003,False,False,America/New_York,"(41.76351, -72.72711)",1.406287973156749,666326.0,9921_0_yes,41.74315799250693,-72.727432401303,10.0
06120,41.78944,-72.66523,Hartford,CT,Connecticut,True,,14192.0,1551.9,9003,Hartford,"{""09003"": 100}",Hartford,09003,False,False,America/New_York,"(41.78944, -72.66523)",4.527859410997867,666326.0,9921_0_yes,41.74315799250693,-72.727432401303,10.0
06416,41.61218,-72.66382,Cromwell,CT,Connecticut,True,,13865.0,429.9,9007,Middlesex,"{""09007"": 100}",Middlesex,09007,False,False,America/New_York,"(41.61218, -72.66382)",9.626728136748628,666326.0,9921_0_yes,41.74315799250693,-72.727432401303,10.0
06480,41.59885,-72.5893,Portland,CT,Connecticut,True,,9301.0,154.9,9007,Middlesex,"{""09007"": 100}",Middlesex,09007,False,False,America/New_York,"(41.59885, -72.5893)",12.2572542848969,666326.0,9921_0_yes,41.74315799250693,-72.727432401303,10.0
06489,41.61312,-72.87233,Southington,CT,Connecticut,True,,33020.0,460.0,9003,Hartford,"{""09003"": 100}",Hartford,09003,False,False,America/New_York,"(41.61312, -72.87233)",11.689259837081591,666326.0,9921_0_yes,41.74315799250693,-72.727432401303,10.0
