zip,lat,lng,city,state_id,state_name,zcta,parent_zcta,population,density,county_fips,county_name,county_weights,county_names_all,county_fips_all,imprecise,military,timezone,Coord,distance_miles,market_total_population,market_id,market_center_lat,market_center_lng,radius_miles
16313,41.72294,-79.13884,Clarendon,PA,Pennsylvania,True,,1785.0,6.0,42123,Warren,"{""42123"": 100}",Warren,42123,False,False,America/New_York,"(41.72294, -79.13884)",8.88384388713505,27623.0,9938_0_yes,41.754235794896005,-79.30596962098565,10.0
16329,41.80642,-79.27684,Irvine,PA,Pennsylvania,True,,483.0,41.6,42123,Warren,"{""42123"": 100}",Warren,42123,False,False,America/New_York,"(41.80642, -79.27684)",3.90548416474433,27623.0,9938_0_yes,41.754235794896005,-79.30596962098565,10.0
16340,41.79864,-79.41749,Pittsfield,PA,Pennsylvania,True,,1795.0,7.4,42123,Warren,"{""42123"": 100}",Warren,42123,False,False,America/New_York,"(41.79864, -79.41749)",6.5139995964133615,27623.0,9938_0_yes,41.754235794896005,-79.30596962098565,10.0
16351,41.67583,-79.37285,Tidioute,PA,Pennsylvania,True,,1521.0,6.3,42123,Warren,"{""42123"": 86.42, ""42053"": 13.58}",Warren|Forest,42123|42053,False,False,America/New_York,"(41.67583, -79.37285)",6.422288119597956,27623.0,9938_0_yes,41.754235794896005,-79.30596962098565,10.0
16365,41.83943,-79.15324,Warren,PA,Pennsylvania,True,,17675.0,49.0,42123,Warren,"{""42123"": 100}",Warren,42123,False,False,America/New_York,"(41.83943, -79.15324)",9.825504930699484,27623.0,9938_0_yes,41.754235794896005,-79.30596962098565,10.0
16371,41.86751,-79.3187,Youngsville,PA,Pennsylvania,True,,3347.0,40.9,42123,Warren,"{""42123"": 100}",Warren,42123,False,False,America/New_York,"(41.86751, -79.3187)",7.853912675200359,27623.0,9938_0_yes,41.754235794896005,-79.30596962098565,10.0
16416,41.82606,-79.47311,Garland,PA,Pennsylvania,True,,158.0,15.9,42123,Warren,"{""42123"": 100}",Warren,42123,False,False,America/New_York,"(41.82606, -79.47311)",9.938031980367626,27623.0,9938_0_yes,41.754235794896005,-79.30596962098565,10.0
16436,41.85563,-79.49889,Spring Creek,PA,Pennsylvania,True,,859.0,6.8,42123,Warren,"{""42123"": 100}",Warren,42123,False,False,America/New_York,"(41.85563, -79.49889)",12.157506938080259,27623.0,9938_0_yes,41.754235794896005,-79.30596962098565,10.0
