zip,lat,lng,city,state_id,state_name,zcta,parent_zcta,population,density,county_fips,county_name,county_weights,county_names_all,county_fips_all,imprecise,military,timezone,Coord,distance_miles,market_total_population,market_id,market_center_lat,market_center_lng,radius_miles
44045,41.7461,-81.28512,Grand River,OH,Ohio,True,,604.0,248.8,39085,Lake,"{""39085"": 100}",Lake,39085,False,False,America/New_York,"(41.7461, -81.28512)",2.404264306620493,146325.0,9943_0_yes,41.75749478729521,-81.24104879214009,10.0
44057,41.76675,-81.05965,Madison,OH,Ohio,True,,19611.0,151.2,39085,Lake,"{""39085"": 94.32, ""39055"": 5.15, ""39007"": 0.53}",Lake|Geauga|Ashtabula,39085|39055|39007,False,False,America/New_York,"(41.76675, -81.05965)",9.37075936507009,146325.0,9943_0_yes,41.75749478729521,-81.24104879214009,10.0
44060,41.67742,-81.32806,Mentor,OH,Ohio,True,,59882.0,579.0,39085,Lake,"{""39085"": 94.07, ""39055"": 5.93}",Lake|Geauga,39085|39055,False,False,America/New_York,"(41.67742, -81.32806)",7.123743992558217,146325.0,9943_0_yes,41.75749478729521,-81.24104879214009,10.0
44077,41.69933,-81.21142,Painesville,OH,Ohio,True,,56702.0,361.6,39085,Lake,"{""39085"": 100}",Lake,39085,False,False,America/New_York,"(41.69933, -81.21142)",4.299416597322617,146325.0,9943_0_yes,41.75749478729521,-81.24104879214009,10.0
44081,41.76589,-81.14551,Perry,OH,Ohio,True,,7182.0,134.4,39085,Lake,"{""39085"": 100}",Lake,39085,False,False,America/New_York,"(41.76589, -81.14551)",4.957951827350251,146325.0,9943_0_yes,41.75749478729521,-81.24104879214009,10.0
44086,41.67443,-81.05599,Thompson,OH,Ohio,True,,2344.0,33.9,39055,Geauga,"{""39055"": 86.41, ""39085"": 11.76, ""39007"": 1.83}",Geauga|Lake|Ashtabula,39055|39085|39007,False,False,America/New_York,"(41.67443, -81.05599)",11.13706889226011,146325.0,9943_0_yes,41.75749478729521,-81.24104879214009,10.0
