zip,lat,lng,city,state_id,state_name,zcta,parent_zcta,population,density,county_fips,county_name,county_weights,county_names_all,county_fips_all,imprecise,military,timezone,Coord,distance_miles,market_total_population,market_id,market_center_lat,market_center_lng,radius_miles
51446,41.77663,-95.19277,Irwin,IA,Iowa,True,,570.0,6.2,19165,Shelby,"{""19165"": 100}",Shelby,19165,False,False,America/Chicago,"(41.77663, -95.19277)",0.8898161948171334,11928.0,9979_0_yes,41.7809704804917,-95.17651065189716,10.0
51447,41.72101,-95.19196,Kirkman,IA,Iowa,True,,210.0,2.2,19165,Shelby,"{""19165"": 100}",Shelby,19165,False,False,America/Chicago,"(41.72101, -95.19196)",4.2187210833159225,11928.0,9979_0_yes,41.7809704804917,-95.17651065189716,10.0
51454,41.8798,-95.2072,Manilla,IA,Iowa,True,,1421.0,5.7,19047,Crawford,"{""19047"": 57.58, ""19165"": 42.42}",Crawford|Shelby,19047|19165,False,False,America/Chicago,"(41.8798, -95.2072)",7.008875334807787,11928.0,9979_0_yes,41.7809704804917,-95.17651065189716,10.0
51455,41.90829,-95.0559,Manning,IA,Iowa,True,,2223.0,7.6,19027,Carroll,"{""19027"": 55.78, ""19047"": 23.48, ""19009"": 18.23, ""19165"": 2.51}",Carroll|Crawford|Audubon|Shelby,19027|19047|19009|19165,False,False,America/Chicago,"(41.90829, -95.0559)",10.766877784920121,11928.0,9979_0_yes,41.7809704804917,-95.17651065189716,10.0
51527,41.82875,-95.348,Defiance,IA,Iowa,True,,607.0,5.5,19165,Shelby,"{""19165"": 83.27, ""19047"": 16.73}",Shelby|Crawford,19165|19047,False,False,America/Chicago,"(41.82875, -95.348)",9.429104084642919,11928.0,9979_0_yes,41.7809704804917,-95.17651065189716,10.0
51537,41.64646,-95.29531,Harlan,IA,Iowa,True,,6478.0,15.3,19165,Shelby,"{""19165"": 100}",Shelby,19165,False,False,America/Chicago,"(41.64646, -95.29531)",11.131851010446157,11928.0,9979_0_yes,41.7809704804917,-95.17651065189716,10.0
51543,41.65792,-95.07317,Kimballton,IA,Iowa,True,,419.0,7.4,19009,Audubon,"{""19009"": 69.77, ""19165"": 30.23}",Audubon|Shelby,19009|19165,False,False,America/Chicago,"(41.65792, -95.07317)",10.034301093875065,11928.0,9979_0_yes,41.7809704804917,-95.17651065189716,10.0
