zip,lat,lng,city,state_id,state_name,zcta,parent_zcta,population,density,county_fips,county_name,county_weights,county_names_all,county_fips_all,imprecise,military,timezone,Coord,distance_miles,market_total_population,market_id,market_center_lat,market_center_lng,radius_miles
78503,26.16229,-98.25132,Mcallen,TX,Texas,True,,20703.0,416.1,48215,Hidalgo,"{""48215"": 100}",Hidalgo,48215,False,False,America/Chicago,"(26.16229, -98.25132)",126.89345644248472,310444.0,10_0_yes,24.72823100718809,-99.52197200818674,100.0
78516,26.14256,-98.11977,Alamo,TX,Texas,True,,36248.0,370.0,48215,Hidalgo,"{""48215"": 100}",Hidalgo,48215,False,False,America/Chicago,"(26.14256, -98.11977)",131.16211793576286,310444.0,10_0_yes,24.72823100718809,-99.52197200818674,100.0
78537,26.17322,-98.05744,Donna,TX,Texas,True,,45120.0,302.5,48215,Hidalgo,"{""48215"": 100}",Hidalgo,48215,False,False,America/Chicago,"(26.17322, -98.05744)",135.3345836283799,310444.0,10_0_yes,24.72823100718809,-99.52197200818674,100.0
78557,26.10844,-98.25118,Hidalgo,TX,Texas,True,,13984.0,325.4,48215,Hidalgo,"{""48215"": 100}",Hidalgo,48215,False,False,America/Chicago,"(26.10844, -98.25118)",124.02704758641539,310444.0,10_0_yes,24.72823100718809,-99.52197200818674,100.0
78577,26.1665,-98.19082,Pharr,TX,Texas,True,,78731.0,1169.1,48215,Hidalgo,"{""48215"": 100}",Hidalgo,48215,False,False,America/Chicago,"(26.1665, -98.19082)",129.5071734087901,310444.0,10_0_yes,24.72823100718809,-99.52197200818674,100.0
78579,26.0892,-97.94627,Progreso,TX,Texas,True,,5562.0,377.1,48215,Hidalgo,"{""48215"": 100}",Hidalgo,48215,False,False,America/Chicago,"(26.0892, -97.94627)",136.0595190711137,310444.0,10_0_yes,24.72823100718809,-99.52197200818674,100.0
78589,26.15349,-98.15979,San Juan,TX,Texas,True,,41112.0,622.7,48215,Hidalgo,"{""48215"": 100}",Hidalgo,48215,False,False,America/Chicago,"(26.15349, -98.15979)",130.0781681101212,310444.0,10_0_yes,24.72823100718809,-99.52197200818674,100.0
78596,26.10668,-97.99856,Weslaco,TX,Texas,True,,68984.0,664.1,48215,Hidalgo,"{""48215"": 100}",Hidalgo,48215,False,False,America/Chicago,"(26.10668, -97.99856)",134.5671931604287,310444.0,10_0_yes,24.72823100718809,-99.52197200818674,100.0
