zip,lat,lng,city,state_id,state_name,zcta,parent_zcta,population,density,county_fips,county_name,county_weights,county_names_all,county_fips_all,imprecise,military,timezone,Coord,distance_miles,market_total_population,market_id,market_center_lat,market_center_lng,radius_miles
57543,43.74785,-101.52268,Kadoka,SD,South Dakota,True,,726.0,0.6,46071,Jackson,"{""46071"": 100}",Jackson,46071,False,False,America/Denver,"(43.74785, -101.52268)",98.00851119129824,280020.0,111_0_no,43.50232971644914,-103.452748882497,100.0
57551,43.18087,-101.70012,Martin,SD,South Dakota,True,,2492.0,1.3,46007,Bennett,"{""46007"": 100}",Bennett,46007,False,False,America/Denver,"(43.18087, -101.70012)",90.82498922296796,280020.0,111_0_no,43.50232971644914,-103.452748882497,100.0
57553,44.48547,-101.64489,Milesville,SD,South Dakota,True,,104.0,0.2,46055,Haakon,"{""46055"": 100}",Haakon,46055,False,False,America/Denver,"(44.48547, -101.64489)",112.64338295544238,280020.0,111_0_no,43.50232971644914,-103.452748882497,100.0
57567,44.13519,-101.7152,Philip,SD,South Dakota,True,,1356.0,0.5,46055,Haakon,"{""46055"": 74.01, ""46071"": 25.99}",Haakon|Jackson,46055|46071,False,False,America/Denver,"(44.13519, -101.7152)",97.03032550166468,280020.0,111_0_no,43.50232971644914,-103.452748882497,100.0
57577,43.52353,-101.66029,Wanblee,SD,South Dakota,True,,1733.0,3.1,46071,Jackson,"{""46071"": 96.1, ""46007"": 3.9}",Jackson|Bennett,46071|46007,False,False,America/Denver,"(43.52353, -101.66029)",89.82648644036739,280020.0,111_0_no,43.50232971644914,-103.452748882497,100.0
57622,44.65177,-101.54572,Cherry Creek,SD,South Dakota,True,,359.0,1.5,46137,Ziebach,"{""46137"": 100}",Ziebach,46137,False,False,America/Denver,"(44.65177, -101.54572)",123.5563698782771,280020.0,111_0_no,43.50232971644914,-103.452748882497,100.0
57701,44.1209,-103.20562,Rapid City,SD,South Dakota,True,,47155.0,348.7,46103,Pennington,"{""46103"": 64.26, ""46093"": 35.74}",Pennington|Meade,46103|46093,False,False,America/Denver,"(44.1209, -103.20562)",44.47978195975924,280020.0,111_0_no,43.50232971644914,-103.452748882497,100.0
57702,44.03085,-103.38433,Rapid City,SD,South Dakota,True,,34973.0,47.2,46103,Pennington,"{""46103"": 94.34, ""46093"": 5.66}",Pennington|Meade,46103|46093,False,False,America/Denver,"(44.03085, -103.38433)",36.676498273248015,280020.0,111_0_no,43.50232971644914,-103.452748882497,100.0
57703,44.00331,-103.04528,Rapid City,SD,South Dakota,True,,17748.0,52.8,46103,Pennington,"{""46103"": 100}",Pennington,46103,False,False,America/Denver,"(44.00331, -103.04528)",40.146033216690576,280020.0,111_0_no,43.50232971644914,-103.452748882497,100.0
57706,44.1564,-103.09561,Ellsworth Afb,SD,South Dakota,True,,3244.0,204.1,46093,Meade,"{""46093"": 93.42, ""46103"": 6.58}",Meade|Pennington,46093|46103,False,False,America/Denver,"(44.1564, -103.09561)",48.57146843852782,280020.0,111_0_no,43.50232971644914,-103.452748882497,100.0
57714,43.32689,-101.91843,Allen,SD,South Dakota,True,,793.0,1.9,46007,Bennett,"{""46007"": 92.97, ""46071"": 7.03}",Bennett|Jackson,46007|46071,False,False,America/Denver,"(43.32689, -101.91843)",77.95360636907134,280020.0,111_0_no,43.50232971644914,-103.452748882497,100.0
57716,43.07753,-102.2179,Batesland,SD,South Dakota,True,,502.0,1.1,46102,Oglala Lakota,"{""46102"": 92.26, ""46007"": 7.74}",Oglala Lakota|Bennett,46102|46007,False,False,America/Denver,"(43.07753, -102.2179)",68.68930741073041,280020.0,111_0_no,43.50232971644914,-103.452748882497,100.0
57718,44.17925,-103.36801,Black Hawk,SD,South Dakota,True,,7637.0,111.0,46093,Meade,"{""46093"": 98.69, ""46103"": 1.31}",Meade|Pennington,46093|46103,False,False,America/Denver,"(44.17925, -103.36801)",46.960987199173594,280020.0,111_0_no,43.50232971644914,-103.452748882497,100.0
57719,44.23059,-102.98312,Box Elder,SD,South Dakota,True,,8156.0,18.8,46093,Meade,"{""46093"": 76.57, ""46103"": 23.43}",Meade|Pennington,46093|46103,False,False,America/Denver,"(44.23059, -102.98312)",55.49000856798995,280020.0,111_0_no,43.50232971644914,-103.452748882497,100.0
57722,43.45722,-102.98149,Buffalo Gap,SD,South Dakota,True,,213.0,0.2,46102,Oglala Lakota,"{""46102"": 54.46, ""46033"": 31.26, ""46047"": 14.28}",Oglala Lakota|Custer|Fall River,46102|46033|46047,False,False,America/Denver,"(43.45722, -102.98149)",23.831402858310046,280020.0,111_0_no,43.50232971644914,-103.452748882497,100.0
57725,43.93723,-102.80324,Caputa,SD,South Dakota,True,,354.0,1.2,46103,Pennington,"{""46103"": 100}",Pennington,46103,False,False,America/Denver,"(43.93723, -102.80324)",44.21368968978544,280020.0,111_0_no,43.50232971644914,-103.452748882497,100.0
57730,43.72561,-103.63733,Custer,SD,South Dakota,True,,5995.0,4.5,46033,Custer,"{""46033"": 91.64, ""46103"": 8.36}",Custer|Pennington,46033|46103,False,False,America/Denver,"(43.72561, -103.63733)",17.979290727779837,280020.0,111_0_no,43.50232971644914,-103.452748882497,100.0
57732,44.23782,-103.64335,Deadwood,SD,South Dakota,True,,2108.0,6.5,46081,Lawrence,"{""46081"": 89.79, ""46103"": 10.21}",Lawrence|Pennington,46081|46103,False,False,America/Denver,"(44.23782, -103.64335)",51.696729192923144,280020.0,111_0_no,43.50232971644914,-103.452748882497,100.0
57735,43.29086,-103.85626,Edgemont,SD,South Dakota,True,,1292.0,0.6,46047,Fall River,"{""46047"": 77.35, ""46033"": 20.78, ""31165"": 1.87}",Fall River|Custer|Sioux,46047|46033|31165,False,False,America/Denver,"(43.29086, -103.85626)",24.97740468014192,280020.0,111_0_no,43.50232971644914,-103.452748882497,100.0
57738,43.66281,-103.13024,Fairburn,SD,South Dakota,True,,122.0,0.3,46033,Custer,"{""46033"": 100}",Custer,46033,False,False,America/Denver,"(43.66281, -103.13024)",19.583053796293125,280020.0,111_0_no,43.50232971644914,-103.452748882497,100.0
57741,44.41044,-103.47273,Fort Meade,SD,South Dakota,True,,154.0,361.7,46093,Meade,"{""46093"": 100}",Meade,46093,False,False,America/Denver,"(44.41044, -103.47273)",62.75231389734551,280020.0,111_0_no,43.50232971644914,-103.452748882497,100.0
57744,43.7773,-103.02415,Hermosa,SD,South Dakota,True,,2222.0,1.8,46033,Custer,"{""46033"": 63.68, ""46103"": 21.53, ""46102"": 14.79}",Custer|Pennington|Oglala Lakota,46033|46103|46102,False,False,America/Denver,"(43.7773, -103.02415)",28.63966230706623,280020.0,111_0_no,43.50232971644914,-103.452748882497,100.0
57745,44.01304,-103.78616,Hill City,SD,South Dakota,True,,2111.0,2.1,46103,Pennington,"{""46103"": 100}",Pennington,46103,False,False,America/Denver,"(44.01304, -103.78616)",39.01267357955939,280020.0,111_0_no,43.50232971644914,-103.452748882497,100.0
57747,43.37973,-103.5231,Hot Springs,SD,South Dakota,True,,5802.0,4.4,46047,Fall River,"{""46047"": 73.26, ""46033"": 26.74}",Fall River|Custer,46047|46033,False,False,America/Denver,"(43.37973, -103.5231)",9.176668865762972,280020.0,111_0_no,43.50232971644914,-103.452748882497,100.0
57748,44.58484,-102.01082,Howes,SD,South Dakota,True,,292.0,0.3,46093,Meade,"{""46093"": 55.59, ""46137"": 44.41}",Meade|Ziebach,46093|46137,False,False,America/Denver,"(44.58484, -102.01082)",103.54701860722145,280020.0,111_0_no,43.50232971644914,-103.452748882497,100.0
57750,43.60109,-101.94858,Interior,SD,South Dakota,True,,115.0,0.1,46071,Jackson,"{""46071"": 97.99, ""46103"": 2.01}",Jackson|Pennington,46071|46103,False,False,America/Denver,"(43.60109, -101.94858)",75.62963713311085,280020.0,111_0_no,43.50232971644914,-103.452748882497,100.0
57751,43.86767,-103.42346,Keystone,SD,South Dakota,True,,1169.0,10.2,46103,Pennington,"{""46103"": 66.7, ""46033"": 33.3}",Pennington|Custer,46103|46033,False,False,America/Denver,"(43.86767, -103.42346)",25.28499301138624,280020.0,111_0_no,43.50232971644914,-103.452748882497,100.0
57752,43.43593,-102.20738,Kyle,SD,South Dakota,True,,1723.0,1.5,46102,Oglala Lakota,"{""46102"": 82.75, ""46071"": 13.96, ""46007"": 3.29}",Oglala Lakota|Jackson|Bennett,46102|46071|46007,False,False,America/Denver,"(43.43593, -102.20738)",62.6157448826222,280020.0,111_0_no,43.50232971644914,-103.452748882497,100.0
57754,44.26193,-103.87478,Lead,SD,South Dakota,True,,3736.0,5.4,46081,Lawrence,"{""46081"": 100}",Lawrence,46081,False,False,America/Denver,"(44.26193, -103.87478)",56.53499279818019,280020.0,111_0_no,43.50232971644914,-103.452748882497,100.0
57756,43.23729,-102.47544,Manderson,SD,South Dakota,True,,721.0,4.2,46102,Oglala Lakota,"{""46102"": 100}",Oglala Lakota,46102,False,False,America/Denver,"(43.23729, -102.47544)",52.39105000303591,280020.0,111_0_no,43.50232971644914,-103.452748882497,100.0
57759,44.2202,-103.55373,Nemo,SD,South Dakota,True,,559.0,4.1,46081,Lawrence,"{""46081"": 100}",Lawrence,46081,False,False,America/Denver,"(44.2202, -103.55373)",49.85456161909721,280020.0,111_0_no,43.50232971644914,-103.452748882497,100.0
57760,44.93063,-103.30329,Newell,SD,South Dakota,True,,1142.0,0.4,46019,Butte,"{""46019"": 98.21, ""46063"": 1.79}",Butte|Harding,46019|46063,False,False,America/Denver,"(44.93063, -103.30329)",98.96324055934164,280020.0,111_0_no,43.50232971644914,-103.452748882497,100.0
57761,44.21858,-102.75943,New Underwood,SD,South Dakota,True,,1470.0,1.3,46093,Meade,"{""46093"": 66.88, ""46103"": 33.12}",Meade|Pennington,46093|46103,False,False,America/Denver,"(44.21858, -102.75943)",60.34922052829575,280020.0,111_0_no,43.50232971644914,-103.452748882497,100.0
57762,44.75285,-103.60902,Nisland,SD,South Dakota,True,,445.0,1.6,46019,Butte,"{""46019"": 100}",Butte,46019,False,False,America/Denver,"(44.75285, -103.60902)",86.7495646980756,280020.0,111_0_no,43.50232971644914,-103.452748882497,100.0
57763,43.12,-103.24944,Oelrichs,SD,South Dakota,True,,323.0,0.3,46047,Fall River,"{""46047"": 100}",Fall River,46047,False,False,America/Denver,"(43.12, -103.24944)",28.32498288136375,280020.0,111_0_no,43.50232971644914,-103.452748882497,100.0
57764,43.23676,-102.75539,Oglala,SD,South Dakota,True,,2568.0,3.6,46102,Oglala Lakota,"{""46102"": 100}",Oglala Lakota,46102,False,False,America/Denver,"(43.23676, -102.75539)",39.541128234361864,280020.0,111_0_no,43.50232971644914,-103.452748882497,100.0
57766,43.35772,-103.18252,Oral,SD,South Dakota,True,,140.0,0.4,46047,Fall River,"{""46047"": 100}",Fall River,46047,False,False,America/Denver,"(43.35772, -103.18252)",16.842875718387116,280020.0,111_0_no,43.50232971644914,-103.452748882497,100.0
57767,44.13841,-102.5721,Owanka,SD,South Dakota,True,,158.0,0.4,46093,Meade,"{""46093"": 50.68, ""46103"": 49.32}",Meade|Pennington,46093|46103,False,False,America/Denver,"(44.13841, -102.5721)",62.11927324980793,280020.0,111_0_no,43.50232971644914,-103.452748882497,100.0
57769,44.24326,-103.29704,Piedmont,SD,South Dakota,True,,3984.0,11.3,46093,Meade,"{""46093"": 100}",Meade,46093,False,False,America/Denver,"(44.24326, -103.29704)",51.777508779705435,280020.0,111_0_no,43.50232971644914,-103.452748882497,100.0
57770,43.07579,-102.6258,Pine Ridge,SD,South Dakota,True,,6349.0,12.6,46102,Oglala Lakota,"{""46102"": 100}",Oglala Lakota,46102,False,False,America/Denver,"(43.07579, -102.6258)",50.97286064861832,280020.0,111_0_no,43.50232971644914,-103.452748882497,100.0
57772,43.48182,-102.51903,Porcupine,SD,South Dakota,True,,2060.0,1.6,46102,Oglala Lakota,"{""46102"": 100}",Oglala Lakota,46102,False,False,America/Denver,"(43.48182, -102.51903)",46.824023016777815,280020.0,111_0_no,43.50232971644914,-103.452748882497,100.0
57773,43.59443,-103.59246,Pringle,SD,South Dakota,True,,254.0,16.4,46033,Custer,"{""46033"": 100}",Custer,46033,False,False,America/Denver,"(43.59443, -103.59246)",9.4575660979015,280020.0,111_0_no,43.50232971644914,-103.452748882497,100.0
57775,44.08368,-102.00607,Quinn,SD,South Dakota,True,,362.0,0.5,46103,Pennington,"{""46103"": 45.52, ""46055"": 40.38, ""46071"": 14.1}",Pennington|Haakon|Jackson,46103|46055|46071,False,False,America/Denver,"(44.08368, -102.00607)",82.57807690657114,280020.0,111_0_no,43.50232971644914,-103.452748882497,100.0
57779,44.56449,-103.75969,Saint Onge,SD,South Dakota,True,,140.0,1.3,46081,Lawrence,"{""46081"": 96.33, ""46019"": 3.67}",Lawrence|Butte,46081|46019,False,False,America/Denver,"(44.56449, -103.75969)",74.95520248570097,280020.0,111_0_no,43.50232971644914,-103.452748882497,100.0
57780,43.7773,-102.45844,Scenic,SD,South Dakota,True,,36.0,0.0,46103,Pennington,"{""46103"": 91.11, ""46102"": 8.89}",Pennington|Oglala Lakota,46103|46102,False,False,America/Denver,"(43.7773, -102.45844)",53.2237011013629,280020.0,111_0_no,43.50232971644914,-103.452748882497,100.0
57782,43.25182,-103.1844,Smithwick,SD,South Dakota,True,,42.0,0.3,46047,Fall River,"{""46047"": 100}",Fall River,46047,False,False,America/Denver,"(43.25182, -103.1844)",21.936379894250575,280020.0,111_0_no,43.50232971644914,-103.452748882497,100.0
57783,44.47106,-103.9219,Spearfish,SD,South Dakota,True,,16001.0,29.0,46081,Lawrence,"{""46081"": 96.26, ""46019"": 3.74}",Lawrence|Butte,46081|46019,False,False,America/Denver,"(44.47106, -103.9219)",70.87957597816676,280020.0,111_0_no,43.50232971644914,-103.452748882497,100.0
57785,44.41905,-103.21534,Sturgis,SD,South Dakota,True,,9728.0,6.6,46093,Meade,"{""46093"": 94.09, ""46081"": 5.91}",Meade|Lawrence,46093|46081,False,False,America/Denver,"(44.41905, -103.21534)",64.43039494154957,280020.0,111_0_no,43.50232971644914,-103.452748882497,100.0
57787,44.6643,-102.66097,Union Center,SD,South Dakota,True,,305.0,0.2,46093,Meade,"{""46093"": 100}",Meade,46093,False,False,America/Denver,"(44.6643, -102.66097)",89.38497480347424,280020.0,111_0_no,43.50232971644914,-103.452748882497,100.0
57788,44.61855,-103.2167,Vale,SD,South Dakota,True,,446.0,0.7,46019,Butte,"{""46019"": 59.12, ""46093"": 40.88}",Butte|Meade,46019|46093,False,False,America/Denver,"(44.61855, -103.2167)",78.00880513706348,280020.0,111_0_no,43.50232971644914,-103.452748882497,100.0
57790,44.10378,-102.20683,Wall,SD,South Dakota,True,,1122.0,0.6,46103,Pennington,"{""46103"": 98.07, ""46071"": 1.93}",Pennington|Jackson,46103|46071,False,False,America/Denver,"(44.10378, -102.20683)",74.74476059138944,280020.0,111_0_no,43.50232971644914,-103.452748882497,100.0
57791,44.24388,-102.46514,Wasta,SD,South Dakota,True,,177.0,0.2,46093,Meade,"{""46093"": 70.73, ""46103"": 29.27}",Meade|Pennington,46093|46103,False,False,America/Denver,"(44.24388, -102.46514)",71.02616748244795,280020.0,111_0_no,43.50232971644914,-103.452748882497,100.0
57792,44.59559,-102.36376,White Owl,SD,South Dakota,True,,127.0,0.3,46093,Meade,"{""46093"": 100}",Meade,46093,False,False,America/Denver,"(44.59559, -102.36376)",92.89834582250997,280020.0,111_0_no,43.50232971644914,-103.452748882497,100.0
57793,44.51824,-103.581,Whitewood,SD,South Dakota,True,,2192.0,5.6,46081,Lawrence,"{""46081"": 54.19, ""46093"": 38.62, ""46019"": 7.19}",Lawrence|Meade|Butte,46081|46093|46019,False,False,America/Denver,"(44.51824, -103.581)",70.48142079433735,280020.0,111_0_no,43.50232971644914,-103.452748882497,100.0
57794,43.12071,-102.40695,Wounded Knee,SD,South Dakota,True,,281.0,2.1,46102,Oglala Lakota,"{""46102"": 100}",Oglala Lakota,46102,False,False,America/Denver,"(43.12071, -102.40695)",58.817855673587395,280020.0,111_0_no,43.50232971644914,-103.452748882497,100.0
57799,44.49817,-103.87256,Spearfish,SD,South Dakota,True,,680.0,1395.4,46081,Lawrence,"{""46081"": 100}",Lawrence,46081,False,False,America/Denver,"(44.49817, -103.87256)",71.89980300743245,280020.0,111_0_no,43.50232971644914,-103.452748882497,100.0
69218,42.78005,-101.63227,Merriman,NE,Nebraska,True,,349.0,0.3,31031,Cherry,"{""31031"": 100}",Cherry,31031,False,False,America/Denver,"(42.78005, -101.63227)",104.4670679053483,280020.0,111_0_no,43.50232971644914,-103.452748882497,100.0
69301,42.12297,-102.88593,Alliance,NE,Nebraska,True,,9591.0,3.6,31013,Box Butte,"{""31013"": 59.45, ""31161"": 23.5, ""31123"": 17.05}",Box Butte|Sheridan|Morrill,31013|31161|31123,False,False,America/Denver,"(42.12297, -102.88593)",99.54004993832957,280020.0,111_0_no,43.50232971644914,-103.452748882497,100.0
69337,42.86566,-102.99513,Chadron,NE,Nebraska,True,,6976.0,3.5,31045,Dawes,"{""31045"": 78.95, ""46102"": 11.41, ""31161"": 6.53, ""46047"": 3.11}",Dawes|Oglala Lakota|Sheridan|Fall River,31045|46102|31161|46047,False,False,America/Denver,"(42.86566, -102.99513)",49.664877279599814,280020.0,111_0_no,43.50232971644914,-103.452748882497,100.0
69339,42.60649,-103.42939,Crawford,NE,Nebraska,True,,1454.0,1.4,31045,Dawes,"{""31045"": 67.38, ""31165"": 32.62}",Dawes|Sioux,31045|31165,False,False,America/Denver,"(42.60649, -103.42939)",61.90786182940248,280020.0,111_0_no,43.50232971644914,-103.452748882497,100.0
69340,42.15192,-102.21378,Ellsworth,NE,Nebraska,True,,58.0,0.1,31161,Sheridan,"{""31161"": 76.21, ""31069"": 17.27, ""31031"": 6.52}",Sheridan|Garden|Cherry,31161|31069|31031,False,False,America/Denver,"(42.15192, -102.21378)",112.45759311980869,280020.0,111_0_no,43.50232971644914,-103.452748882497,100.0
69343,42.66842,-101.94084,Gordon,NE,Nebraska,True,,2521.0,0.7,31031,Cherry,"{""31031"": 59.95, ""31161"": 40.05}",Cherry|Sheridan,31031|31161,False,False,America/Denver,"(42.66842, -101.94084)",95.60286202979975,280020.0,111_0_no,43.50232971644914,-103.452748882497,100.0
69346,42.66459,-103.80651,Harrison,NE,Nebraska,True,,518.0,0.2,31165,Sioux,"{""31165"": 100}",Sioux,31165,False,False,America/Denver,"(42.66459, -103.80651)",60.57250724772638,280020.0,111_0_no,43.50232971644914,-103.452748882497,100.0
69347,42.59693,-102.6753,Hay Springs,NE,Nebraska,True,,1327.0,1.1,31161,Sheridan,"{""31161"": 82.35, ""31045"": 17.65}",Sheridan|Dawes,31161|31045,False,False,America/Denver,"(42.59693, -102.6753)",73.85225027328137,280020.0,111_0_no,43.50232971644914,-103.452748882497,100.0
69348,42.3299,-103.18777,Hemingford,NE,Nebraska,True,,1449.0,1.0,31013,Box Butte,"{""31013"": 70.04, ""31045"": 15.97, ""31165"": 13.99}",Box Butte|Dawes|Sioux,31013|31045|31165,False,False,America/Denver,"(42.3299, -103.18777)",82.10918019779454,280020.0,111_0_no,43.50232971644914,-103.452748882497,100.0
69351,42.1171,-102.42096,Lakeside,NE,Nebraska,True,,248.0,0.1,31161,Sheridan,"{""31161"": 59.72, ""31069"": 40.28}",Sheridan|Garden,31161|31069,False,False,America/Denver,"(42.1171, -102.42096)",109.06491330128398,280020.0,111_0_no,43.50232971644914,-103.452748882497,100.0
69354,42.40812,-103.42469,Marsland,NE,Nebraska,True,,49.0,0.1,31165,Sioux,"{""31165"": 49.79, ""31045"": 34.71, ""31013"": 15.49}",Sioux|Dawes|Box Butte,31165|31045|31013,False,False,America/Denver,"(42.40812, -103.42469)",75.61600255572195,280020.0,111_0_no,43.50232971644914,-103.452748882497,100.0
69357,42.0776,-103.79553,Mitchell,NE,Nebraska,True,,3369.0,3.5,31165,Sioux,"{""31165"": 68.56, ""31157"": 31.44}",Sioux|Scotts Bluff,31165|31157,False,False,America/Denver,"(42.0776, -103.79553)",99.96173105211244,280020.0,111_0_no,43.50232971644914,-103.452748882497,100.0
69358,42.07503,-103.96617,Morrill,NE,Nebraska,True,,2038.0,4.0,31165,Sioux,"{""31165"": 71.9, ""31157"": 28.1}",Sioux|Scotts Bluff,31165|31157,False,False,America/Denver,"(42.07503, -103.96617)",101.99466492873474,280020.0,111_0_no,43.50232971644914,-103.452748882497,100.0
69360,42.74359,-102.48979,Rushville,NE,Nebraska,True,,1294.0,1.5,31161,Sheridan,"{""31161"": 100}",Sheridan,31161,False,False,America/Denver,"(42.74359, -102.48979)",71.45929825870088,280020.0,111_0_no,43.50232971644914,-103.452748882497,100.0
69366,42.13175,-101.5421,Whitman,NE,Nebraska,True,,284.0,0.2,31031,Cherry,"{""31031"": 58.32, ""31075"": 39.42, ""31005"": 2.26}",Cherry|Grant|Arthur,31031|31075|31005,False,False,America/Denver,"(42.13175, -101.5421)",135.43563724118906,280020.0,111_0_no,43.50232971644914,-103.452748882497,100.0
69367,42.81651,-103.32332,Whitney,NE,Nebraska,True,,265.0,0.4,31045,Dawes,"{""31045"": 100}",Dawes,31045,False,False,America/Denver,"(42.81651, -103.32332)",47.8325102241135,280020.0,111_0_no,43.50232971644914,-103.452748882497,100.0
82212,42.26126,-104.51995,Fort Laramie,WY,Wyoming,True,,577.0,0.6,56015,Goshen,"{""56015"": 100}",Goshen,56015,False,False,America/Denver,"(42.26126, -104.51995)",101.3505607701276,280020.0,111_0_no,43.50232971644914,-103.452748882497,100.0
82213,42.50216,-105.00672,Glendo,WY,Wyoming,True,,349.0,0.3,56031,Platte,"{""56031"": 100}",Platte,56031,False,False,America/Denver,"(42.50216, -105.00672)",104.59675411092496,280020.0,111_0_no,43.50232971644914,-103.452748882497,100.0
82214,42.26421,-104.75104,Guernsey,WY,Wyoming,True,,1179.0,6.1,56031,Platte,"{""56031"": 100}",Platte,56031,False,False,America/Denver,"(42.26421, -104.75104)",107.87849580699597,280020.0,111_0_no,43.50232971644914,-103.452748882497,100.0
82215,42.39738,-104.71507,Hartville,WY,Wyoming,True,,119.0,0.8,56031,Platte,"{""56031"": 100}",Platte,56031,False,False,America/Denver,"(42.39738, -104.71507)",99.51606224073794,280020.0,111_0_no,43.50232971644914,-103.452748882497,100.0
82219,42.4973,-104.50627,Jay Em,WY,Wyoming,True,,28.0,0.1,56015,Goshen,"{""56015"": 100}",Goshen,56015,False,False,America/Denver,"(42.4973, -104.50627)",87.4977670201625,280020.0,111_0_no,43.50232971644914,-103.452748882497,100.0
82222,43.16311,-104.64988,Lance Creek,WY,Wyoming,True,,129.0,0.2,56027,Niobrara,"{""56027"": 100}",Niobrara,56027,False,False,America/Denver,"(43.16311, -104.64988)",64.56779136098935,280020.0,111_0_no,43.50232971644914,-103.452748882497,100.0
82223,42.12035,-104.38503,Lingle,WY,Wyoming,True,,850.0,2.7,56015,Goshen,"{""56015"": 100}",Goshen,56015,False,False,America/Denver,"(42.12035, -104.38503)",106.53669141787313,280020.0,111_0_no,43.50232971644914,-103.452748882497,100.0
82224,42.93677,-104.88811,Lost Springs,WY,Wyoming,True,,10.0,0.0,56009,Converse,"{""56009"": 51.82, ""56027"": 48.18}",Converse|Niobrara,56009|56027,False,False,America/Denver,"(42.93677, -104.88811)",82.15757071613986,280020.0,111_0_no,43.50232971644914,-103.452748882497,100.0
82225,42.95428,-104.31385,Lusk,WY,Wyoming,True,,1887.0,0.7,56027,Niobrara,"{""56027"": 94.36, ""56015"": 5.64}",Niobrara|Goshen,56027|56015,False,False,America/Denver,"(42.95428, -104.31385)",57.559647756150355,280020.0,111_0_no,43.50232971644914,-103.452748882497,100.0
82227,42.72083,-104.72875,Manville,WY,Wyoming,True,,211.0,0.3,56027,Niobrara,"{""56027"": 100}",Niobrara,56027,False,False,America/Denver,"(42.72083, -104.72875)",84.01004556140587,280020.0,111_0_no,43.50232971644914,-103.452748882497,100.0
82229,42.85613,-104.9863,Shawnee,WY,Wyoming,True,,1.0,0.0,56009,Converse,"{""56009"": 100}",Converse,56009,False,False,America/Denver,"(42.85613, -104.9863)",89.23665574881257,280020.0,111_0_no,43.50232971644914,-103.452748882497,100.0
82240,42.23064,-104.17824,Torrington,WY,Wyoming,True,,10680.0,6.2,56015,Goshen,"{""56015"": 100}",Goshen,56015,False,False,America/Denver,"(42.23064, -104.17824)",95.23622682035626,280020.0,111_0_no,43.50232971644914,-103.452748882497,100.0
82242,42.67694,-104.13886,Van Tassell,WY,Wyoming,True,,23.0,0.1,56027,Niobrara,"{""56027"": 87.39, ""56015"": 12.61}",Niobrara|Goshen,56027|56015,False,False,America/Denver,"(42.67694, -104.13886)",66.71395987157818,280020.0,111_0_no,43.50232971644914,-103.452748882497,100.0
82633,42.99525,-105.39874,Douglas,WY,Wyoming,True,,9705.0,1.5,56009,Converse,"{""56009"": 98.96, ""56027"": 1.04}",Converse|Niobrara,56009|56027,False,False,America/Denver,"(42.99525, -105.39874)",104.010351027552,280020.0,111_0_no,43.50232971644914,-103.452748882497,100.0
82701,43.71185,-104.4451,Newcastle,WY,Wyoming,True,,5164.0,1.1,56045,Weston,"{""56045"": 76.6, ""56027"": 9.34, ""56005"": 6.18, ""46033"": 4.38, ""46103"": 3.5}",Weston|Niobrara|Campbell|Custer|Pennington,56045|56027|56005|46033|46103,False,False,America/Denver,"(43.71185, -104.4451)",51.71409533145184,280020.0,111_0_no,43.50232971644914,-103.452748882497,100.0
82710,44.71488,-104.28465,Aladdin,WY,Wyoming,True,,127.0,0.2,56011,Crook,"{""56011"": 100}",Crook,56011,False,False,America/Denver,"(44.71488, -104.28465)",93.3916911359837,280020.0,111_0_no,43.50232971644914,-103.452748882497,100.0
82711,44.71157,-104.48062,Alva,WY,Wyoming,True,,80.0,0.3,56011,Crook,"{""56011"": 100}",Crook,56011,False,False,America/Denver,"(44.71157, -104.48062)",97.88131414353053,280020.0,111_0_no,43.50232971644914,-103.452748882497,100.0
82712,44.52594,-104.12372,Beulah,WY,Wyoming,True,,337.0,1.7,56011,Crook,"{""56011"": 100}",Crook,56011,False,False,America/Denver,"(44.52594, -104.12372)",78.18857562699664,280020.0,111_0_no,43.50232971644914,-103.452748882497,100.0
82714,44.5519,-104.68009,Devils Tower,WY,Wyoming,True,,66.0,1.1,56011,Crook,"{""56011"": 100}",Crook,56011,False,False,America/Denver,"(44.5519, -104.68009)",94.74259679042238,280020.0,111_0_no,43.50232971644914,-103.452748882497,100.0
82720,44.79324,-104.67241,Hulett,WY,Wyoming,True,,643.0,0.4,56011,Crook,"{""56011"": 100}",Crook,56011,False,False,America/Denver,"(44.79324, -104.67241)",107.75518653459585,280020.0,111_0_no,43.50232971644914,-103.452748882497,100.0
82721,44.46199,-104.89808,Moorcroft,WY,Wyoming,True,,3433.0,1.9,56011,Crook,"{""56011"": 100}",Crook,56011,False,False,America/Denver,"(44.46199, -104.89808)",97.77188837036316,280020.0,111_0_no,43.50232971644914,-103.452748882497,100.0
82723,43.98898,-104.42397,Osage,WY,Wyoming,True,,111.0,0.3,56045,Weston,"{""56045"": 100}",Weston,56045,False,False,America/Denver,"(43.98898, -104.42397)",58.996673386108874,280020.0,111_0_no,43.50232971644914,-103.452748882497,100.0
82727,44.33595,-105.19426,Rozet,WY,Wyoming,True,,1568.0,1.4,56005,Campbell,"{""56005"": 94.97, ""56011"": 5.03}",Campbell|Crook,56005|56011,False,False,America/Denver,"(44.33595, -105.19426)",104.06280980201723,280020.0,111_0_no,43.50232971644914,-103.452748882497,100.0
82729,44.36384,-104.38734,Sundance,WY,Wyoming,True,,2734.0,2.0,56011,Crook,"{""56011"": 93.81, ""56045"": 6.19}",Crook|Weston,56011|56045,False,False,America/Denver,"(44.36384, -104.38734)",75.53507386470874,280020.0,111_0_no,43.50232971644914,-103.452748882497,100.0
82730,44.04378,-104.70031,Upton,WY,Wyoming,True,,1846.0,1.2,56045,Weston,"{""56045"": 90.03, ""56011"": 9.97}",Weston|Crook,56045|56011,False,False,America/Denver,"(44.04378, -104.70031)",72.61892138119848,280020.0,111_0_no,43.50232971644914,-103.452748882497,100.0
82731,44.80203,-105.23982,Weston,WY,Wyoming,True,,175.0,0.2,56005,Campbell,"{""56005"": 100}",Campbell,56005,False,False,America/Denver,"(44.80203, -105.23982)",126.139452907429,280020.0,111_0_no,43.50232971644914,-103.452748882497,100.0
