zip,lat,lng,city,state_id,state_name,zcta,parent_zcta,population,density,county_fips,county_name,county_weights,county_names_all,county_fips_all,imprecise,military,timezone,Coord,distance_miles,market_total_population,market_id,market_center_lat,market_center_lng,radius_miles
13614,44.53081,-75.69194,Brier Hill,NY,New York,True,,355.0,15.7,36089,St. Lawrence,"{""36089"": 100}",St. Lawrence,36089,False,False,America/Toronto,"(44.53081, -75.69194)",127.53095974182712,19425.0,119_0_no,45.90637501956425,-77.43934489644843,100.0
13633,44.48259,-75.48825,De Peyster,NY,New York,True,,249.0,5.2,36089,St. Lawrence,"{""36089"": 100}",St. Lawrence,36089,False,False,America/New_York,"(44.48259, -75.48825)",136.74812813964007,19425.0,119_0_no,45.90637501956425,-77.43934489644843,100.0
13654,44.56654,-75.46067,Heuvelton,NY,New York,True,,2603.0,15.2,36089,St. Lawrence,"{""36089"": 100}",St. Lawrence,36089,False,False,America/New_York,"(44.56654, -75.46067)",133.55101899805317,19425.0,119_0_no,45.90637501956425,-77.43934489644843,100.0
13664,44.58423,-75.64537,Morristown,NY,New York,True,,348.0,137.8,36089,St. Lawrence,"{""36089"": 100}",St. Lawrence,36089,False,False,America/Toronto,"(44.58423, -75.64537)",126.33159044037704,19425.0,119_0_no,45.90637501956425,-77.43934489644843,100.0
13669,44.65004,-75.49861,Ogdensburg,NY,New York,True,,15870.0,60.4,36089,St. Lawrence,"{""36089"": 100}",St. Lawrence,36089,False,False,America/New_York,"(44.65004, -75.49861)",128.20361811210492,19425.0,119_0_no,45.90637501956425,-77.43934489644843,100.0
