zip,lat,lng,city,state_id,state_name,zcta,parent_zcta,population,density,county_fips,county_name,county_weights,county_names_all,county_fips_all,imprecise,military,timezone,Coord,distance_miles,market_total_population,market_id,market_center_lat,market_center_lng,radius_miles
59001,45.52952,-109.54022,Absarokee,MT,Montana,True,,1574.0,4.3,30095,Stillwater,"{""30095"": 94.29, ""30009"": 5.71}",Stillwater|Carbon,30095|30009,False,False,America/Denver,"(45.52952, -109.54022)",91.03981355242551,407041.0,127_0_no,46.51531221726122,-110.79938982989653,100.0
59007,45.15555,-109.15805,Bearcreek,MT,Montana,True,,157.0,1.9,30009,Carbon,"{""30009"": 100}",Carbon,30009,False,False,America/Denver,"(45.15555, -109.15805)",122.75264546168803,407041.0,127_0_no,46.51531221726122,-110.79938982989653,100.0
59008,45.07982,-109.07496,Belfry,MT,Montana,True,,519.0,1.6,30009,Carbon,"{""30009"": 100}",Carbon,30009,False,False,America/Denver,"(45.07982, -109.07496)",129.36729467353666,407041.0,127_0_no,46.51531221726122,-110.79938982989653,100.0
59011,45.92453,-109.97244,Big Timber,MT,Montana,True,,3083.0,1.3,30097,Sweet Grass,"{""30097"": 100}",Sweet Grass,30097,False,False,America/Denver,"(45.92453, -109.97244)",56.8238449764422,407041.0,127_0_no,46.51531221726122,-110.79938982989653,100.0
59013,45.46131,-109.08054,Boyd,MT,Montana,True,,132.0,11.8,30009,Carbon,"{""30009"": 100}",Carbon,30009,False,False,America/Denver,"(45.46131, -109.08054)",110.05100912456432,407041.0,127_0_no,46.51531221726122,-110.79938982989653,100.0
59015,46.08464,-108.83464,Broadview,MT,Montana,True,,439.0,0.7,30111,Yellowstone,"{""30111"": 51.72, ""30095"": 28.87, ""30065"": 19.41}",Yellowstone|Stillwater|Musselshell,30111|30095|30065,False,False,America/Denver,"(46.08464, -108.83464)",98.39236459273828,407041.0,127_0_no,46.51531221726122,-110.79938982989653,100.0
59018,45.85791,-110.62326,Clyde Park,MT,Montana,True,,475.0,1.0,30067,Park,"{""30067"": 100}",Park,30067,False,False,America/Denver,"(45.85791, -110.62326)",46.1968720609746,407041.0,127_0_no,46.51531221726122,-110.79938982989653,100.0
59019,45.62995,-109.24208,Columbus,MT,Montana,True,,4275.0,5.4,30095,Stillwater,"{""30095"": 97.83, ""30009"": 2.17}",Stillwater|Carbon,30095|30009,False,False,America/Denver,"(45.62995, -109.24208)",96.50710758973418,407041.0,127_0_no,46.51531221726122,-110.79938982989653,100.0
59020,45.08831,-110.01499,Cooke City,MT,Montana,True,,69.0,0.1,30067,Park,"{""30067"": 100}",Park,30067,False,False,America/Denver,"(45.08831, -110.01499)",105.58642508865057,407041.0,127_0_no,46.51531221726122,-110.79938982989653,100.0
59026,45.46385,-108.78392,Edgar,MT,Montana,True,,177.0,3.0,30009,Carbon,"{""30009"": 100}",Carbon,30009,False,False,America/Denver,"(45.46385, -108.78392)",120.98553310313909,407041.0,127_0_no,46.51531221726122,-110.79938982989653,100.0
59027,45.26118,-110.90674,Emigrant,MT,Montana,True,,721.0,1.2,30067,Park,"{""30067"": 100}",Park,30067,False,False,America/Denver,"(45.26118, -110.90674)",86.80592289634733,407041.0,127_0_no,46.51531221726122,-110.79938982989653,100.0
59028,45.32093,-109.7434,Fishtail,MT,Montana,True,,525.0,0.6,30095,Stillwater,"{""30095"": 100}",Stillwater,30095,False,False,America/Denver,"(45.32093, -109.7434)",96.88243632551483,407041.0,127_0_no,46.51531221726122,-110.79938982989653,100.0
59029,45.4085,-108.80467,Fromberg,MT,Montana,True,,764.0,3.1,30009,Carbon,"{""30009"": 100}",Carbon,30009,False,False,America/Denver,"(45.4085, -108.80467)",122.57701916697374,407041.0,127_0_no,46.51531221726122,-110.79938982989653,100.0
59030,45.08882,-110.59376,Gardiner,MT,Montana,True,,1249.0,1.0,30067,Park,"{""30067"": 100}",Park,30067,False,False,America/Denver,"(45.08882, -110.59376)",99.05754540471388,407041.0,127_0_no,46.51531221726122,-110.79938982989653,100.0
59032,47.0106,-108.75808,Grass Range,MT,Montana,True,,461.0,0.3,30027,Fergus,"{""30027"": 76.55, ""30069"": 23.45}",Fergus|Petroleum,30027|30069,False,False,America/Denver,"(47.0106, -108.75808)",102.49342463456505,407041.0,127_0_no,46.51531221726122,-110.79938982989653,100.0
59033,45.72296,-109.73246,Greycliff,MT,Montana,True,,298.0,3.3,30097,Sweet Grass,"{""30097"": 100}",Sweet Grass,30097,False,False,America/Denver,"(45.72296, -109.73246)",74.88647375504007,407041.0,127_0_no,46.51531221726122,-110.79938982989653,100.0
59036,46.46606,-109.89035,Harlowton,MT,Montana,True,,1405.0,0.8,30107,Wheatland,"{""30107"": 100}",Wheatland,30107,False,False,America/Denver,"(46.46606, -109.89035)",43.375493085920574,407041.0,127_0_no,46.51531221726122,-110.79938982989653,100.0
59041,45.50239,-108.9663,Joliet,MT,Montana,True,,1971.0,4.0,30009,Carbon,"{""30009"": 97.36, ""30111"": 2.64}",Carbon|Yellowstone,30009|30111,False,False,America/Denver,"(45.50239, -108.9663)",112.40624757758829,407041.0,127_0_no,46.51531221726122,-110.79938982989653,100.0
59044,45.64251,-108.74975,Laurel,MT,Montana,True,,12300.0,27.1,30111,Yellowstone,"{""30111"": 91.01, ""30009"": 8.99}",Yellowstone|Carbon,30111|30009,False,False,America/Denver,"(45.64251, -108.74975)",115.262426758677,407041.0,127_0_no,46.51531221726122,-110.79938982989653,100.0
59046,46.39147,-108.98604,Lavina,MT,Montana,True,,379.0,0.2,30037,Golden Valley,"{""30037"": 91.74, ""30065"": 8.26}",Golden Valley|Musselshell,30037|30065,False,False,America/Denver,"(46.39147, -108.98604)",86.73933598228561,407041.0,127_0_no,46.51531221726122,-110.79938982989653,100.0
59047,45.56852,-110.55174,Livingston,MT,Montana,True,,12711.0,6.3,30067,Park,"{""30067"": 100}",Park,30067,False,False,America/Denver,"(45.56852, -110.55174)",66.48649783105068,407041.0,127_0_no,46.51531221726122,-110.79938982989653,100.0
59052,45.43651,-110.18676,McLeod,MT,Montana,True,,149.0,0.1,30097,Sweet Grass,"{""30097"": 58.83, ""30067"": 41.17}",Sweet Grass|Park,30097|30067,False,False,America/Denver,"(45.43651, -110.18676)",80.13219217158199,407041.0,127_0_no,46.51531221726122,-110.79938982989653,100.0
59053,46.45713,-110.43492,Martinsdale,MT,Montana,True,,370.0,0.3,30059,Meagher,"{""30059"": 96.81, ""30107"": 3.19}",Meagher|Wheatland,30059|30107,False,False,America/Denver,"(46.45713, -110.43492)",17.798759454627756,407041.0,127_0_no,46.51531221726122,-110.79938982989653,100.0
59055,46.10282,-109.78662,Melville,MT,Montana,True,,85.0,0.1,30097,Sweet Grass,"{""30097"": 100}",Sweet Grass,30097,False,False,America/Denver,"(46.10282, -109.78662)",56.1129969612554,407041.0,127_0_no,46.51531221726122,-110.79938982989653,100.0
59057,45.85358,-108.95377,Molt,MT,Montana,True,,878.0,1.2,30095,Stillwater,"{""30095"": 68.46, ""30111"": 31.54}",Stillwater|Yellowstone,30095|30111,False,False,America/Denver,"(45.85358, -108.95377)",99.42007897743473,407041.0,127_0_no,46.51531221726122,-110.79938982989653,100.0
59061,45.39634,-109.87728,Nye,MT,Montana,True,,260.0,0.6,30095,Stillwater,"{""30095"": 100}",Stillwater,30095,False,False,America/Denver,"(45.39634, -109.87728)",89.10105898750385,407041.0,127_0_no,46.51531221726122,-110.79938982989653,100.0
59063,45.65079,-108.97028,Park City,MT,Montana,True,,2205.0,13.9,30095,Stillwater,"{""30095"": 99.59, ""30111"": 0.41}",Stillwater|Yellowstone,30095|30111,False,False,America/Denver,"(45.65079, -108.97028)",106.07117592681523,407041.0,127_0_no,46.51531221726122,-110.79938982989653,100.0
59065,45.26883,-110.6784,Pray,MT,Montana,True,,125.0,0.4,30067,Park,"{""30067"": 100}",Park,30067,False,False,America/Denver,"(45.26883, -110.6784)",86.3200023530571,407041.0,127_0_no,46.51531221726122,-110.79938982989653,100.0
59067,45.96827,-109.23433,Rapelje,MT,Montana,True,,262.0,0.3,30095,Stillwater,"{""30095"": 100}",Stillwater,30095,False,False,America/Denver,"(45.96827, -109.23433)",83.7945367010955,407041.0,127_0_no,46.51531221726122,-110.79938982989653,100.0
59068,45.15929,-109.45626,Red Lodge,MT,Montana,True,,3178.0,2.4,30009,Carbon,"{""30009"": 100}",Carbon,30009,False,False,America/Denver,"(45.15929, -109.45626)",113.83115826738866,407041.0,127_0_no,46.51531221726122,-110.79938982989653,100.0
59069,45.72204,-109.57945,Reed Point,MT,Montana,True,,517.0,0.5,30095,Stillwater,"{""30095"": 50.66, ""30097"": 49.34}",Stillwater|Sweet Grass,30095|30097,False,False,America/Denver,"(45.72204, -109.57945)",80.10948433599249,407041.0,127_0_no,46.51531221726122,-110.79938982989653,100.0
59070,45.36289,-109.17961,Roberts,MT,Montana,True,,1163.0,2.5,30009,Carbon,"{""30009"": 100}",Carbon,30009,False,False,America/Denver,"(45.36289, -109.17961)",111.33909312312042,407041.0,127_0_no,46.51531221726122,-110.79938982989653,100.0
59071,45.26582,-109.57003,Roscoe,MT,Montana,True,,160.0,0.7,30009,Carbon,"{""30009"": 100}",Carbon,30009,False,False,America/Denver,"(45.26582, -109.57003)",104.63194561448995,407041.0,127_0_no,46.51531221726122,-110.79938982989653,100.0
59074,46.36062,-109.30181,Ryegate,MT,Montana,True,,430.0,0.3,30037,Golden Valley,"{""30037"": 91.48, ""30095"": 6.76, ""30107"": 1.76}",Golden Valley|Stillwater|Wheatland,30037|30095|30107,False,False,America/Denver,"(46.36062, -109.30181)",72.1027030926676,407041.0,127_0_no,46.51531221726122,-110.79938982989653,100.0
59078,46.32585,-109.5442,Shawmut,MT,Montana,True,,167.0,0.2,30107,Wheatland,"{""30107"": 69.81, ""30037"": 22.1, ""30097"": 8.09}",Wheatland|Golden Valley|Sweet Grass,30107|30037|30097,False,False,America/Denver,"(46.32585, -109.5442)",61.20059873967559,407041.0,127_0_no,46.51531221726122,-110.79938982989653,100.0
59085,46.36172,-110.14019,Two Dot,MT,Montana,True,,199.0,0.3,30107,Wheatland,"{""30107"": 100}",Wheatland,30107,False,False,America/Denver,"(46.36172, -110.14019)",33.132840766656756,407041.0,127_0_no,46.51531221726122,-110.79938982989653,100.0
59086,46.05608,-110.65293,Wilsall,MT,Montana,True,,832.0,0.5,30067,Park,"{""30067"": 66.28, ""30031"": 31.45, ""30059"": 2.27}",Park|Gallatin|Meagher,30067|30031|30059,False,False,America/Denver,"(46.05608, -110.65293)",32.49139998803961,407041.0,127_0_no,46.51531221726122,-110.79938982989653,100.0
59401,47.51083,-111.27691,Great Falls,MT,Montana,True,,13410.0,1748.1,30013,Cascade,"{""30013"": 100}",Cascade,30013,False,False,America/Denver,"(47.51083, -111.27691)",72.36859306104022,407041.0,127_0_no,46.51531221726122,-110.79938982989653,100.0
59404,47.63197,-111.34807,Great Falls,MT,Montana,True,,27914.0,32.5,30013,Cascade,"{""30013"": 71.69, ""30015"": 28.31}",Cascade|Chouteau,30013|30015,False,False,America/Denver,"(47.63197, -111.34807)",81.35858497849559,407041.0,127_0_no,46.51531221726122,-110.79938982989653,100.0
59405,47.28102,-111.25937,Great Falls,MT,Montana,True,,31745.0,25.6,30013,Cascade,"{""30013"": 98.85, ""30015"": 1.15}",Cascade|Chouteau,30013|30015,False,False,America/Denver,"(47.28102, -111.25937)",57.188655895248154,407041.0,127_0_no,46.51531221726122,-110.79938982989653,100.0
59410,47.49442,-112.64299,Augusta,MT,Montana,True,,519.0,0.2,30049,Lewis and Clark,"{""30049"": 97.51, ""30099"": 2.49}",Lewis and Clark|Teton,30049|30099,False,False,America/Denver,"(47.49442, -112.64299)",110.09520693164801,407041.0,127_0_no,46.51531221726122,-110.79938982989653,100.0
59412,47.32538,-110.8762,Belt,MT,Montana,True,,1490.0,1.5,30013,Cascade,"{""30013"": 96.89, ""30045"": 3.11}",Cascade|Judith Basin,30013|30045,False,False,America/Denver,"(47.32538, -110.8762)",56.08759812471089,407041.0,127_0_no,46.51531221726122,-110.79938982989653,100.0
59414,47.5276,-111.26871,Black Eagle,MT,Montana,True,,836.0,185.1,30013,Cascade,"{""30013"": 100}",Cascade,30013,False,False,America/Denver,"(47.5276, -111.26871)",73.35236975791953,407041.0,127_0_no,46.51531221726122,-110.79938982989653,100.0
59418,46.80258,-109.87849,Buffalo,MT,Montana,True,,65.0,0.2,30045,Judith Basin,"{""30045"": 76.86, ""30027"": 23.14}",Judith Basin|Fergus,30045|30027,False,False,America/Denver,"(46.80258, -109.87849)",47.96904126164844,407041.0,127_0_no,46.51531221726122,-110.79938982989653,100.0
59420,47.89688,-111.04034,Carter,MT,Montana,True,,255.0,0.4,30015,Chouteau,"{""30015"": 100}",Chouteau,30015,False,False,America/Denver,"(47.89688, -111.04034)",96.12478905068888,407041.0,127_0_no,46.51531221726122,-110.79938982989653,100.0
59421,47.20179,-111.72,Cascade,MT,Montana,True,,1838.0,1.0,30013,Cascade,"{""30013"": 95.54, ""30049"": 4.46}",Cascade|Lewis and Clark,30013|30049,False,False,America/Denver,"(47.20179, -111.72)",64.35395615745077,407041.0,127_0_no,46.51531221726122,-110.79938982989653,100.0
59422,47.83957,-112.48266,Choteau,MT,Montana,True,,2718.0,0.9,30099,Teton,"{""30099"": 100}",Teton,30099,False,False,America/Denver,"(47.83957, -112.48266)",120.91288992939,407041.0,127_0_no,46.51531221726122,-110.79938982989653,100.0
59424,47.34929,-110.1022,Coffee Creek,MT,Montana,True,,16.0,0.1,30027,Fergus,"{""30027"": 66.71, ""30045"": 33.29}",Fergus|Judith Basin,30027|30045,False,False,America/Denver,"(47.34929, -110.1022)",66.34969187880769,407041.0,127_0_no,46.51531221726122,-110.79938982989653,100.0
59430,47.43089,-109.83434,Denton,MT,Montana,True,,448.0,0.3,30027,Fergus,"{""30027"": 94.67, ""30045"": 5.33}",Fergus|Judith Basin,30027|30045,False,False,America/Denver,"(47.43089, -109.83434)",77.92102414149913,407041.0,127_0_no,46.51531221726122,-110.79938982989653,100.0
59433,47.89565,-111.68483,Dutton,MT,Montana,True,,484.0,0.6,30099,Teton,"{""30099"": 99.65, ""30073"": 0.35}",Teton|Pondera,30099|30073,False,False,America/Denver,"(47.89565, -111.68483)",104.03328671460935,407041.0,127_0_no,46.51531221726122,-110.79938982989653,100.0
59436,47.6135,-112.0907,Fairfield,MT,Montana,True,,2045.0,3.2,30099,Teton,"{""30099"": 99.58, ""30013"": 0.42}",Teton|Cascade,30099|30013,False,False,America/Denver,"(47.6135, -112.0907)",97.21337301119621,407041.0,127_0_no,46.51531221726122,-110.79938982989653,100.0
59440,47.72489,-111.14261,Floweree,MT,Montana,True,,221.0,0.4,30015,Chouteau,"{""30015"": 67.52, ""30013"": 32.48}",Chouteau|Cascade,30015|30013,False,False,America/Denver,"(47.72489, -111.14261)",85.11721301261262,407041.0,127_0_no,46.51531221726122,-110.79938982989653,100.0
59441,46.852,-108.98933,Forest Grove,MT,Montana,True,,63.0,0.1,30027,Fergus,"{""30027"": 100}",Fergus,30027,False,False,America/Denver,"(46.852, -108.98933)",88.89209749368206,407041.0,127_0_no,46.51531221726122,-110.79938982989653,100.0
59442,47.93005,-110.64697,Fort Benton,MT,Montana,True,,1742.0,0.9,30015,Chouteau,"{""30015"": 100}",Chouteau,30015,False,False,America/Denver,"(47.93005, -110.64697)",98.01032656478654,407041.0,127_0_no,46.51531221726122,-110.79938982989653,100.0
59443,47.5621,-111.82647,Fort Shaw,MT,Montana,True,,383.0,2.5,30013,Cascade,"{""30013"": 93.54, ""30099"": 6.46}",Cascade|Teton,30013|30099,False,False,America/Denver,"(47.5621, -111.82647)",87.00395217988897,407041.0,127_0_no,46.51531221726122,-110.79938982989653,100.0
59446,47.64083,-110.17894,Geraldine,MT,Montana,True,,580.0,0.3,30015,Chouteau,"{""30015"": 100}",Chouteau,30015,False,False,America/Denver,"(47.64083, -110.17894)",83.06433740654286,407041.0,127_0_no,46.51531221726122,-110.79938982989653,100.0
59447,47.28116,-110.45955,Geyser,MT,Montana,True,,271.0,0.3,30045,Judith Basin,"{""30045"": 96.99, ""30015"": 3.01}",Judith Basin|Chouteau,30045|30015,False,False,America/Denver,"(47.28116, -110.45955)",55.2937873782816,407041.0,127_0_no,46.51531221726122,-110.79938982989653,100.0
59450,47.5992,-110.73923,Highwood,MT,Montana,True,,584.0,0.6,30015,Chouteau,"{""30015"": 100}",Chouteau,30015,False,False,America/Denver,"(47.5992, -110.73923)",74.94302548624465,407041.0,127_0_no,46.51531221726122,-110.79938982989653,100.0
59451,47.38984,-109.39779,Hilger,MT,Montana,True,,127.0,0.2,30027,Fergus,"{""30027"": 100}",Fergus,30027,False,False,America/Denver,"(47.38984, -109.39779)",89.55640190216525,407041.0,127_0_no,46.51531221726122,-110.79938982989653,100.0
59452,46.86946,-110.09831,Hobson,MT,Montana,True,,470.0,0.5,30045,Judith Basin,"{""30045"": 100}",Judith Basin,30045,False,False,America/Denver,"(46.86946, -110.09831)",41.26344612020347,407041.0,127_0_no,46.51531221726122,-110.79938982989653,100.0
59453,46.65903,-109.66996,Judith Gap,MT,Montana,True,,301.0,0.3,30107,Wheatland,"{""30107"": 76.59, ""30027"": 18.54, ""30045"": 4.87}",Wheatland|Fergus|Judith Basin,30107|30027|30045,False,False,America/Denver,"(46.65903, -109.66996)",54.541405521390345,407041.0,127_0_no,46.51531221726122,-110.79938982989653,100.0
59457,47.08027,-109.38656,Lewistown,MT,Montana,True,,9058.0,3.5,30027,Fergus,"{""30027"": 100}",Fergus,30027,False,False,America/Denver,"(47.08027, -109.38656)",77.38993172676969,407041.0,127_0_no,46.51531221726122,-110.79938982989653,100.0
59462,47.10833,-109.88513,Moccasin,MT,Montana,True,,159.0,0.5,30045,Judith Basin,"{""30045"": 100}",Judith Basin,30045,False,False,America/Denver,"(47.10833, -109.88513)",59.563628670441204,407041.0,127_0_no,46.51531221726122,-110.79938982989653,100.0
59463,47.0489,-110.86668,Monarch,MT,Montana,True,,97.0,0.2,30013,Cascade,"{""30013"": 94.01, ""30045"": 5.99}",Cascade|Judith Basin,30013|30045,False,False,America/Denver,"(47.0489, -110.86668)",37.0046118781305,407041.0,127_0_no,46.51531221726122,-110.79938982989653,100.0
59464,46.87409,-109.60589,Moore,MT,Montana,True,,418.0,0.7,30027,Fergus,"{""30027"": 94.58, ""30045"": 5.42}",Fergus|Judith Basin,30027|30045,False,False,America/Denver,"(46.87409, -109.60589)",61.75314023034312,407041.0,127_0_no,46.51531221726122,-110.79938982989653,100.0
59465,46.93777,-110.70788,Neihart,MT,Montana,True,,35.0,0.1,30013,Cascade,"{""30013"": 100}",Cascade,30013,False,False,America/Denver,"(46.93777, -110.70788)",29.50906516559461,407041.0,127_0_no,46.51531221726122,-110.79938982989653,100.0
59468,47.71253,-111.62842,Power,MT,Montana,True,,587.0,0.9,30099,Teton,"{""30099"": 71.23, ""30013"": 28.77}",Teton|Cascade,30099|30013,False,False,America/Denver,"(47.71253, -111.62842)",91.4434256913475,407041.0,127_0_no,46.51531221726122,-110.79938982989653,100.0
59469,47.19087,-110.68378,Raynesford,MT,Montana,True,,143.0,0.5,30045,Judith Basin,"{""30045"": 100}",Judith Basin,30045,False,False,America/Denver,"(47.19087, -110.68378)",46.99514926501716,407041.0,127_0_no,46.51531221726122,-110.79938982989653,100.0
59471,47.4161,-108.77191,Roy,MT,Montana,True,,303.0,0.1,30027,Fergus,"{""30027"": 100}",Fergus,30027,False,False,America/Denver,"(47.4161, -108.77191)",114.06809589247356,407041.0,127_0_no,46.51531221726122,-110.79938982989653,100.0
59472,47.37939,-111.17095,Sand Coulee,MT,Montana,True,,843.0,5.9,30013,Cascade,"{""30013"": 100}",Cascade,30013,False,False,America/Denver,"(47.37939, -111.17095)",62.22109779645929,407041.0,127_0_no,46.51531221726122,-110.79938982989653,100.0
59477,47.44467,-111.97419,Simms,MT,Montana,True,,390.0,2.3,30013,Cascade,"{""30013"": 100}",Cascade,30013,False,False,America/Denver,"(47.44467, -111.97419)",84.79236023982327,407041.0,127_0_no,46.51531221726122,-110.79938982989653,100.0
59479,47.016,-110.33696,Stanford,MT,Montana,True,,766.0,0.4,30045,Judith Basin,"{""30045"": 100}",Judith Basin,30045,False,False,America/Denver,"(47.016, -110.33696)",40.9357465064723,407041.0,127_0_no,46.51531221726122,-110.79938982989653,100.0
59480,47.22696,-111.12013,Stockett,MT,Montana,True,,365.0,1.0,30013,Cascade,"{""30013"": 100}",Cascade,30013,False,False,America/Denver,"(47.22696, -111.12013)",51.45115895315474,407041.0,127_0_no,46.51531221726122,-110.79938982989653,100.0
59483,47.47212,-111.72261,Sun River,MT,Montana,True,,621.0,3.0,30013,Cascade,"{""30013"": 100}",Cascade,30013,False,False,America/Denver,"(47.47212, -111.72261)",79.14042932202449,407041.0,127_0_no,46.51531221726122,-110.79938982989653,100.0
59485,47.43264,-111.56667,Ulm,MT,Montana,True,,482.0,3.3,30013,Cascade,"{""30013"": 100}",Cascade,30013,False,False,America/Denver,"(47.43264, -111.56667)",72.97634886062963,407041.0,127_0_no,46.51531221726122,-110.79938982989653,100.0
59487,47.58393,-111.64592,Vaughn,MT,Montana,True,,1291.0,9.1,30013,Cascade,"{""30013"": 92.37, ""30099"": 7.63}",Cascade|Teton,30013|30099,False,False,America/Denver,"(47.58393, -111.64592)",83.90203288702716,407041.0,127_0_no,46.51531221726122,-110.79938982989653,100.0
59489,47.64007,-109.25586,Winifred,MT,Montana,True,,334.0,0.2,30027,Fergus,"{""30027"": 100}",Fergus,30027,False,False,America/Denver,"(47.64007, -109.25586)",106.36367118175507,407041.0,127_0_no,46.51531221726122,-110.79938982989653,100.0
59535,47.94123,-109.26059,Lloyd,MT,Montana,True,,80.0,0.1,30005,Blaine,"{""30005"": 100}",Blaine,30005,False,False,America/Denver,"(47.94123, -109.26059)",122.13926680363583,407041.0,127_0_no,46.51531221726122,-110.79938982989653,100.0
59601,46.54199,-112.17474,Helena,MT,Montana,True,,32165.0,95.4,30049,Lewis and Clark,"{""30049"": 100}",Lewis and Clark,30049,False,False,America/Denver,"(46.54199, -112.17474)",65.40338739499401,407041.0,127_0_no,46.51531221726122,-110.79938982989653,100.0
59602,46.73577,-111.90753,Helena,MT,Montana,True,,27154.0,20.0,30049,Lewis and Clark,"{""30049"": 100}",Lewis and Clark,30049,False,False,America/Denver,"(46.73577, -111.90753)",54.74344735830681,407041.0,127_0_no,46.51531221726122,-110.79938982989653,100.0
59631,46.29168,-112.38687,Basin,MT,Montana,True,,278.0,0.7,30043,Jefferson,"{""30043"": 100}",Jefferson,30043,False,False,America/Denver,"(46.29168, -112.38687)",77.19638827643419,407041.0,127_0_no,46.51531221726122,-110.79938982989653,100.0
59632,46.16522,-111.99918,Boulder,MT,Montana,True,,1836.0,1.6,30043,Jefferson,"{""30043"": 100}",Jefferson,30043,False,False,America/Denver,"(46.16522, -111.99918)",62.1314669949546,407041.0,127_0_no,46.51531221726122,-110.79938982989653,100.0
59633,46.82338,-112.36362,Canyon Creek,MT,Montana,True,,317.0,0.6,30049,Lewis and Clark,"{""30049"": 100}",Lewis and Clark,30049,False,False,America/Denver,"(46.82338, -112.36362)",77.15649108594079,407041.0,127_0_no,46.51531221726122,-110.79938982989653,100.0
59634,46.43583,-112.00986,Clancy,MT,Montana,True,,5320.0,8.2,30043,Jefferson,"{""30043"": 100}",Jefferson,30043,False,False,America/Denver,"(46.43583, -112.00986)",57.85739233806398,407041.0,127_0_no,46.51531221726122,-110.79938982989653,100.0
59635,46.5546,-111.81749,East Helena,MT,Montana,True,,7172.0,34.8,30049,Lewis and Clark,"{""30049"": 38.17, ""30043"": 36.11, ""30007"": 25.72}",Lewis and Clark|Jefferson|Broadwater,30049|30043|30007,False,False,America/Denver,"(46.5546, -111.81749)",48.46622809086123,407041.0,127_0_no,46.51531221726122,-110.79938982989653,100.0
59636,46.61614,-112.11399,Fort Harrison,MT,Montana,True,,54.0,6.4,30049,Lewis and Clark,"{""30049"": 100}",Lewis and Clark,30049,False,False,America/Denver,"(46.61614, -112.11399)",62.83440800300782,407041.0,127_0_no,46.51531221726122,-110.79938982989653,100.0
59638,46.3579,-112.02772,Jefferson City,MT,Montana,True,,705.0,4.5,30043,Jefferson,"{""30043"": 100}",Jefferson,30043,False,False,America/Denver,"(46.3579, -112.02772)",59.490389698142586,407041.0,127_0_no,46.51531221726122,-110.79938982989653,100.0
59639,47.09436,-112.69371,Lincoln,MT,Montana,True,,1184.0,0.7,30049,Lewis and Clark,"{""30049"": 100}",Lewis and Clark,30049,False,False,America/Denver,"(47.09436, -112.69371)",98.11299090272071,407041.0,127_0_no,46.51531221726122,-110.79938982989653,100.0
59642,46.28045,-110.75624,Ringling,MT,Montana,True,,36.0,0.0,30059,Meagher,"{""30059"": 100}",Meagher,30059,False,False,America/Denver,"(46.28045, -110.75624)",16.35717220686152,407041.0,127_0_no,46.51531221726122,-110.79938982989653,100.0
59643,46.13283,-111.57884,Toston,MT,Montana,True,,302.0,0.4,30007,Broadwater,"{""30007"": 100}",Broadwater,30007,False,False,America/Denver,"(46.13283, -111.57884)",45.62374170836892,407041.0,127_0_no,46.51531221726122,-110.79938982989653,100.0
59644,46.419,-111.43885,Townsend,MT,Montana,True,,4334.0,2.3,30007,Broadwater,"{""30007"": 100}",Broadwater,30007,False,False,America/Denver,"(46.419, -111.43885)",31.15057454882632,407041.0,127_0_no,46.51531221726122,-110.79938982989653,100.0
59645,46.69476,-111.04729,White Sulphur Springs,MT,Montana,True,,1513.0,0.4,30059,Meagher,"{""30059"": 98.62, ""30007"": 1.38}",Meagher|Broadwater,30059|30007,False,False,America/Denver,"(46.69476, -111.04729)",17.093883939797692,407041.0,127_0_no,46.51531221726122,-110.79938982989653,100.0
59647,46.46726,-111.65138,Winston,MT,Montana,True,,522.0,2.4,30007,Broadwater,"{""30007"": 100}",Broadwater,30007,False,False,America/Denver,"(46.46726, -111.65138)",40.66336806704041,407041.0,127_0_no,46.51531221726122,-110.79938982989653,100.0
59648,47.07221,-112.14059,Wolf Creek,MT,Montana,True,,402.0,0.2,30049,Lewis and Clark,"{""30049"": 100}",Lewis and Clark,30049,False,False,America/Denver,"(47.07221, -112.14059)",74.19795397959588,407041.0,127_0_no,46.51531221726122,-110.79938982989653,100.0
59701,46.03497,-112.46087,Butte,MT,Montana,True,,33685.0,25.5,30093,Silver Bow,"{""30093"": 48.47, ""30043"": 46.89, ""30023"": 4.64}",Silver Bow|Jefferson|Deer Lodge,30093|30043|30023,False,False,America/Denver,"(46.03497, -112.46087)",86.00644222599855,407041.0,127_0_no,46.51531221726122,-110.79938982989653,100.0
59710,45.06801,-112.08613,Alder,MT,Montana,True,,243.0,0.1,30057,Madison,"{""30057"": 100}",Madison,30057,False,False,America/Denver,"(45.06801, -112.08613)",117.6509763531694,407041.0,127_0_no,46.51531221726122,-110.79938982989653,100.0
59713,46.67973,-112.61228,Avon,MT,Montana,True,,182.0,0.3,30077,Powell,"{""30077"": 100}",Powell,30077,False,False,America/Denver,"(46.67973, -112.61228)",86.81216021702834,407041.0,127_0_no,46.51531221726122,-110.79938982989653,100.0
59714,45.97538,-111.13112,Belgrade,MT,Montana,True,,21530.0,19.9,30031,Gallatin,"{""30031"": 100}",Gallatin,30031,False,False,America/Denver,"(45.97538, -111.13112)",40.53354666409588,407041.0,127_0_no,46.51531221726122,-110.79938982989653,100.0
59715,45.6928,-110.9065,Bozeman,MT,Montana,True,,36760.0,48.1,30031,Gallatin,"{""30031"": 91.82, ""30067"": 8.18}",Gallatin|Park,30031|30067,False,False,America/Denver,"(45.6928, -110.9065)",57.06134394118022,407041.0,127_0_no,46.51531221726122,-110.79938982989653,100.0
59716,45.28578,-111.3873,Big Sky,MT,Montana,True,,2477.0,14.8,30057,Madison,"{""30057"": 55.87, ""30031"": 44.13}",Madison|Gallatin,30057|30031,False,False,America/Denver,"(45.28578, -111.3873)",89.5315626400797,407041.0,127_0_no,46.51531221726122,-110.79938982989653,100.0
59718,45.63999,-111.16978,Bozeman,MT,Montana,True,,39282.0,92.2,30031,Gallatin,"{""30031"": 100}",Gallatin,30031,False,False,America/Denver,"(45.63999, -111.16978)",63.03039904789009,407041.0,127_0_no,46.51531221726122,-110.79938982989653,100.0
59721,45.85189,-111.88177,Cardwell,MT,Montana,True,,565.0,1.0,30043,Jefferson,"{""30043"": 61.65, ""30057"": 38.35}",Jefferson|Madison,30043|30057,False,False,America/Denver,"(45.85189, -111.88177)",69.15117142105309,407041.0,127_0_no,46.51531221726122,-110.79938982989653,100.0
59722,46.35143,-112.75684,Deer Lodge,MT,Montana,True,,5655.0,5.6,30077,Powell,"{""30077"": 85.75, ""30023"": 14.25}",Powell|Deer Lodge,30077|30023,False,False,America/Denver,"(46.35143, -112.75684)",93.89460257267758,407041.0,127_0_no,46.51531221726122,-110.79938982989653,100.0
59727,45.78797,-112.79394,Divide,MT,Montana,True,,269.0,0.3,30093,Silver Bow,"{""30093"": 79.64, ""30001"": 20.36}",Silver Bow|Beaverhead,30093|30001,False,False,America/Denver,"(45.78797, -112.79394)",107.88295212528003,407041.0,127_0_no,46.51531221726122,-110.79938982989653,100.0
59728,46.50487,-112.41135,Elliston,MT,Montana,True,,327.0,0.7,30077,Powell,"{""30077"": 100}",Powell,30077,False,False,America/Denver,"(46.50487, -112.41135)",76.65390307049543,407041.0,127_0_no,46.51531221726122,-110.79938982989653,100.0
59729,45.31343,-111.64827,Ennis,MT,Montana,True,,2384.0,2.0,30057,Madison,"{""30057"": 100}",Madison,30057,False,False,America/Denver,"(45.31343, -111.64827)",92.52495627741449,407041.0,127_0_no,46.51531221726122,-110.79938982989653,100.0
59730,45.30988,-111.19025,Gallatin Gateway,MT,Montana,True,,2092.0,1.2,30031,Gallatin,"{""30031"": 94.04, ""30057"": 5.96}",Gallatin|Madison,30031|30057,False,False,America/Denver,"(45.30988, -111.19025)",85.38023836120661,407041.0,127_0_no,46.51531221726122,-110.79938982989653,100.0
59731,46.58455,-112.76326,Garrison,MT,Montana,True,,142.0,0.4,30077,Powell,"{""30077"": 100}",Powell,30077,False,False,America/Denver,"(46.58455, -112.76326)",93.4374813626369,407041.0,127_0_no,46.51531221726122,-110.79938982989653,100.0
59732,45.48899,-112.69457,Glen,MT,Montana,True,,334.0,0.6,30001,Beaverhead,"{""30001"": 58.44, ""30057"": 41.56}",Beaverhead|Madison,30001|30057,False,False,America/Denver,"(45.48899, -112.69457)",115.32817316014562,407041.0,127_0_no,46.51531221726122,-110.79938982989653,100.0
59735,45.65775,-111.84615,Harrison,MT,Montana,True,,260.0,0.9,30057,Madison,"{""30057"": 100}",Madison,30057,False,False,America/Denver,"(45.65775, -111.84615)",77.63233936287061,407041.0,127_0_no,46.51531221726122,-110.79938982989653,100.0
59740,45.49871,-111.81159,McAllister,MT,Montana,True,,458.0,1.1,30057,Madison,"{""30057"": 100}",Madison,30057,False,False,America/Denver,"(45.49871, -111.81159)",85.39929493173601,407041.0,127_0_no,46.51531221726122,-110.79938982989653,100.0
59741,45.77265,-111.3638,Manhattan,MT,Montana,True,,5041.0,11.8,30031,Gallatin,"{""30031"": 100}",Gallatin,30031,False,False,America/Denver,"(45.77265, -111.3638)",57.99149065481448,407041.0,127_0_no,46.51531221726122,-110.79938982989653,100.0
59743,45.60068,-112.74964,Melrose,MT,Montana,True,,153.0,0.3,30001,Beaverhead,"{""30001"": 62.75, ""30057"": 27.89, ""30093"": 9.36}",Beaverhead|Madison|Silver Bow,30001|30057|30093,False,False,America/Denver,"(45.60068, -112.74964)",112.85340489683776,407041.0,127_0_no,46.51531221726122,-110.79938982989653,100.0
59745,45.5941,-111.60658,Norris,MT,Montana,True,,67.0,0.2,30057,Madison,"{""30057"": 100}",Madison,30057,False,False,America/Denver,"(45.5941, -111.60658)",74.49243004372012,407041.0,127_0_no,46.51531221726122,-110.79938982989653,100.0
59747,45.69862,-111.93281,Pony,MT,Montana,True,,165.0,1.6,30057,Madison,"{""30057"": 100}",Madison,30057,False,False,America/Denver,"(45.69862, -111.93281)",78.30569865400196,407041.0,127_0_no,46.51531221726122,-110.79938982989653,100.0
59748,46.04611,-112.69601,Ramsay,MT,Montana,True,,245.0,4.4,30093,Silver Bow,"{""30093"": 100}",Silver Bow,30093,False,False,America/Denver,"(46.04611, -112.69601)",96.19214290294772,407041.0,127_0_no,46.51531221726122,-110.79938982989653,100.0
59749,45.44332,-112.09548,Sheridan,MT,Montana,True,,2080.0,3.4,30057,Madison,"{""30057"": 100}",Madison,30057,False,False,America/Denver,"(45.44332, -112.09548)",96.73739265467859,407041.0,127_0_no,46.51531221726122,-110.79938982989653,100.0
59750,45.91857,-112.68323,Butte,MT,Montana,True,,390.0,1.5,30093,Silver Bow,"{""30093"": 100}",Silver Bow,30093,False,False,America/Denver,"(45.91857, -112.68323)",99.04799326627786,407041.0,127_0_no,46.51531221726122,-110.79938982989653,100.0
59751,45.69001,-112.29755,Silver Star,MT,Montana,True,,277.0,4.0,30057,Madison,"{""30057"": 100}",Madison,30057,False,False,America/Denver,"(45.69001, -112.29755)",91.66460359008295,407041.0,127_0_no,46.51531221726122,-110.79938982989653,100.0
59752,45.92412,-111.52577,Three Forks,MT,Montana,True,,3878.0,3.7,30031,Gallatin,"{""30031"": 62.21, ""30043"": 19.43, ""30007"": 18.36}",Gallatin|Jefferson|Broadwater,30031|30043|30007,False,False,America/Denver,"(45.92412, -111.52577)",53.612317118336314,407041.0,127_0_no,46.51531221726122,-110.79938982989653,100.0
59754,45.52435,-112.35339,Twin Bridges,MT,Montana,True,,966.0,1.0,30057,Madison,"{""30057"": 100}",Madison,30057,False,False,America/Denver,"(45.52435, -112.35339)",101.22433156182052,407041.0,127_0_no,46.51531221726122,-110.79938982989653,100.0
59755,45.27174,-111.94274,Virginia City,MT,Montana,True,,169.0,1.0,30057,Madison,"{""30057"": 100}",Madison,30057,False,False,America/Denver,"(45.27174, -111.94274)",102.0058129189084,407041.0,127_0_no,46.51531221726122,-110.79938982989653,100.0
59756,46.17418,-112.83453,Warm Springs,MT,Montana,True,,475.0,17.8,30023,Deer Lodge,"{""30023"": 100}",Deer Lodge,30023,False,False,America/Denver,"(46.17418, -112.83453)",99.88628906430267,407041.0,127_0_no,46.51531221726122,-110.79938982989653,100.0
59759,45.83972,-112.16233,Whitehall,MT,Montana,True,,3784.0,3.3,30043,Jefferson,"{""30043"": 61.28, ""30057"": 32.23, ""30093"": 6.49}",Jefferson|Madison|Silver Bow,30043|30057|30093,False,False,America/Denver,"(45.83972, -112.16233)",80.18993355002758,407041.0,127_0_no,46.51531221726122,-110.79938982989653,100.0
59760,45.76267,-111.60386,Willow Creek,MT,Montana,True,,251.0,2.1,30031,Gallatin,"{""30031"": 100}",Gallatin,30031,False,False,America/Denver,"(45.76267, -111.60386)",64.71117721164903,407041.0,127_0_no,46.51531221726122,-110.79938982989653,100.0
