zip,lat,lng,city,state_id,state_name,zcta,parent_zcta,population,density,county_fips,county_name,county_weights,county_names_all,county_fips_all,imprecise,military,timezone,Coord,distance_miles,market_total_population,market_id,market_center_lat,market_center_lng,radius_miles
32003,30.09813,-81.71255,Fleming Island,FL,Florida,True,,30582.0,745.5,12019,Clay,"{""12019"": 100}",Clay,12019,False,False,America/New_York,"(30.09813, -81.71255)",117.26461580292352,6018766.0,22_0_no,28.81900631672668,-80.43137900691353,100.0
32033,29.78851,-81.44263,Elkton,FL,Florida,True,,4771.0,23.5,12109,St. Johns,"{""12109"": 100}",St. Johns,12109,False,False,America/New_York,"(29.78851, -81.44263)",90.55069289138765,6018766.0,22_0_no,28.81900631672668,-80.43137900691353,100.0
32043,29.92991,-81.74304,Green Cove Springs,FL,Florida,True,,28501.0,48.0,12019,Clay,"{""12019"": 93.13, ""12107"": 6.87}",Clay|Putnam,12019|12107,False,False,America/New_York,"(29.92991, -81.74304)",110.12800739657983,6018766.0,22_0_no,28.81900631672668,-80.43137900691353,100.0
32065,30.15613,-81.81762,Orange Park,FL,Florida,True,,37905.0,738.8,12019,Clay,"{""12019"": 100}",Clay,12019,False,False,America/New_York,"(30.15613, -81.81762)",124.44120931042302,6018766.0,22_0_no,28.81900631672668,-80.43137900691353,100.0
32068,30.08218,-81.88245,Middleburg,FL,Florida,True,,56217.0,187.9,12019,Clay,"{""12019"": 100}",Clay,12019,False,False,America/New_York,"(30.08218, -81.88245)",123.44450651912214,6018766.0,22_0_no,28.81900631672668,-80.43137900691353,100.0
32073,30.16766,-81.74069,Orange Park,FL,Florida,True,,42153.0,966.6,12019,Clay,"{""12019"": 100}",Clay,12019,False,False,America/New_York,"(30.16766, -81.74069)",121.99475388533241,6018766.0,22_0_no,28.81900631672668,-80.43137900691353,100.0
32079,29.97814,-81.80563,Penney Farms,FL,Florida,True,,426.0,363.6,12019,Clay,"{""12019"": 100}",Clay,12019,False,False,America/New_York,"(29.97814, -81.80563)",115.13887147824703,6018766.0,22_0_no,28.81900631672668,-80.43137900691353,100.0
32080,29.82453,-81.27412,Saint Augustine,FL,Florida,True,,22237.0,545.9,12109,St. Johns,"{""12109"": 99.06, ""12035"": 0.94}",St. Johns|Flagler,12109|12035,False,False,America/New_York,"(29.82453, -81.27412)",86.0466411127962,6018766.0,22_0_no,28.81900631672668,-80.43137900691353,100.0
32081,30.12143,-81.42089,Ponte Vedra,FL,Florida,True,,16914.0,185.2,12109,St. Johns,"{""12109"": 90.44, ""12031"": 9.56}",St. Johns|Duval,12109|12031,False,False,America/New_York,"(30.12143, -81.42089)",107.89170584578405,6018766.0,22_0_no,28.81900631672668,-80.43137900691353,100.0
32082,30.12488,-81.36577,Ponte Vedra Beach,FL,Florida,True,,28503.0,329.9,12109,St. Johns,"{""12109"": 100}",St. Johns,12109,False,False,America/New_York,"(30.12488, -81.36577)",106.30045440377961,6018766.0,22_0_no,28.81900631672668,-80.43137900691353,100.0
32084,29.91412,-81.36417,Saint Augustine,FL,Florida,True,,36415.0,311.6,12109,St. Johns,"{""12109"": 100}",St. Johns,12109,False,False,America/New_York,"(29.91412, -81.36417)",94.23294587196744,6018766.0,22_0_no,28.81900631672668,-80.43137900691353,100.0
32086,29.75656,-81.30282,Saint Augustine,FL,Florida,True,,30392.0,178.5,12109,St. Johns,"{""12109"": 100}",St. Johns,12109,False,False,America/New_York,"(29.75656, -81.30282)",83.39011485633726,6018766.0,22_0_no,28.81900631672668,-80.43137900691353,100.0
32092,29.92849,-81.52209,Saint Augustine,FL,Florida,True,,39858.0,124.1,12109,St. Johns,"{""12109"": 100}",St. Johns,12109,False,False,America/New_York,"(29.92849, -81.52209)",100.94071559680815,6018766.0,22_0_no,28.81900631672668,-80.43137900691353,100.0
32095,30.01693,-81.40927,Saint Augustine,FL,Florida,True,,13155.0,88.5,12109,St. Johns,"{""12109"": 100}",St. Johns,12109,False,False,America/New_York,"(30.01693, -81.40927)",101.5586569163524,6018766.0,22_0_no,28.81900631672668,-80.43137900691353,100.0
32102,29.1359,-81.52544,Astor,FL,Florida,True,,2081.0,12.9,12069,Lake,"{""12069"": 61.11, ""12127"": 38.89}",Lake|Volusia,12069|12127,False,False,America/New_York,"(29.1359, -81.52544)",69.65916335022463,6018766.0,22_0_no,28.81900631672668,-80.43137900691353,100.0
32110,29.44456,-81.36131,Bunnell,FL,Florida,True,,8537.0,11.1,12035,Flagler,"{""12035"": 100}",Flagler,12035,False,False,America/New_York,"(29.44456, -81.36131)",70.83768939756243,6018766.0,22_0_no,28.81900631672668,-80.43137900691353,100.0
32112,29.42664,-81.55649,Crescent City,FL,Florida,True,,7342.0,55.1,12107,Putnam,"{""12107"": 100}",Putnam,12107,False,False,America/New_York,"(29.42664, -81.55649)",79.83901026290822,6018766.0,22_0_no,28.81900631672668,-80.43137900691353,100.0
32114,29.19312,-81.04915,Daytona Beach,FL,Florida,True,,33731.0,814.1,12127,Volusia,"{""12127"": 100}",Volusia,12127,False,False,America/New_York,"(29.19312, -81.04915)",45.40568519526562,6018766.0,22_0_no,28.81900631672668,-80.43137900691353,100.0
32117,29.23351,-81.06727,Daytona Beach,FL,Florida,True,,28266.0,909.8,12127,Volusia,"{""12127"": 100}",Volusia,12127,False,False,America/New_York,"(29.23351, -81.06727)",47.917659258391076,6018766.0,22_0_no,28.81900631672668,-80.43137900691353,100.0
32118,29.21035,-81.00425,Daytona Beach,FL,Florida,True,,17492.0,1592.7,12127,Volusia,"{""12127"": 100}",Volusia,12127,False,False,America/New_York,"(29.21035, -81.00425)",43.92307015665531,6018766.0,22_0_no,28.81900631672668,-80.43137900691353,100.0
32119,29.16001,-81.02707,Daytona Beach,FL,Florida,True,,22431.0,1107.0,12127,Volusia,"{""12127"": 100}",Volusia,12127,False,False,America/New_York,"(29.16001, -81.02707)",43.0258821525503,6018766.0,22_0_no,28.81900631672668,-80.43137900691353,100.0
32124,29.15802,-81.15732,Daytona Beach,FL,Florida,True,,6589.0,41.4,12127,Volusia,"{""12127"": 100}",Volusia,12127,False,False,America/New_York,"(29.15802, -81.15732)",49.734912742437594,6018766.0,22_0_no,28.81900631672668,-80.43137900691353,100.0
32127,29.10866,-80.97907,Port Orange,FL,Florida,True,,29082.0,754.9,12127,Volusia,"{""12127"": 100}",Volusia,12127,False,False,America/New_York,"(29.10866, -80.97907)",38.68737045287474,6018766.0,22_0_no,28.81900631672668,-80.43137900691353,100.0
32128,29.09773,-81.07467,Port Orange,FL,Florida,True,,22046.0,254.8,12127,Volusia,"{""12127"": 100}",Volusia,12127,False,False,America/New_York,"(29.09773, -81.07467)",43.39693329558798,6018766.0,22_0_no,28.81900631672668,-80.43137900691353,100.0
32129,29.13721,-81.02381,Port Orange,FL,Florida,True,,23383.0,1200.6,12127,Volusia,"{""12127"": 100}",Volusia,12127,False,False,America/New_York,"(29.13721, -81.02381)",42.01917879482452,6018766.0,22_0_no,28.81900631672668,-80.43137900691353,100.0
32130,29.15704,-81.34501,De Leon Springs,FL,Florida,True,,5393.0,22.0,12127,Volusia,"{""12127"": 100}",Volusia,12127,False,False,America/New_York,"(29.15704, -81.34501)",59.95367426205464,6018766.0,22_0_no,28.81900631672668,-80.43137900691353,100.0
32131,29.67803,-81.56785,East Palatka,FL,Florida,True,,4558.0,49.2,12107,Putnam,"{""12107"": 93.98, ""12109"": 6.02}",Putnam|St. Johns,12107|12109,False,False,America/New_York,"(29.67803, -81.56785)",90.64442136274732,6018766.0,22_0_no,28.81900631672668,-80.43137900691353,100.0
32132,28.97731,-80.92345,Edgewater,FL,Florida,True,,7954.0,437.1,12127,Volusia,"{""12127"": 100}",Volusia,12127,False,False,America/New_York,"(28.97731, -80.92345)",31.711303384433847,6018766.0,22_0_no,28.81900631672668,-80.43137900691353,100.0
32134,29.37177,-81.82562,Fort McCoy,FL,Florida,True,,7712.0,11.1,12083,Marion,"{""12083"": 79.1, ""12107"": 19.47, ""12069"": 1.43}",Marion|Putnam|Lake,12083|12107|12069,False,False,America/New_York,"(29.37177, -81.82562)",92.43480407936735,6018766.0,22_0_no,28.81900631672668,-80.43137900691353,100.0
32136,29.45252,-81.14025,Flagler Beach,FL,Florida,True,,8372.0,182.3,12035,Flagler,"{""12035"": 90.25, ""12127"": 9.75}",Flagler|Volusia,12035|12127,False,False,America/New_York,"(29.45252, -81.14025)",61.205631731380535,6018766.0,22_0_no,28.81900631672668,-80.43137900691353,100.0
32137,29.58057,-81.22455,Palm Coast,FL,Florida,True,,44396.0,274.7,12035,Flagler,"{""12035"": 100}",Flagler,12035,False,False,America/New_York,"(29.58057, -81.22455)",71.11424528844057,6018766.0,22_0_no,28.81900631672668,-80.43137900691353,100.0
32139,29.37693,-81.61431,Georgetown,FL,Florida,True,,1028.0,31.5,12107,Putnam,"{""12107"": 99.85, ""12127"": 0.15}",Putnam|Volusia,12107|12127,False,False,America/New_York,"(29.37693, -81.61431)",81.15609633735873,6018766.0,22_0_no,28.81900631672668,-80.43137900691353,100.0
32140,29.76274,-81.86306,Florahome,FL,Florida,True,,1575.0,18.2,12107,Putnam,"{""12107"": 90.17, ""12019"": 9.83}",Putnam|Clay,12107|12019,False,False,America/New_York,"(29.76274, -81.86306)",108.14033174936932,6018766.0,22_0_no,28.81900631672668,-80.43137900691353,100.0
32141,28.92322,-80.90196,Edgewater,FL,Florida,True,,19414.0,318.0,12127,Volusia,"{""12127"": 100}",Volusia,12127,False,False,America/New_York,"(28.92322, -80.90196)",29.369144658308226,6018766.0,22_0_no,28.81900631672668,-80.43137900691353,100.0
32145,29.67899,-81.41973,Hastings,FL,Florida,True,,5788.0,25.0,12109,St. Johns,"{""12109"": 99.36, ""12107"": 0.64}",St. Johns|Putnam,12109|12107,False,False,America/New_York,"(29.67899, -81.41973)",84.14579944252208,6018766.0,22_0_no,28.81900631672668,-80.43137900691353,100.0
32147,29.63157,-81.79577,Hollister,FL,Florida,True,,597.0,7.7,12107,Putnam,"{""12107"": 100}",Putnam,12107,False,False,America/New_York,"(29.63157, -81.79577)",99.59991712175496,6018766.0,22_0_no,28.81900631672668,-80.43137900691353,100.0
32148,29.60088,-81.88191,Interlachen,FL,Florida,True,,10766.0,53.2,12107,Putnam,"{""12107"": 100}",Putnam,12107,False,False,America/New_York,"(29.60088, -81.88191)",102.81255386230892,6018766.0,22_0_no,28.81900631672668,-80.43137900691353,100.0
32157,29.46296,-81.58165,Lake Como,FL,Florida,True,,340.0,52.3,12107,Putnam,"{""12107"": 100}",Putnam,12107,False,False,America/New_York,"(29.46296, -81.58165)",82.45072896779959,6018766.0,22_0_no,28.81900631672668,-80.43137900691353,100.0
32159,28.92456,-81.90528,Lady Lake,FL,Florida,True,,30459.0,389.9,12069,Lake,"{""12069"": 85.93, ""12119"": 14.07}",Lake|Sumter,12069|12119,False,False,America/New_York,"(28.92456, -81.90528)",89.47590638499851,6018766.0,22_0_no,28.81900631672668,-80.43137900691353,100.0
32162,28.91629,-81.99374,The Villages,FL,Florida,True,,55828.0,946.6,12119,Sumter,"{""12119"": 84.95, ""12083"": 15.05}",Sumter|Marion,12119|12083,False,False,America/New_York,"(28.91629, -81.99374)",94.7728019684085,6018766.0,22_0_no,28.81900631672668,-80.43137900691353,100.0
32164,29.48316,-81.2174,Palm Coast,FL,Florida,True,,49642.0,589.5,12035,Flagler,"{""12035"": 100}",Flagler,12035,False,False,America/New_York,"(29.48316, -81.2174)",65.9948328274013,6018766.0,22_0_no,28.81900631672668,-80.43137900691353,100.0
32168,28.98214,-81.03721,New Smyrna Beach,FL,Florida,True,,28284.0,70.9,12127,Volusia,"{""12127"": 100}",Volusia,12127,False,False,America/New_York,"(28.98214, -81.03721)",38.34001348354543,6018766.0,22_0_no,28.81900631672668,-80.43137900691353,100.0
32169,28.97934,-80.87386,New Smyrna Beach,FL,Florida,True,,10732.0,255.8,12127,Volusia,"{""12127"": 100}",Volusia,12127,False,False,America/New_York,"(28.97934, -80.87386)",28.96732051512059,6018766.0,22_0_no,28.81900631672668,-80.43137900691353,100.0
32174,29.28928,-81.16446,Ormond Beach,FL,Florida,True,,52115.0,160.5,12127,Volusia,"{""12127"": 71.81, ""12035"": 28.19}",Volusia|Flagler,12127|12035,False,False,America/New_York,"(29.28928, -81.16446)",54.920180033570965,6018766.0,22_0_no,28.81900631672668,-80.43137900691353,100.0
32176,29.33216,-81.06327,Ormond Beach,FL,Florida,True,,14821.0,1005.4,12127,Volusia,"{""12127"": 100}",Volusia,12127,False,False,America/New_York,"(29.33216, -81.06327)",52.087128240385255,6018766.0,22_0_no,28.81900631672668,-80.43137900691353,100.0
32177,29.69011,-81.70565,Palatka,FL,Florida,True,,28343.0,48.2,12107,Putnam,"{""12107"": 100}",Putnam,12107,False,False,America/New_York,"(29.69011, -81.70565)",97.58437654752134,6018766.0,22_0_no,28.81900631672668,-80.43137900691353,100.0
32179,29.09631,-81.89686,Ocklawaha,FL,Florida,True,,7843.0,40.3,12083,Marion,"{""12083"": 100}",Marion,12083,False,False,America/New_York,"(29.09631, -81.89686)",90.64332997440145,6018766.0,22_0_no,28.81900631672668,-80.43137900691353,100.0
32180,29.23437,-81.44521,Pierson,FL,Florida,True,,5184.0,22.2,12127,Volusia,"{""12127"": 88.09, ""12035"": 11.91}",Volusia|Flagler,12127|12035,False,False,America/New_York,"(29.23437, -81.44521)",67.64015183947535,6018766.0,22_0_no,28.81900631672668,-80.43137900691353,100.0
32181,29.50658,-81.60126,Pomona Park,FL,Florida,True,,2696.0,40.8,12107,Putnam,"{""12107"": 100}",Putnam,12107,False,False,America/New_York,"(29.50658, -81.60126)",85.08206870520434,6018766.0,22_0_no,28.81900631672668,-80.43137900691353,100.0
32187,29.57827,-81.55392,San Mateo,FL,Florida,True,,1454.0,24.3,12107,Putnam,"{""12107"": 100}",Putnam,12107,False,False,America/New_York,"(29.57827, -81.55392)",85.64960045220056,6018766.0,22_0_no,28.81900631672668,-80.43137900691353,100.0
32189,29.54991,-81.64819,Satsuma,FL,Florida,True,,5541.0,73.1,12107,Putnam,"{""12107"": 100}",Putnam,12107,False,False,America/New_York,"(29.54991, -81.64819)",89.09438607347953,6018766.0,22_0_no,28.81900631672668,-80.43137900691353,100.0
32190,29.33289,-81.49056,Seville,FL,Florida,True,,1310.0,13.6,12127,Volusia,"{""12127"": 100}",Volusia,12127,False,False,America/New_York,"(29.33289, -81.49056)",73.1535331744359,6018766.0,22_0_no,28.81900631672668,-80.43137900691353,100.0
32193,29.47605,-81.6647,Welaka,FL,Florida,True,,969.0,104.9,12107,Putnam,"{""12107"": 100}",Putnam,12107,False,False,America/New_York,"(29.47605, -81.6647)",87.17579260880615,6018766.0,22_0_no,28.81900631672668,-80.43137900691353,100.0
32195,28.9854,-81.89814,Weirsdale,FL,Florida,True,,3291.0,52.1,12083,Marion,"{""12083"": 87.29, ""12069"": 12.71}",Marion|Lake,12083|12069,False,False,America/New_York,"(28.9854, -81.89814)",89.46195153673538,6018766.0,22_0_no,28.81900631672668,-80.43137900691353,100.0
32210,30.26491,-81.74746,Jacksonville,FL,Florida,True,,62457.0,1101.7,12031,Duval,"{""12031"": 100}",Duval,12031,False,False,America/New_York,"(30.26491, -81.74746)",127.42959202411609,6018766.0,22_0_no,28.81900631672668,-80.43137900691353,100.0
32212,30.21916,-81.67869,Jacksonville,FL,Florida,True,,2327.0,175.7,12031,Duval,"{""12031"": 100}",Duval,12031,False,False,America/New_York,"(30.21916, -81.67869)",122.40258106321629,6018766.0,22_0_no,28.81900631672668,-80.43137900691353,100.0
32217,30.2394,-81.62722,Jacksonville,FL,Florida,True,,19785.0,1421.1,12031,Duval,"{""12031"": 100}",Duval,12031,False,False,America/New_York,"(30.2394, -81.62722)",121.6525796504796,6018766.0,22_0_no,28.81900631672668,-80.43137900691353,100.0
32221,30.26043,-81.86764,Jacksonville,FL,Florida,True,,28809.0,234.3,12031,Duval,"{""12031"": 100}",Duval,12031,False,False,America/New_York,"(30.26043, -81.86764)",131.80263310570854,6018766.0,22_0_no,28.81900631672668,-80.43137900691353,100.0
32222,30.21651,-81.8293,Jacksonville,FL,Florida,True,,13933.0,472.1,12031,Duval,"{""12031"": 100}",Duval,12031,False,False,America/New_York,"(30.21651, -81.8293)",128.01253142519303,6018766.0,22_0_no,28.81900631672668,-80.43137900691353,100.0
32223,30.1549,-81.64821,Jacksonville,FL,Florida,True,,24615.0,826.2,12031,Duval,"{""12031"": 100}",Duval,12031,False,False,America/New_York,"(30.1549, -81.64821)",117.79227592510064,6018766.0,22_0_no,28.81900631672668,-80.43137900691353,100.0
32224,30.26815,-81.4642,Jacksonville,FL,Florida,True,,41017.0,759.2,12031,Duval,"{""12031"": 91.71, ""12109"": 8.29}",Duval|St. Johns,12031|12109,False,False,America/New_York,"(30.26815, -81.4642)",117.80968763046766,6018766.0,22_0_no,28.81900631672668,-80.43137900691353,100.0
32234,30.20784,-82.01096,Jacksonville,FL,Florida,True,,6475.0,16.4,12031,Duval,"{""12031"": 45.79, ""12019"": 28.87, ""12003"": 20.97, ""12089"": 4.36}",Duval|Clay|Baker|Nassau,12031|12019|12003|12089,False,False,America/New_York,"(30.20784, -82.01096)",135.0102913185152,6018766.0,22_0_no,28.81900631672668,-80.43137900691353,100.0
32244,30.2171,-81.75384,Jacksonville,FL,Florida,True,,61190.0,1002.2,12031,Duval,"{""12031"": 100}",Duval,12031,False,False,America/New_York,"(30.2171, -81.75384)",125.1120938998892,6018766.0,22_0_no,28.81900631672668,-80.43137900691353,100.0
32256,30.1929,-81.50309,Jacksonville,FL,Florida,True,,47883.0,301.3,12031,Duval,"{""12031"": 100}",Duval,12031,False,False,America/New_York,"(30.1929, -81.50309)",114.733634455891,6018766.0,22_0_no,28.81900631672668,-80.43137900691353,100.0
32257,30.19515,-81.6123,Jacksonville,FL,Florida,True,,39154.0,1233.9,12031,Duval,"{""12031"": 100}",Duval,12031,False,False,America/New_York,"(30.19515, -81.6123)",118.67047165308351,6018766.0,22_0_no,28.81900631672668,-80.43137900691353,100.0
32258,30.13874,-81.54941,Jacksonville,FL,Florida,True,,39963.0,866.0,12031,Duval,"{""12031"": 100}",Duval,12031,False,False,America/New_York,"(30.13874, -81.54941)",113.29838469828934,6018766.0,22_0_no,28.81900631672668,-80.43137900691353,100.0
32259,30.07109,-81.6029,Saint Johns,FL,Florida,True,,57223.0,390.7,12109,St. Johns,"{""12109"": 98.86, ""12031"": 1.14}",St. Johns|Duval,12109|12031,False,False,America/New_York,"(30.07109, -81.6029)",111.58998051921179,6018766.0,22_0_no,28.81900631672668,-80.43137900691353,100.0
32617,29.30659,-82.07553,Anthony,FL,Florida,True,,4768.0,61.6,12083,Marion,"{""12083"": 100}",Marion,12083,False,False,America/New_York,"(29.30659, -82.07553)",104.854351802026,6018766.0,22_0_no,28.81900631672668,-80.43137900691353,100.0
32656,29.82533,-81.95287,Keystone Heights,FL,Florida,True,,14538.0,80.0,12019,Clay,"{""12019"": 95.35, ""12007"": 4.65}",Clay|Bradford,12019|12007,False,False,America/New_York,"(29.82533, -81.95287)",115.0426987513985,6018766.0,22_0_no,28.81900631672668,-80.43137900691353,100.0
32666,29.72301,-81.99145,Melrose,FL,Florida,True,,6620.0,45.0,12107,Putnam,"{""12107"": 59.71, ""12001"": 20.37, ""12019"": 14.22, ""12007"": 5.7}",Putnam|Alachua|Clay|Bradford,12107|12001|12019|12007,False,False,America/New_York,"(29.72301, -81.99145)",112.88064216555856,6018766.0,22_0_no,28.81900631672668,-80.43137900691353,100.0
32701,28.66509,-81.36916,Altamonte Springs,FL,Florida,True,,24060.0,1649.0,12117,Seminole,"{""12117"": 100}",Seminole,12117,False,False,America/New_York,"(28.66509, -81.36916)",57.797999507171504,6018766.0,22_0_no,28.81900631672668,-80.43137900691353,100.0
32702,29.04642,-81.6259,Altoona,FL,Florida,True,,2378.0,15.5,12069,Lake,"{""12069"": 77.15, ""12083"": 22.85}",Lake|Marion,12069|12083,False,False,America/New_York,"(29.04642, -81.6259)",73.9212695356767,6018766.0,22_0_no,28.81900631672668,-80.43137900691353,100.0
32703,28.65579,-81.52139,Apopka,FL,Florida,True,,55239.0,664.2,12095,Orange,"{""12095"": 90.8, ""12117"": 9.2}",Orange|Seminole,12095|12117,False,False,America/New_York,"(28.65579, -81.52139)",66.99224790997384,6018766.0,22_0_no,28.81900631672668,-80.43137900691353,100.0
32707,28.66255,-81.31403,Casselberry,FL,Florida,True,,37106.0,1489.7,12117,Seminole,"{""12117"": 100}",Seminole,12117,False,False,America/New_York,"(28.66255, -81.31403)",54.55383829277175,6018766.0,22_0_no,28.81900631672668,-80.43137900691353,100.0
32708,28.68751,-81.27086,Winter Springs,FL,Florida,True,,46542.0,971.3,12117,Seminole,"{""12117"": 100}",Seminole,12117,False,False,America/New_York,"(28.68751, -81.27086)",51.65601102657997,6018766.0,22_0_no,28.81900631672668,-80.43137900691353,100.0
32709,28.49266,-80.98801,Christmas,FL,Florida,True,,1601.0,4.2,12095,Orange,"{""12095"": 100}",Orange,12095,False,False,America/New_York,"(28.49266, -80.98801)",40.58826759411879,6018766.0,22_0_no,28.81900631672668,-80.43137900691353,100.0
32712,28.72917,-81.54103,Apopka,FL,Florida,True,,48987.0,264.4,12095,Orange,"{""12095"": 100}",Orange,12095,False,False,America/New_York,"(28.72917, -81.54103)",67.48855446772338,6018766.0,22_0_no,28.81900631672668,-80.43137900691353,100.0
32713,28.8816,-81.3238,Debary,FL,Florida,True,,21212.0,429.4,12127,Volusia,"{""12127"": 100}",Volusia,12127,False,False,America/New_York,"(28.8816, -81.3238)",54.180088298838506,6018766.0,22_0_no,28.81900631672668,-80.43137900691353,100.0
32714,28.66237,-81.4115,Altamonte Springs,FL,Florida,True,,37983.0,1728.2,12117,Seminole,"{""12117"": 100}",Seminole,12117,False,False,America/New_York,"(28.66237, -81.4115)",60.355192570898275,6018766.0,22_0_no,28.81900631672668,-80.43137900691353,100.0
32720,29.01775,-81.37802,Deland,FL,Florida,True,,33485.0,195.0,12127,Volusia,"{""12127"": 55.86, ""12069"": 44.14}",Volusia|Lake,12127|12069,False,False,America/New_York,"(29.01775, -81.37802)",58.8746629739526,6018766.0,22_0_no,28.81900631672668,-80.43137900691353,100.0
32724,29.0506,-81.23284,Deland,FL,Florida,True,,37856.0,174.5,12127,Volusia,"{""12127"": 100}",Volusia,12127,False,False,America/New_York,"(29.0506, -81.23284)",51.03641614288034,6018766.0,22_0_no,28.81900631672668,-80.43137900691353,100.0
32725,28.88368,-81.25061,Deltona,FL,Florida,True,,49802.0,834.2,12127,Volusia,"{""12127"": 100}",Volusia,12127,False,False,America/New_York,"(28.88368, -81.25061)",49.778411728249836,6018766.0,22_0_no,28.81900631672668,-80.43137900691353,100.0
32726,28.8541,-81.68,Eustis,FL,Florida,True,,23354.0,784.9,12069,Lake,"{""12069"": 100}",Lake,12069,False,False,America/New_York,"(28.8541, -81.68)",75.6122937160655,6018766.0,22_0_no,28.81900631672668,-80.43137900691353,100.0
32730,28.65242,-81.34301,Casselberry,FL,Florida,True,,6656.0,2084.0,12117,Seminole,"{""12117"": 100}",Seminole,12117,False,False,America/New_York,"(28.65242, -81.34301)",56.41698264718415,6018766.0,22_0_no,28.81900631672668,-80.43137900691353,100.0
32732,28.74565,-81.10563,Geneva,FL,Florida,True,,5345.0,37.0,12117,Seminole,"{""12117"": 100}",Seminole,12117,False,False,America/New_York,"(28.74565, -81.10563)",41.144129119512314,6018766.0,22_0_no,28.81900631672668,-80.43137900691353,100.0
32735,28.89099,-81.73718,Grand Island,FL,Florida,True,,4133.0,399.9,12069,Lake,"{""12069"": 100}",Lake,12069,False,False,America/New_York,"(28.89099, -81.73718)",79.17656485301231,6018766.0,22_0_no,28.81900631672668,-80.43137900691353,100.0
32736,28.89831,-81.49317,Eustis,FL,Florida,True,,11229.0,39.7,12069,Lake,"{""12069"": 100}",Lake,12069,False,False,America/New_York,"(28.89831, -81.49317)",64.48505984008995,6018766.0,22_0_no,28.81900631672668,-80.43137900691353,100.0
32738,28.90755,-81.18862,Deltona,FL,Florida,True,,46727.0,700.0,12127,Volusia,"{""12127"": 100}",Volusia,12127,False,False,America/New_York,"(28.90755, -81.18862)",46.22734337777526,6018766.0,22_0_no,28.81900631672668,-80.43137900691353,100.0
32744,28.98497,-81.21899,Lake Helen,FL,Florida,True,,3478.0,98.8,12127,Volusia,"{""12127"": 100}",Volusia,12127,False,False,America/New_York,"(28.98497, -81.21899)",49.001252420303814,6018766.0,22_0_no,28.81900631672668,-80.43137900691353,100.0
32746,28.76297,-81.35499,Lake Mary,FL,Florida,True,,46816.0,858.2,12117,Seminole,"{""12117"": 100}",Seminole,12117,False,False,America/New_York,"(28.76297, -81.35499)",56.06044576834995,6018766.0,22_0_no,28.81900631672668,-80.43137900691353,100.0
32750,28.7074,-81.34955,Longwood,FL,Florida,True,,25639.0,867.4,12117,Seminole,"{""12117"": 100}",Seminole,12117,False,False,America/New_York,"(28.7074, -81.34955)",56.144067188055466,6018766.0,22_0_no,28.81900631672668,-80.43137900691353,100.0
32751,28.631,-81.36457,Maitland,FL,Florida,True,,21478.0,1181.5,12095,Orange,"{""12095"": 76.68, ""12117"": 23.32}",Orange|Seminole,12095|12117,False,False,America/New_York,"(28.631, -81.36457)",58.01532608232015,6018766.0,22_0_no,28.81900631672668,-80.43137900691353,100.0
32754,28.68565,-80.9208,Mims,FL,Florida,True,,11398.0,32.1,12009,Brevard,"{""12009"": 78.38, ""12127"": 21.62}",Brevard|Volusia,12009|12127,False,False,America/New_York,"(28.68565, -80.9208)",31.045342703781014,6018766.0,22_0_no,28.81900631672668,-80.43137900691353,100.0
32757,28.77954,-81.637,Mount Dora,FL,Florida,True,,29295.0,320.7,12069,Lake,"{""12069"": 67.86, ""12095"": 32.14}",Lake|Orange,12069|12095,False,False,America/New_York,"(28.77954, -81.637)",73.04787208099943,6018766.0,22_0_no,28.81900631672668,-80.43137900691353,100.0
32759,28.84004,-80.9034,Oak Hill,FL,Florida,True,,3230.0,25.6,12127,Volusia,"{""12127"": 100}",Volusia,12127,False,False,America/New_York,"(28.84004, -80.9034)",28.608285019452424,6018766.0,22_0_no,28.81900631672668,-80.43137900691353,100.0
32763,28.94291,-81.30593,Orange City,FL,Florida,True,,23837.0,440.0,12127,Volusia,"{""12127"": 100}",Volusia,12127,False,False,America/New_York,"(28.94291, -81.30593)",53.598245863292,6018766.0,22_0_no,28.81900631672668,-80.43137900691353,100.0
32764,28.83883,-81.07239,Osteen,FL,Florida,True,,3043.0,12.4,12127,Volusia,"{""12127"": 100}",Volusia,12127,False,False,America/New_York,"(28.83883, -81.07239)",38.82465495311387,6018766.0,22_0_no,28.81900631672668,-80.43137900691353,100.0
32765,28.66732,-81.20033,Oviedo,FL,Florida,True,,63800.0,631.2,12117,Seminole,"{""12117"": 100}",Seminole,12117,False,False,America/New_York,"(28.66732, -81.20033)",47.74738903282056,6018766.0,22_0_no,28.81900631672668,-80.43137900691353,100.0
32766,28.64761,-81.08124,Oviedo,FL,Florida,True,,16415.0,144.6,12117,Seminole,"{""12117"": 100}",Seminole,12117,False,False,America/New_York,"(28.64761, -81.08124)",41.11463874810788,6018766.0,22_0_no,28.81900631672668,-80.43137900691353,100.0
32767,29.01957,-81.52065,Paisley,FL,Florida,True,,3226.0,22.7,12069,Lake,"{""12069"": 100}",Lake,12069,False,False,America/New_York,"(29.01957, -81.52065)",67.31795081568504,6018766.0,22_0_no,28.81900631672668,-80.43137900691353,100.0
32771,28.81496,-81.31751,Sanford,FL,Florida,True,,57030.0,587.2,12117,Seminole,"{""12117"": 100}",Seminole,12117,False,False,America/New_York,"(28.81496, -81.31751)",53.64445406493566,6018766.0,22_0_no,28.81900631672668,-80.43137900691353,100.0
32773,28.75264,-81.24659,Sanford,FL,Florida,True,,31090.0,434.9,12117,Seminole,"{""12117"": 100}",Seminole,12117,False,False,America/New_York,"(28.75264, -81.24659)",49.57772311569816,6018766.0,22_0_no,28.81900631672668,-80.43137900691353,100.0
32776,28.81033,-81.4872,Sorrento,FL,Florida,True,,12191.0,95.0,12069,Lake,"{""12069"": 85.08, ""12095"": 14.92}",Lake|Orange,12069|12095,False,False,America/New_York,"(28.81033, -81.4872)",63.920421341994526,6018766.0,22_0_no,28.81900631672668,-80.43137900691353,100.0
32778,28.77554,-81.72884,Tavares,FL,Florida,True,,22486.0,341.8,12069,Lake,"{""12069"": 100}",Lake,12069,False,False,America/New_York,"(28.77554, -81.72884)",78.61644930469163,6018766.0,22_0_no,28.81900631672668,-80.43137900691353,100.0
32779,28.71632,-81.41343,Longwood,FL,Florida,True,,29618.0,606.0,12117,Seminole,"{""12117"": 100}",Seminole,12117,False,False,America/New_York,"(28.71632, -81.41343)",59.90019024968435,6018766.0,22_0_no,28.81900631672668,-80.43137900691353,100.0
32780,28.54672,-80.7841,Titusville,FL,Florida,True,,35908.0,203.5,12009,Brevard,"{""12009"": 100}",Brevard,12009,False,False,America/New_York,"(28.54672, -80.7841)",28.478864105201506,6018766.0,22_0_no,28.81900631672668,-80.43137900691353,100.0
32784,28.97626,-81.7232,Umatilla,FL,Florida,True,,10869.0,45.2,12083,Marion,"{""12083"": 53.19, ""12069"": 46.81}",Marion|Lake,12083|12069,False,False,America/New_York,"(28.97626, -81.7232)",78.893852648026,6018766.0,22_0_no,28.81900631672668,-80.43137900691353,100.0
32789,28.59977,-81.35235,Winter Park,FL,Florida,True,,25767.0,1275.2,12095,Orange,"{""12095"": 100}",Orange,12095,False,False,America/New_York,"(28.59977, -81.35235)",57.829410229295625,6018766.0,22_0_no,28.81900631672668,-80.43137900691353,100.0
32792,28.61066,-81.29923,Winter Park,FL,Florida,True,,52670.0,1678.4,12117,Seminole,"{""12117"": 51.71, ""12095"": 48.29}",Seminole|Orange,12117|12095,False,False,America/New_York,"(28.61066, -81.29923)",54.52318118141411,6018766.0,22_0_no,28.81900631672668,-80.43137900691353,100.0
32796,28.62591,-80.84051,Titusville,FL,Florida,True,,20738.0,555.5,12009,Brevard,"{""12009"": 100}",Brevard,12009,False,False,America/New_York,"(28.62591, -80.84051)",28.152202731995178,6018766.0,22_0_no,28.81900631672668,-80.43137900691353,100.0
32798,28.72647,-81.58648,Zellwood,FL,Florida,True,,2583.0,333.2,12095,Orange,"{""12095"": 100}",Orange,12095,False,False,America/New_York,"(28.72647, -81.58648)",70.24749314363949,6018766.0,22_0_no,28.81900631672668,-80.43137900691353,100.0
32801,28.542,-81.37343,Orlando,FL,Florida,True,,12945.0,2261.7,12095,Orange,"{""12095"": 100}",Orange,12095,False,False,America/New_York,"(28.542, -81.37343)",60.2255117190388,6018766.0,22_0_no,28.81900631672668,-80.43137900691353,100.0
32803,28.55592,-81.34895,Orlando,FL,Florida,True,,20771.0,1178.2,12095,Orange,"{""12095"": 100}",Orange,12095,False,False,America/New_York,"(28.55592, -81.34895)",58.5110674955978,6018766.0,22_0_no,28.81900631672668,-80.43137900691353,100.0
32804,28.57688,-81.39748,Orlando,FL,Florida,True,,18695.0,1009.0,12095,Orange,"{""12095"": 100}",Orange,12095,False,False,America/New_York,"(28.57688, -81.39748)",60.8945569714576,6018766.0,22_0_no,28.81900631672668,-80.43137900691353,100.0
32805,28.52981,-81.40614,Orlando,FL,Florida,True,,19764.0,1121.1,12095,Orange,"{""12095"": 100}",Orange,12095,False,False,America/New_York,"(28.52981, -81.40614)",62.37660291083289,6018766.0,22_0_no,28.81900631672668,-80.43137900691353,100.0
32806,28.5123,-81.36031,Orlando,FL,Florida,True,,26964.0,1525.7,12095,Orange,"{""12095"": 100}",Orange,12095,False,False,America/New_York,"(28.5123, -81.36031)",60.171225837035664,6018766.0,22_0_no,28.81900631672668,-80.43137900691353,100.0
32807,28.55245,-81.30165,Orlando,FL,Florida,True,,34239.0,1573.6,12095,Orange,"{""12095"": 100}",Orange,12095,False,False,America/New_York,"(28.55245, -81.30165)",55.87249680398472,6018766.0,22_0_no,28.81900631672668,-80.43137900691353,100.0
32808,28.57932,-81.44342,Orlando,FL,Florida,True,,60450.0,1965.2,12095,Orange,"{""12095"": 100}",Orange,12095,False,False,America/New_York,"(28.57932, -81.44342)",63.53140800512679,6018766.0,22_0_no,28.81900631672668,-80.43137900691353,100.0
32809,28.46301,-81.38428,Orlando,FL,Florida,True,,30100.0,1119.0,12095,Orange,"{""12095"": 100}",Orange,12095,False,False,America/New_York,"(28.46301, -81.38428)",62.800180947817886,6018766.0,22_0_no,28.81900631672668,-80.43137900691353,100.0
32810,28.62113,-81.42863,Orlando,FL,Florida,True,,38248.0,1610.8,12095,Orange,"{""12095"": 99.89, ""12117"": 0.11}",Orange|Seminole,12095|12117,False,False,America/New_York,"(28.62113, -81.42863)",61.953982135728346,6018766.0,22_0_no,28.81900631672668,-80.43137900691353,100.0
32811,28.51624,-81.44516,Orlando,FL,Florida,True,,39905.0,1854.9,12095,Orange,"{""12095"": 100}",Orange,12095,False,False,America/New_York,"(28.51624, -81.44516)",64.92155265406525,6018766.0,22_0_no,28.81900631672668,-80.43137900691353,100.0
32812,28.4848,-81.32767,Orlando,FL,Florida,True,,35174.0,1599.9,12095,Orange,"{""12095"": 100}",Orange,12095,False,False,America/New_York,"(28.4848, -81.32767)",59.0468501974701,6018766.0,22_0_no,28.81900631672668,-80.43137900691353,100.0
32814,28.57002,-81.32663,Orlando,FL,Florida,True,,8405.0,2710.6,12095,Orange,"{""12095"": 100}",Orange,12095,False,False,America/New_York,"(28.57002, -81.32663)",56.92126858587266,6018766.0,22_0_no,28.81900631672668,-80.43137900691353,100.0
32817,28.59002,-81.2445,Orlando,FL,Florida,True,,35332.0,1162.9,12095,Orange,"{""12095"": 100}",Orange,12095,False,False,America/New_York,"(28.59002, -81.2445)",51.75456238201164,6018766.0,22_0_no,28.81900631672668,-80.43137900691353,100.0
32818,28.58518,-81.48716,Orlando,FL,Florida,True,,61027.0,2117.2,12095,Orange,"{""12095"": 100}",Orange,12095,False,False,America/New_York,"(28.58518, -81.48716)",65.99221263218247,6018766.0,22_0_no,28.81900631672668,-80.43137900691353,100.0
32819,28.45565,-81.472,Orlando,FL,Florida,True,,27849.0,520.3,12095,Orange,"{""12095"": 100}",Orange,12095,False,False,America/New_York,"(28.45565, -81.472)",67.91485105631064,6018766.0,22_0_no,28.81900631672668,-80.43137900691353,100.0
32820,28.58493,-81.12127,Orlando,FL,Florida,True,,10934.0,279.6,12095,Orange,"{""12095"": 100}",Orange,12095,False,False,America/New_York,"(28.58493, -81.12127)",44.829044314604474,6018766.0,22_0_no,28.81900631672668,-80.43137900691353,100.0
32821,28.38095,-81.47719,Orlando,FL,Florida,True,,19220.0,454.9,12095,Orange,"{""12095"": 100}",Orange,12095,False,False,America/New_York,"(28.38095, -81.47719)",70.29146213550887,6018766.0,22_0_no,28.81900631672668,-80.43137900691353,100.0
32822,28.49001,-81.29056,Orlando,FL,Florida,True,,64013.0,1817.7,12095,Orange,"{""12095"": 100}",Orange,12095,False,False,America/New_York,"(28.49001, -81.29056)",56.83666858430744,6018766.0,22_0_no,28.81900631672668,-80.43137900691353,100.0
32824,28.38991,-81.34471,Orlando,FL,Florida,True,,51946.0,598.8,12095,Orange,"{""12095"": 100}",Orange,12095,False,False,America/New_York,"(28.38991, -81.34471)",62.83651787642847,6018766.0,22_0_no,28.81900631672668,-80.43137900691353,100.0
32825,28.53681,-81.24243,Orlando,FL,Florida,True,,60254.0,1265.7,12095,Orange,"{""12095"": 100}",Orange,12095,False,False,America/New_York,"(28.53681, -81.24243)",52.88915336081158,6018766.0,22_0_no,28.81900631672668,-80.43137900691353,100.0
32826,28.58543,-81.18263,Orlando,FL,Florida,True,,37297.0,1961.8,12095,Orange,"{""12095"": 100}",Orange,12095,False,False,America/New_York,"(28.58543, -81.18263)",48.30421394019856,6018766.0,22_0_no,28.81900631672668,-80.43137900691353,100.0
32827,28.41399,-81.29032,Orlando,FL,Florida,True,,9775.0,166.5,12095,Orange,"{""12095"": 100}",Orange,12095,False,False,America/New_York,"(28.41399, -81.29032)",59.13739371051044,6018766.0,22_0_no,28.81900631672668,-80.43137900691353,100.0
32828,28.53052,-81.17022,Orlando,FL,Florida,True,,69913.0,1295.8,12095,Orange,"{""12095"": 100}",Orange,12095,False,False,America/New_York,"(28.53052, -81.17022)",49.023256595421806,6018766.0,22_0_no,28.81900631672668,-80.43137900691353,100.0
32829,28.47639,-81.22478,Orlando,FL,Florida,True,,20903.0,416.6,12095,Orange,"{""12095"": 100}",Orange,12095,False,False,America/New_York,"(28.47639, -81.22478)",53.61675562825536,6018766.0,22_0_no,28.81900631672668,-80.43137900691353,100.0
32831,28.47439,-81.14729,Orlando,FL,Florida,True,,3022.0,108.2,12095,Orange,"{""12095"": 100}",Orange,12095,False,False,America/New_York,"(28.47439, -81.14729)",49.51113075179073,6018766.0,22_0_no,28.81900631672668,-80.43137900691353,100.0
32832,28.39843,-81.18407,Orlando,FL,Florida,True,,29359.0,209.3,12095,Orange,"{""12095"": 100}",Orange,12095,False,False,America/New_York,"(28.39843, -81.18407)",54.11957357292519,6018766.0,22_0_no,28.81900631672668,-80.43137900691353,100.0
32833,28.4948,-81.081,Orlando,FL,Florida,True,,9659.0,109.3,12095,Orange,"{""12095"": 100}",Orange,12095,False,False,America/New_York,"(28.4948, -81.081)",45.31079487532332,6018766.0,22_0_no,28.81900631672668,-80.43137900691353,100.0
32835,28.52182,-81.48473,Orlando,FL,Florida,True,,47867.0,1967.5,12095,Orange,"{""12095"": 100}",Orange,12095,False,False,America/New_York,"(28.52182, -81.48473)",67.07627161819521,6018766.0,22_0_no,28.81900631672668,-80.43137900691353,100.0
32836,28.41734,-81.51536,Orlando,FL,Florida,True,,19640.0,635.5,12095,Orange,"{""12095"": 100}",Orange,12095,False,False,America/New_York,"(28.41734, -81.51536)",71.36297494382558,6018766.0,22_0_no,28.81900631672668,-80.43137900691353,100.0
32837,28.38074,-81.41998,Orlando,FL,Florida,True,,50780.0,1075.7,12095,Orange,"{""12095"": 100}",Orange,12095,False,False,America/New_York,"(28.38074, -81.41998)",67.18240872894982,6018766.0,22_0_no,28.81900631672668,-80.43137900691353,100.0
32839,28.48833,-81.40689,Orlando,FL,Florida,True,,53012.0,2755.2,12095,Orange,"{""12095"": 100}",Orange,12095,False,False,America/New_York,"(28.48833, -81.40689)",63.40617958162313,6018766.0,22_0_no,28.81900631672668,-80.43137900691353,100.0
32901,28.07887,-80.62268,Melbourne,FL,Florida,True,,26014.0,832.6,12009,Brevard,"{""12009"": 100}",Brevard,12009,False,False,America/New_York,"(28.07887, -80.62268)",52.44241558015328,6018766.0,22_0_no,28.81900631672668,-80.43137900691353,100.0
32903,28.10818,-80.58709,Indialantic,FL,Florida,True,,14693.0,1566.0,12009,Brevard,"{""12009"": 100}",Brevard,12009,False,False,America/New_York,"(28.10818, -80.58709)",50.01581425952068,6018766.0,22_0_no,28.81900631672668,-80.43137900691353,100.0
32905,28.03136,-80.59997,Palm Bay,FL,Florida,True,,23410.0,931.6,12009,Brevard,"{""12009"": 100}",Brevard,12009,False,False,America/New_York,"(28.03136, -80.59997)",55.37693114093826,6018766.0,22_0_no,28.81900631672668,-80.43137900691353,100.0
32907,28.01565,-80.68187,Palm Bay,FL,Florida,True,,46911.0,1022.9,12009,Brevard,"{""12009"": 100}",Brevard,12009,False,False,America/New_York,"(28.01565, -80.68187)",57.555916059130844,6018766.0,22_0_no,28.81900631672668,-80.43137900691353,100.0
32908,27.95622,-80.69827,Palm Bay,FL,Florida,True,,12605.0,253.4,12009,Brevard,"{""12009"": 100}",Brevard,12009,False,False,America/New_York,"(27.95622, -80.69827)",61.780807759086045,6018766.0,22_0_no,28.81900631672668,-80.43137900691353,100.0
32909,27.90435,-80.65515,Palm Bay,FL,Florida,True,,31734.0,212.5,12009,Brevard,"{""12009"": 100}",Brevard,12009,False,False,America/New_York,"(27.90435, -80.65515)",64.64458544549915,6018766.0,22_0_no,28.81900631672668,-80.43137900691353,100.0
32920,28.44603,-80.58503,Cape Canaveral,FL,Florida,True,,10387.0,161.8,12009,Brevard,"{""12009"": 100}",Brevard,12009,False,False,America/New_York,"(28.44603, -80.58503)",27.403076204660263,6018766.0,22_0_no,28.81900631672668,-80.43137900691353,100.0
32922,28.37252,-80.74279,Cocoa,FL,Florida,True,,17384.0,1233.1,12009,Brevard,"{""12009"": 100}",Brevard,12009,False,False,America/New_York,"(28.37252, -80.74279)",36.1742334989513,6018766.0,22_0_no,28.81900631672668,-80.43137900691353,100.0
32925,28.24272,-80.62287,Patrick Afb,FL,Florida,True,,1642.0,204.8,12009,Brevard,"{""12009"": 100}",Brevard,12009,False,False,America/New_York,"(28.24272, -80.62287)",41.479589533491655,6018766.0,22_0_no,28.81900631672668,-80.43137900691353,100.0
32926,28.39051,-80.81773,Cocoa,FL,Florida,True,,22862.0,179.2,12009,Brevard,"{""12009"": 100}",Brevard,12009,False,False,America/New_York,"(28.39051, -80.81773)",37.759455976858845,6018766.0,22_0_no,28.81900631672668,-80.43137900691353,100.0
32927,28.46372,-80.80709,Cocoa,FL,Florida,True,,27344.0,411.6,12009,Brevard,"{""12009"": 100}",Brevard,12009,False,False,America/New_York,"(28.46372, -80.80709)",33.49105060714224,6018766.0,22_0_no,28.81900631672668,-80.43137900691353,100.0
32931,28.32193,-80.62731,Cocoa Beach,FL,Florida,True,,14131.0,1050.2,12009,Brevard,"{""12009"": 100}",Brevard,12009,False,False,America/New_York,"(28.32193, -80.62731)",36.344282251456306,6018766.0,22_0_no,28.81900631672668,-80.43137900691353,100.0
32934,28.13532,-80.71153,Melbourne,FL,Florida,True,,18298.0,308.2,12009,Brevard,"{""12009"": 100}",Brevard,12009,False,False,America/New_York,"(28.13532, -80.71153)",50.208956693209394,6018766.0,22_0_no,28.81900631672668,-80.43137900691353,100.0
32935,28.1444,-80.64832,Melbourne,FL,Florida,True,,42463.0,1247.5,12009,Brevard,"{""12009"": 100}",Brevard,12009,False,False,America/New_York,"(28.1444, -80.64832)",48.437072063085274,6018766.0,22_0_no,28.81900631672668,-80.43137900691353,100.0
32937,28.17464,-80.61146,Satellite Beach,FL,Florida,True,,27054.0,1537.0,12009,Brevard,"{""12009"": 100}",Brevard,12009,False,False,America/New_York,"(28.17464, -80.61146)",45.844648870486516,6018766.0,22_0_no,28.81900631672668,-80.43137900691353,100.0
32940,28.21813,-80.7543,Melbourne,FL,Florida,True,,43046.0,290.1,12009,Brevard,"{""12009"": 100}",Brevard,12009,False,False,America/New_York,"(28.21813, -80.7543)",45.9124843638507,6018766.0,22_0_no,28.81900631672668,-80.43137900691353,100.0
32948,27.75901,-80.61826,Fellsmere,FL,Florida,True,,6594.0,22.3,12061,Indian River,"{""12061"": 78.71, ""12009"": 21.29}",Indian River|Brevard,12061|12009,False,False,America/New_York,"(27.75901, -80.61826)",74.11605747660951,6018766.0,22_0_no,28.81900631672668,-80.43137900691353,100.0
32949,27.92005,-80.55203,Grant,FL,Florida,True,,2711.0,62.3,12009,Brevard,"{""12009"": 100}",Brevard,12009,False,False,America/New_York,"(27.92005, -80.55203)",62.54355896396167,6018766.0,22_0_no,28.81900631672668,-80.43137900691353,100.0
32950,27.9757,-80.57839,Malabar,FL,Florida,True,,4422.0,91.8,12009,Brevard,"{""12009"": 100}",Brevard,12009,False,False,America/New_York,"(27.9757, -80.57839)",58.94802368313487,6018766.0,22_0_no,28.81900631672668,-80.43137900691353,100.0
32951,27.9595,-80.51498,Melbourne Beach,FL,Florida,True,,12150.0,576.6,12009,Brevard,"{""12009"": 100}",Brevard,12009,False,False,America/New_York,"(27.9595, -80.51498)",59.60323963282855,6018766.0,22_0_no,28.81900631672668,-80.43137900691353,100.0
32952,28.31749,-80.66832,Merritt Island,FL,Florida,True,,20553.0,644.9,12009,Brevard,"{""12009"": 100}",Brevard,12009,False,False,America/New_York,"(28.31749, -80.66832)",37.51593031818548,6018766.0,22_0_no,28.81900631672668,-80.43137900691353,100.0
32953,28.45613,-80.69916,Merritt Island,FL,Florida,True,,23829.0,231.4,12009,Brevard,"{""12009"": 100}",Brevard,12009,False,False,America/New_York,"(28.45613, -80.69916)",29.871593733366087,6018766.0,22_0_no,28.81900631672668,-80.43137900691353,100.0
32955,28.29414,-80.77528,Rockledge,FL,Florida,True,,39846.0,302.5,12009,Brevard,"{""12009"": 100}",Brevard,12009,False,False,America/New_York,"(28.29414, -80.77528)",41.8415270029379,6018766.0,22_0_no,28.81900631672668,-80.43137900691353,100.0
32958,27.79364,-80.49135,Sebastian,FL,Florida,True,,29057.0,402.8,12061,Indian River,"{""12061"": 100}",Indian River,12061,False,False,America/New_York,"(27.79364, -80.49135)",70.9399256267086,6018766.0,22_0_no,28.81900631672668,-80.43137900691353,100.0
32960,27.64069,-80.40366,Vero Beach,FL,Florida,True,,22974.0,802.5,12061,Indian River,"{""12061"": 100}",Indian River,12061,False,False,America/New_York,"(27.64069, -80.40366)",81.43138666007366,6018766.0,22_0_no,28.81900631672668,-80.43137900691353,100.0
32962,27.5865,-80.38414,Vero Beach,FL,Florida,True,,25229.0,779.6,12061,Indian River,"{""12061"": 100}",Indian River,12061,False,False,America/New_York,"(27.5865, -80.38414)",85.20663690072226,6018766.0,22_0_no,28.81900631672668,-80.43137900691353,100.0
32963,27.71951,-80.39646,Vero Beach,FL,Florida,True,,15383.0,341.0,12061,Indian River,"{""12061"": 100}",Indian River,12061,False,False,America/New_York,"(27.71951, -80.39646)",75.99767046242879,6018766.0,22_0_no,28.81900631672668,-80.43137900691353,100.0
32966,27.68716,-80.70693,Vero Beach,FL,Florida,True,,19957.0,29.7,12061,Indian River,"{""12061"": 100}",Indian River,12061,False,False,America/New_York,"(27.68716, -80.70693)",79.98102944035853,6018766.0,22_0_no,28.81900631672668,-80.43137900691353,100.0
32967,27.71359,-80.46015,Vero Beach,FL,Florida,True,,22819.0,220.5,12061,Indian River,"{""12061"": 100}",Indian River,12061,False,False,America/New_York,"(27.71359, -80.46015)",76.3970568215096,6018766.0,22_0_no,28.81900631672668,-80.43137900691353,100.0
32968,27.58808,-80.50993,Vero Beach,FL,Florida,True,,14705.0,130.6,12061,Indian River,"{""12061"": 100}",Indian River,12061,False,False,America/New_York,"(27.58808, -80.50993)",85.18328508206865,6018766.0,22_0_no,28.81900631672668,-80.43137900691353,100.0
32970,27.75402,-80.45136,Wabasso,FL,Florida,True,,246.0,96.2,12061,Indian River,"{""12061"": 100}",Indian River,12061,False,False,America/New_York,"(27.75402, -80.45136)",73.59358710225646,6018766.0,22_0_no,28.81900631672668,-80.43137900691353,100.0
32976,27.86198,-80.53721,Sebastian,FL,Florida,True,,9109.0,144.8,12009,Brevard,"{""12009"": 100}",Brevard,12009,False,False,America/New_York,"(27.86198, -80.53721)",66.43666295928332,6018766.0,22_0_no,28.81900631672668,-80.43137900691353,100.0
33514,28.65771,-81.99886,Center Hill,FL,Florida,True,,2954.0,27.0,12119,Sumter,"{""12119"": 100}",Sumter,12119,False,False,America/New_York,"(28.65771, -81.99886)",95.6133567830131,6018766.0,22_0_no,28.81900631672668,-80.43137900691353,100.0
33521,28.79788,-82.0752,Coleman,FL,Florida,True,,719.0,85.8,12119,Sumter,"{""12119"": 100}",Sumter,12119,False,False,America/New_York,"(28.79788, -82.0752)",99.53031660174025,6018766.0,22_0_no,28.81900631672668,-80.43137900691353,100.0
33585,28.74089,-82.03347,Sumterville,FL,Florida,True,,1060.0,11.6,12119,Sumter,"{""12119"": 100}",Sumter,12119,False,False,America/New_York,"(28.74089, -82.03347)",97.16976657759452,6018766.0,22_0_no,28.81900631672668,-80.43137900691353,100.0
33801,28.0401,-81.8947,Lakeland,FL,Florida,True,,34406.0,701.8,12105,Polk,"{""12105"": 100}",Polk,12105,False,False,America/New_York,"(28.0401, -81.8947)",103.93008159305667,6018766.0,22_0_no,28.81900631672668,-80.43137900691353,100.0
33803,28.00887,-81.93604,Lakeland,FL,Florida,True,,29875.0,695.2,12105,Polk,"{""12105"": 100}",Polk,12105,False,False,America/New_York,"(28.00887, -81.93604)",107.2090221522793,6018766.0,22_0_no,28.81900631672668,-80.43137900691353,100.0
33805,28.09829,-81.91279,Lakeland,FL,Florida,True,,26189.0,389.5,12105,Polk,"{""12105"": 100}",Polk,12105,False,False,America/New_York,"(28.09829, -81.91279)",102.84508502123056,6018766.0,22_0_no,28.81900631672668,-80.43137900691353,100.0
33809,28.20291,-81.96597,Lakeland,FL,Florida,True,,30646.0,179.7,12105,Polk,"{""12105"": 99.83, ""12101"": 0.17}",Polk|Pasco,12105|12101,False,False,America/New_York,"(28.20291, -81.96597)",102.43383088105372,6018766.0,22_0_no,28.81900631672668,-80.43137900691353,100.0
33810,28.13027,-82.03989,Lakeland,FL,Florida,True,,51595.0,308.2,12105,Polk,"{""12105"": 73.17, ""12057"": 26.83}",Polk|Hillsborough,12105|12057,False,False,America/New_York,"(28.13027, -82.03989)",108.66510143982163,6018766.0,22_0_no,28.81900631672668,-80.43137900691353,100.0
33811,27.97933,-82.01866,Lakeland,FL,Florida,True,,23623.0,338.6,12105,Polk,"{""12105"": 100}",Polk,12105,False,False,America/New_York,"(27.97933, -82.01866)",112.5715176695054,6018766.0,22_0_no,28.81900631672668,-80.43137900691353,100.0
33812,27.97262,-81.89304,Lakeland,FL,Florida,True,,13478.0,538.0,12105,Polk,"{""12105"": 100}",Polk,12105,False,False,America/New_York,"(27.97262, -81.89304)",106.35835386226906,6018766.0,22_0_no,28.81900631672668,-80.43137900691353,100.0
33813,27.94789,-81.92701,Lakeland,FL,Florida,True,,38080.0,700.2,12105,Polk,"{""12105"": 100}",Polk,12105,False,False,America/New_York,"(27.94789, -81.92701)",109.03153654161086,6018766.0,22_0_no,28.81900631672668,-80.43137900691353,100.0
33815,28.04067,-81.99634,Lakeland,FL,Florida,True,,15265.0,798.5,12105,Polk,"{""12105"": 100}",Polk,12105,False,False,America/New_York,"(28.04067, -81.99634)",109.24037060020116,6018766.0,22_0_no,28.81900631672668,-80.43137900691353,100.0
33823,28.09041,-81.81267,Auburndale,FL,Florida,True,,35712.0,395.0,12105,Polk,"{""12105"": 100}",Polk,12105,False,False,America/New_York,"(28.09041, -81.81267)",97.85008213626703,6018766.0,22_0_no,28.81900631672668,-80.43137900691353,100.0
33825,27.62704,-81.44343,Avon Park,FL,Florida,True,,28151.0,96.4,12055,Highlands,"{""12055"": 65.77, ""12105"": 34.23}",Highlands|Polk,12055|12105,False,False,America/New_York,"(27.62704, -81.44343)",102.85202798938063,6018766.0,22_0_no,28.81900631672668,-80.43137900691353,100.0
33827,27.81445,-81.51484,Babson Park,FL,Florida,True,,3022.0,36.7,12105,Polk,"{""12105"": 100}",Polk,12105,False,False,America/New_York,"(27.81445, -81.51484)",95.70979064318482,6018766.0,22_0_no,28.81900631672668,-80.43137900691353,100.0
33830,27.88234,-81.80565,Bartow,FL,Florida,True,,30242.0,96.9,12105,Polk,"{""12105"": 100}",Polk,12105,False,False,America/New_York,"(27.88234, -81.80565)",105.69275934489421,6018766.0,22_0_no,28.81900631672668,-80.43137900691353,100.0
33834,27.62778,-81.92115,Bowling Green,FL,Florida,True,,7451.0,21.4,12049,Hardee,"{""12049"": 65.8, ""12105"": 34.2}",Hardee|Polk,12049|12105,False,False,America/New_York,"(27.62778, -81.92115)",122.47166708601866,6018766.0,22_0_no,28.81900631672668,-80.43137900691353,100.0
33837,28.19012,-81.59163,Davenport,FL,Florida,True,,32185.0,242.0,12105,Polk,"{""12105"": 100}",Polk,12105,False,False,America/New_York,"(28.19012, -81.59163)",82.7698565198835,6018766.0,22_0_no,28.81900631672668,-80.43137900691353,100.0
33838,28.01851,-81.60956,Dundee,FL,Florida,True,,4552.0,239.8,12105,Polk,"{""12105"": 100}",Polk,12105,False,False,America/New_York,"(28.01851, -81.60956)",90.46930297476553,6018766.0,22_0_no,28.81900631672668,-80.43137900691353,100.0
33839,27.97481,-81.75365,Eagle Lake,FL,Florida,True,,3565.0,439.3,12105,Polk,"{""12105"": 100}",Polk,12105,False,False,America/New_York,"(27.97481, -81.75365)",99.30161999771298,6018766.0,22_0_no,28.81900631672668,-80.43137900691353,100.0
33841,27.7381,-81.7674,Fort Meade,FL,Florida,True,,9650.0,22.1,12105,Polk,"{""12105"": 100}",Polk,12105,False,False,America/New_York,"(27.7381, -81.7674)",110.3894088641677,6018766.0,22_0_no,28.81900631672668,-80.43137900691353,100.0
33843,27.73131,-81.5108,Frostproof,FL,Florida,True,,11976.0,37.3,12105,Polk,"{""12105"": 100}",Polk,12105,False,False,America/New_York,"(27.73131, -81.5108)",99.80876861346935,6018766.0,22_0_no,28.81900631672668,-80.43137900691353,100.0
33844,28.08616,-81.58717,Haines City,FL,Florida,True,,40078.0,159.2,12105,Polk,"{""12105"": 100}",Polk,12105,False,False,America/New_York,"(28.08616, -81.58717)",86.56446344991765,6018766.0,22_0_no,28.81900631672668,-80.43137900691353,100.0
33847,27.80864,-81.82381,Homeland,FL,Florida,True,,154.0,66.4,12105,Polk,"{""12105"": 100}",Polk,12105,False,False,America/New_York,"(27.80864, -81.82381)",109.75736389593926,6018766.0,22_0_no,28.81900631672668,-80.43137900691353,100.0
33848,28.27594,-81.50824,Intercession City,FL,Florida,True,,908.0,32.1,12097,Osceola,"{""12097"": 100}",Osceola,12097,False,False,America/New_York,"(28.27594, -81.50824)",75.3625420602596,6018766.0,22_0_no,28.81900631672668,-80.43137900691353,100.0
33849,28.21613,-82.07414,Kathleen,FL,Florida,True,,728.0,12.5,12105,Polk,"{""12105"": 98.28, ""12101"": 1.72}",Polk|Pasco,12105|12101,False,False,America/New_York,"(28.21613, -82.07414)",108.08047436503041,6018766.0,22_0_no,28.81900631672668,-80.43137900691353,100.0
33850,28.11886,-81.73191,Lake Alfred,FL,Florida,True,,8608.0,198.4,12105,Polk,"{""12105"": 100}",Polk,12105,False,False,America/New_York,"(28.11886, -81.73191)",92.62685564020143,6018766.0,22_0_no,28.81900631672668,-80.43137900691353,100.0
33851,28.04439,-81.62677,Lake Hamilton,FL,Florida,True,,1245.0,369.7,12105,Polk,"{""12105"": 100}",Polk,12105,False,False,America/New_York,"(28.04439, -81.62677)",90.21999098651742,6018766.0,22_0_no,28.81900631672668,-80.43137900691353,100.0
33853,27.90023,-81.58556,Lake Wales,FL,Florida,True,,11674.0,520.4,12105,Polk,"{""12105"": 100}",Polk,12105,False,False,America/New_York,"(27.90023, -81.58556)",94.62687409396828,6018766.0,22_0_no,28.81900631672668,-80.43137900691353,100.0
33854,27.85608,-81.41033,Lakeshore,FL,Florida,True,,366.0,898.5,12105,Polk,"{""12105"": 100}",Polk,12105,False,False,America/New_York,"(27.85608, -81.41033)",89.27804460093365,6018766.0,22_0_no,28.81900631672668,-80.43137900691353,100.0
33856,27.85648,-81.42828,Nalcrest,FL,Florida,True,,299.0,1051.2,12105,Polk,"{""12105"": 100}",Polk,12105,False,False,America/New_York,"(27.85648, -81.42828)",89.98909780421057,6018766.0,22_0_no,28.81900631672668,-80.43137900691353,100.0
33859,27.88428,-81.63106,Lake Wales,FL,Florida,True,,10987.0,93.3,12105,Polk,"{""12105"": 100}",Polk,12105,False,False,America/New_York,"(27.88428, -81.63106)",97.42727784239737,6018766.0,22_0_no,28.81900631672668,-80.43137900691353,100.0
33860,27.8056,-81.99511,Mulberry,FL,Florida,True,,28372.0,111.3,12105,Polk,"{""12105"": 98.82, ""12057"": 1.18}",Polk|Hillsborough,12105|12057,False,False,America/New_York,"(27.8056, -81.99511)",118.10923601555683,6018766.0,22_0_no,28.81900631672668,-80.43137900691353,100.0
33865,27.42944,-81.96262,Ona,FL,Florida,True,,1130.0,2.6,12049,Hardee,"{""12049"": 97.04, ""12027"": 2.96}",Hardee|DeSoto,12049|12027,False,False,America/New_York,"(27.42944, -81.96262)",133.8773531492938,6018766.0,22_0_no,28.81900631672668,-80.43137900691353,100.0
33867,27.78249,-81.20136,River Ranch,FL,Florida,True,,148.0,12.8,12105,Polk,"{""12105"": 99.85, ""12097"": 0.15}",Polk|Osceola,12105|12097,False,False,America/New_York,"(27.78249, -81.20136)",85.57414339697095,6018766.0,22_0_no,28.81900631672668,-80.43137900691353,100.0
33868,28.25882,-81.84769,Polk City,FL,Florida,True,,13051.0,27.6,12105,Polk,"{""12105"": 100}",Polk,12105,False,False,America/New_York,"(28.25882, -81.84769)",94.27767355573485,6018766.0,22_0_no,28.81900631672668,-80.43137900691353,100.0
33870,27.50571,-81.36071,Sebring,FL,Florida,True,,22664.0,91.9,12055,Highlands,"{""12055"": 100}",Highlands,12055,False,False,America/New_York,"(27.50571, -81.36071)",106.94892876842414,6018766.0,22_0_no,28.81900631672668,-80.43137900691353,100.0
33872,27.50911,-81.53147,Sebring,FL,Florida,True,,15740.0,267.4,12055,Highlands,"{""12055"": 100}",Highlands,12055,False,False,America/New_York,"(27.50911, -81.53147)",112.61030088778662,6018766.0,22_0_no,28.81900631672668,-80.43137900691353,100.0
33873,27.56181,-81.77855,Wauchula,FL,Florida,True,,13394.0,41.5,12049,Hardee,"{""12049"": 100}",Hardee,12049,False,False,America/New_York,"(27.56181, -81.77855)",119.47923244531694,6018766.0,22_0_no,28.81900631672668,-80.43137900691353,100.0
33875,27.41813,-81.49198,Sebring,FL,Florida,True,,10787.0,78.0,12055,Highlands,"{""12055"": 100}",Highlands,12055,False,False,America/New_York,"(27.41813, -81.49198)",116.38465103975096,6018766.0,22_0_no,28.81900631672668,-80.43137900691353,100.0
33876,27.4269,-81.35086,Sebring,FL,Florida,True,,5808.0,71.5,12055,Highlands,"{""12055"": 100}",Highlands,12055,False,False,America/New_York,"(27.4269, -81.35086)",111.3132649624051,6018766.0,22_0_no,28.81900631672668,-80.43137900691353,100.0
33877,27.98766,-81.61985,Waverly,FL,Florida,True,,529.0,97.5,12105,Polk,"{""12105"": 100}",Polk,12105,False,False,America/New_York,"(27.98766, -81.61985)",92.28463242839736,6018766.0,22_0_no,28.81900631672668,-80.43137900691353,100.0
33880,27.9914,-81.77448,Winter Haven,FL,Florida,True,,42268.0,503.9,12105,Polk,"{""12105"": 100}",Polk,12105,False,False,America/New_York,"(27.9914, -81.77448)",99.66172916311552,6018766.0,22_0_no,28.81900631672668,-80.43137900691353,100.0
33881,28.05439,-81.70081,Winter Haven,FL,Florida,True,,33577.0,591.7,12105,Polk,"{""12105"": 100}",Polk,12105,False,False,America/New_York,"(28.05439, -81.70081)",93.48423982040185,6018766.0,22_0_no,28.81900631672668,-80.43137900691353,100.0
33884,27.97669,-81.67653,Winter Haven,FL,Florida,True,,33008.0,511.1,12105,Polk,"{""12105"": 100}",Polk,12105,False,False,America/New_York,"(27.97669, -81.67653)",95.46815607204606,6018766.0,22_0_no,28.81900631672668,-80.43137900691353,100.0
33890,27.4558,-81.68354,Zolfo Springs,FL,Florida,True,,5274.0,8.0,12049,Hardee,"{""12049"": 100}",Hardee,12049,False,False,America/New_York,"(27.4558, -81.68354)",121.2077867396452,6018766.0,22_0_no,28.81900631672668,-80.43137900691353,100.0
33896,28.24663,-81.57526,Davenport,FL,Florida,True,,13735.0,262.5,12097,Osceola,"{""12097"": 63.45, ""12105"": 36.55}",Osceola|Polk,12097|12105,False,False,America/New_York,"(28.24663, -81.57526)",79.9072016034781,6018766.0,22_0_no,28.81900631672668,-80.43137900691353,100.0
33897,28.28088,-81.69533,Davenport,FL,Florida,True,,22769.0,210.3,12105,Polk,"{""12105"": 99.03, ""12097"": 0.97}",Polk|Osceola,12105|12097,False,False,America/New_York,"(28.28088, -81.69533)",85.24624315195126,6018766.0,22_0_no,28.81900631672668,-80.43137900691353,100.0
33898,27.83946,-81.34943,Lake Wales,FL,Florida,True,,16829.0,21.9,12105,Polk,"{""12105"": 87.12, ""12097"": 12.88}",Polk|Osceola,12105|12097,False,False,America/New_York,"(27.83946, -81.34943)",87.73790188098386,6018766.0,22_0_no,28.81900631672668,-80.43137900691353,100.0
34420,29.05359,-82.04008,Belleview,FL,Florida,True,,18592.0,298.3,12083,Marion,"{""12083"": 100}",Marion,12083,False,False,America/New_York,"(29.05359, -82.04008)",98.61462285415185,6018766.0,22_0_no,28.81900631672668,-80.43137900691353,100.0
34472,29.11187,-81.99625,Ocala,FL,Florida,True,,31271.0,332.8,12083,Marion,"{""12083"": 100}",Marion,12083,False,False,America/New_York,"(29.11187, -81.99625)",96.73660010281777,6018766.0,22_0_no,28.81900631672668,-80.43137900691353,100.0
34488,29.22584,-81.93226,Silver Springs,FL,Florida,True,,11472.0,51.7,12083,Marion,"{""12083"": 100}",Marion,12083,False,False,America/New_York,"(29.22584, -81.93226)",94.93521925939335,6018766.0,22_0_no,28.81900631672668,-80.43137900691353,100.0
34491,28.99634,-82.04665,Summerfield,FL,Florida,True,,29998.0,257.8,12083,Marion,"{""12083"": 100}",Marion,12083,False,False,America/New_York,"(28.99634, -82.04665)",98.463129939263,6018766.0,22_0_no,28.81900631672668,-80.43137900691353,100.0
34705,28.69367,-81.71138,Astatula,FL,Florida,True,,3010.0,58.5,12069,Lake,"{""12069"": 100}",Lake,12069,False,False,America/New_York,"(28.69367, -81.71138)",78.01442666190802,6018766.0,22_0_no,28.81900631672668,-80.43137900691353,100.0
34711,28.52724,-81.75349,Clermont,FL,Florida,True,,61189.0,603.2,12069,Lake,"{""12069"": 100}",Lake,12069,False,False,America/New_York,"(28.52724, -81.75349)",82.64298553873354,6018766.0,22_0_no,28.81900631672668,-80.43137900691353,100.0
34714,28.40406,-81.80132,Clermont,FL,Florida,True,,24227.0,75.0,12069,Lake,"{""12069"": 99.62, ""12105"": 0.38}",Lake|Polk,12069|12105,False,False,America/New_York,"(28.40406, -81.80132)",87.90156268170541,6018766.0,22_0_no,28.81900631672668,-80.43137900691353,100.0
34715,28.6242,-81.73019,Clermont,FL,Florida,True,,21032.0,257.5,12069,Lake,"{""12069"": 100}",Lake,12069,False,False,America/New_York,"(28.6242, -81.73019)",79.84049482547725,6018766.0,22_0_no,28.81900631672668,-80.43137900691353,100.0
34731,28.86788,-81.89638,Fruitland Park,FL,Florida,True,,16508.0,403.3,12069,Lake,"{""12069"": 99.56, ""12119"": 0.44}",Lake|Sumter,12069|12119,False,False,America/New_York,"(28.86788, -81.89638)",88.72816624431934,6018766.0,22_0_no,28.81900631672668,-80.43137900691353,100.0
34734,28.5376,-81.52204,Gotha,FL,Florida,True,,4529.0,939.3,12095,Orange,"{""12095"": 100}",Orange,12095,False,False,America/New_York,"(28.5376, -81.52204)",68.91267014514335,6018766.0,22_0_no,28.81900631672668,-80.43137900691353,100.0
34736,28.57883,-81.88844,Groveland,FL,Florida,True,,20564.0,69.1,12069,Lake,"{""12069"": 100}",Lake,12069,False,False,America/New_York,"(28.57883, -81.88844)",89.85118580084637,6018766.0,22_0_no,28.81900631672668,-80.43137900691353,100.0
34737,28.69638,-81.80243,Howey In The Hills,FL,Florida,True,,3016.0,50.5,12069,Lake,"{""12069"": 100}",Lake,12069,False,False,America/New_York,"(28.69638, -81.80243)",83.47733177843249,6018766.0,22_0_no,28.81900631672668,-80.43137900691353,100.0
34739,27.92236,-81.10762,Kenansville,FL,Florida,True,,551.0,0.5,12097,Osceola,"{""12097"": 100}",Osceola,12097,False,False,America/New_York,"(27.92236, -81.10762)",74.35195617366978,6018766.0,22_0_no,28.81900631672668,-80.43137900691353,100.0
34741,28.30544,-81.42567,Kissimmee,FL,Florida,True,,48520.0,1251.0,12097,Osceola,"{""12097"": 100}",Osceola,12097,False,False,America/New_York,"(28.30544, -81.42567)",69.99820198170569,6018766.0,22_0_no,28.81900631672668,-80.43137900691353,100.0
34743,28.33066,-81.35441,Kissimmee,FL,Florida,True,,45456.0,2543.9,12097,Osceola,"{""12097"": 100}",Osceola,12097,False,False,America/New_York,"(28.33066, -81.35441)",65.38526404933727,6018766.0,22_0_no,28.81900631672668,-80.43137900691353,100.0
34744,28.2954,-81.34675,Kissimmee,FL,Florida,True,,60555.0,703.0,12097,Osceola,"{""12097"": 100}",Osceola,12097,False,False,America/New_York,"(28.2954, -81.34675)",66.29294989906016,6018766.0,22_0_no,28.81900631672668,-80.43137900691353,100.0
34746,28.24233,-81.4423,Kissimmee,FL,Florida,True,,46725.0,409.7,12097,Osceola,"{""12097"": 100}",Osceola,12097,False,False,America/New_York,"(28.24233, -81.4423)",73.16598463763195,6018766.0,22_0_no,28.81900631672668,-80.43137900691353,100.0
34747,28.31111,-81.59107,Kissimmee,FL,Florida,True,,24445.0,217.4,12097,Osceola,"{""12097"": 94.75, ""12095"": 5.25}",Osceola|Orange,12097|12095,False,False,America/New_York,"(28.31111, -81.59107)",78.6371629765802,6018766.0,22_0_no,28.81900631672668,-80.43137900691353,100.0
34748,28.77366,-81.88552,Leesburg,FL,Florida,True,,39265.0,384.4,12069,Lake,"{""12069"": 100}",Lake,12069,False,False,America/New_York,"(28.77366, -81.88552)",88.10218388209647,6018766.0,22_0_no,28.81900631672668,-80.43137900691353,100.0
34753,28.58684,-81.89624,Mascotte,FL,Florida,True,,6014.0,491.9,12069,Lake,"{""12069"": 100}",Lake,12069,False,False,America/New_York,"(28.58684, -81.89624)",90.2124264702021,6018766.0,22_0_no,28.81900631672668,-80.43137900691353,100.0
34756,28.58651,-81.68214,Montverde,FL,Florida,True,,3641.0,154.6,12069,Lake,"{""12069"": 100}",Lake,12069,False,False,America/New_York,"(28.58651, -81.68214)",77.48344975073145,6018766.0,22_0_no,28.81900631672668,-80.43137900691353,100.0
34758,28.19142,-81.4871,Kissimmee,FL,Florida,True,,44155.0,653.8,12097,Osceola,"{""12097"": 100}",Osceola,12097,False,False,America/New_York,"(28.19142, -81.4871)",77.38907159051591,6018766.0,22_0_no,28.81900631672668,-80.43137900691353,100.0
34759,28.09113,-81.43774,Kissimmee,FL,Florida,True,,38406.0,196.7,12105,Polk,"{""12105"": 64.6, ""12097"": 35.4}",Polk|Osceola,12105|12097,False,False,America/New_York,"(28.09113, -81.43774)",79.16011967586545,6018766.0,22_0_no,28.81900631672668,-80.43137900691353,100.0
34760,28.55694,-81.62916,Oakland,FL,Florida,True,,805.0,555.1,12095,Orange,"{""12095"": 100}",Orange,12095,False,False,America/New_York,"(28.55694, -81.62916)",74.8234454033901,6018766.0,22_0_no,28.81900631672668,-80.43137900691353,100.0
34761,28.57975,-81.53386,Ocoee,FL,Florida,True,,45749.0,1011.8,12095,Orange,"{""12095"": 100}",Orange,12095,False,False,America/New_York,"(28.57975, -81.53386)",68.83057033024188,6018766.0,22_0_no,28.81900631672668,-80.43137900691353,100.0
34762,28.75772,-81.9152,Okahumpka,FL,Florida,True,,435.0,20.0,12069,Lake,"{""12069"": 100}",Lake,12069,False,False,America/New_York,"(28.75772, -81.9152)",89.95011133876517,6018766.0,22_0_no,28.81900631672668,-80.43137900691353,100.0
34769,28.24366,-81.29412,Saint Cloud,FL,Florida,True,,25524.0,931.5,12097,Osceola,"{""12097"": 100}",Osceola,12097,False,False,America/New_York,"(28.24366, -81.29412)",65.74865005029292,6018766.0,22_0_no,28.81900631672668,-80.43137900691353,100.0
34771,28.26647,-81.11908,Saint Cloud,FL,Florida,True,,21715.0,54.3,12097,Osceola,"{""12097"": 100}",Osceola,12097,False,False,America/New_York,"(28.26647, -81.11908)",56.56591586369466,6018766.0,22_0_no,28.81900631672668,-80.43137900691353,100.0
34772,28.16534,-81.27273,Saint Cloud,FL,Florida,True,,31830.0,141.5,12097,Osceola,"{""12097"": 100}",Osceola,12097,False,False,America/New_York,"(28.16534, -81.27273)",68.19104993005837,6018766.0,22_0_no,28.81900631672668,-80.43137900691353,100.0
34773,28.14695,-80.99968,Saint Cloud,FL,Florida,True,,3883.0,4.9,12097,Osceola,"{""12097"": 100}",Osceola,12097,False,False,America/New_York,"(28.14695, -80.99968)",57.85587903309971,6018766.0,22_0_no,28.81900631672668,-80.43137900691353,100.0
34785,28.84516,-82.06065,Wildwood,FL,Florida,True,,37555.0,226.0,12119,Sumter,"{""12119"": 100}",Sumter,12119,False,False,America/New_York,"(28.84516, -82.06065)",98.63290830709732,6018766.0,22_0_no,28.81900631672668,-80.43137900691353,100.0
34786,28.48161,-81.55501,Windermere,FL,Florida,True,,46044.0,896.1,12095,Orange,"{""12095"": 100}",Orange,12095,False,False,America/New_York,"(28.48161, -81.55501)",72.00749812406701,6018766.0,22_0_no,28.81900631672668,-80.43137900691353,100.0
34787,28.48309,-81.62833,Winter Garden,FL,Florida,True,,74842.0,429.7,12095,Orange,"{""12095"": 83.14, ""12069"": 16.86}",Orange|Lake,12095|12069,False,False,America/New_York,"(28.48309, -81.62833)",76.19557732765102,6018766.0,22_0_no,28.81900631672668,-80.43137900691353,100.0
34788,28.88542,-81.79678,Leesburg,FL,Florida,True,,19344.0,206.6,12069,Lake,"{""12069"": 100}",Lake,12069,False,False,America/New_York,"(28.88542, -81.79678)",82.75637042459549,6018766.0,22_0_no,28.81900631672668,-80.43137900691353,100.0
34797,28.73517,-81.81813,Yalaha,FL,Florida,True,,1455.0,126.1,12069,Lake,"{""12069"": 100}",Lake,12069,False,False,America/New_York,"(28.73517, -81.81813)",84.18113886935417,6018766.0,22_0_no,28.81900631672668,-80.43137900691353,100.0
34945,27.45219,-80.55213,Fort Pierce,FL,Florida,True,,5265.0,9.3,12111,St. Lucie,"{""12111"": 100}",St. Lucie,12111,False,False,America/New_York,"(27.45219, -80.55213)",94.72413756086942,6018766.0,22_0_no,28.81900631672668,-80.43137900691353,100.0
34946,27.50456,-80.36106,Fort Pierce,FL,Florida,True,,6292.0,159.6,12111,St. Lucie,"{""12111"": 100}",St. Lucie,12111,False,False,America/New_York,"(27.50456, -80.36106)",90.9205372080346,6018766.0,22_0_no,28.81900631672668,-80.43137900691353,100.0
34947,27.44903,-80.37633,Fort Pierce,FL,Florida,True,,13399.0,533.0,12111,St. Lucie,"{""12111"": 100}",St. Lucie,12111,False,False,America/New_York,"(27.44903, -80.37633)",94.7157501138672,6018766.0,22_0_no,28.81900631672668,-80.43137900691353,100.0
34949,27.4668,-80.30417,Fort Pierce,FL,Florida,True,,7740.0,318.4,12111,St. Lucie,"{""12111"": 100}",St. Lucie,12111,False,False,America/New_York,"(27.4668, -80.30417)",93.74942922605491,6018766.0,22_0_no,28.81900631672668,-80.43137900691353,100.0
34950,27.44341,-80.32969,Fort Pierce,FL,Florida,True,,17039.0,1273.4,12111,St. Lucie,"{""12111"": 100}",St. Lucie,12111,False,False,America/New_York,"(27.44341, -80.32969)",95.24638410482812,6018766.0,22_0_no,28.81900631672668,-80.43137900691353,100.0
34951,27.52268,-80.41783,Fort Pierce,FL,Florida,True,,16896.0,268.1,12111,St. Lucie,"{""12111"": 100}",St. Lucie,12111,False,False,America/New_York,"(27.52268, -80.41783)",89.57141881205888,6018766.0,22_0_no,28.81900631672668,-80.43137900691353,100.0
34972,27.48016,-80.90926,Okeechobee,FL,Florida,True,,20132.0,9.1,12093,Okeechobee,"{""12093"": 79.82, ""12097"": 14.44, ""12111"": 5.74}",Okeechobee|Osceola|St. Lucie,12093|12097|12111,False,False,America/New_York,"(27.48016, -80.90926)",96.97811343770346,6018766.0,22_0_no,28.81900631672668,-80.43137900691353,100.0
34981,27.39329,-80.37163,Fort Pierce,FL,Florida,True,,5626.0,201.8,12111,St. Lucie,"{""12111"": 100}",St. Lucie,12111,False,False,America/New_York,"(27.39329, -80.37163)",98.57489039877801,6018766.0,22_0_no,28.81900631672668,-80.43137900691353,100.0
34982,27.37669,-80.31082,Fort Pierce,FL,Florida,True,,26034.0,648.5,12111,St. Lucie,"{""12111"": 100}",St. Lucie,12111,False,False,America/New_York,"(27.37669, -80.31082)",99.92508183891545,6018766.0,22_0_no,28.81900631672668,-80.43137900691353,100.0
