zip,lat,lng,city,state_id,state_name,zcta,parent_zcta,population,density,county_fips,county_name,county_weights,county_names_all,county_fips_all,imprecise,military,timezone,Coord,distance_miles,market_total_population,market_id,market_center_lat,market_center_lng,radius_miles
77963,28.65589,-97.40093,Goliad,TX,Texas,True,,5733.0,3.8,48175,Goliad,"{""48175"": 100}",Goliad,48175,False,False,America/Chicago,"(28.65589, -97.40093)",116.23858277903246,1938467.0,29_0_yes,27.596695526028025,-98.88304175274006,100.0
77974,28.89295,-97.29275,Meyersville,TX,Texas,True,,448.0,6.1,48123,DeWitt,"{""48123"": 63.47, ""48469"": 36.53}",DeWitt|Victoria,48123|48469,False,False,America/Chicago,"(28.89295, -97.29275)",131.87122474307424,1938467.0,29_0_yes,27.596695526028025,-98.88304175274006,100.0
77993,28.85158,-97.433,Weesatche,TX,Texas,True,,87.0,1.8,48175,Goliad,"{""48175"": 100}",Goliad,48175,False,False,America/Chicago,"(28.85158, -97.433)",123.73226647548816,1938467.0,29_0_yes,27.596695526028025,-98.88304175274006,100.0
78005,28.92848,-98.84668,Bigfoot,TX,Texas,True,,1176.0,3.0,48163,Frio,"{""48163"": 88.53, ""48013"": 11.47}",Frio|Atascosa,48163|48013,False,False,America/Chicago,"(28.92848, -98.84668)",92.04414406511738,1938467.0,29_0_yes,27.596695526028025,-98.88304175274006,100.0
78007,28.48212,-98.40373,Calliham,TX,Texas,True,,198.0,2.7,48311,McMullen,"{""48311"": 100}",McMullen,48311,False,False,America/Chicago,"(28.48212, -98.40373)",67.80113351289201,1938467.0,29_0_yes,27.596695526028025,-98.88304175274006,100.0
78008,28.72478,-98.25911,Campbellton,TX,Texas,True,,351.0,1.3,48013,Atascosa,"{""48013"": 92.54, ""48297"": 7.46}",Atascosa|Live Oak,48013|48297,False,False,America/Chicago,"(28.72478, -98.25911)",86.71536160586602,1938467.0,29_0_yes,27.596695526028025,-98.88304175274006,100.0
78011,28.80267,-98.73441,Charlotte,TX,Texas,True,,1574.0,3.3,48013,Atascosa,"{""48013"": 100}",Atascosa,48013,False,False,America/Chicago,"(28.80267, -98.73441)",83.81494935565813,1938467.0,29_0_yes,27.596695526028025,-98.88304175274006,100.0
78012,28.75792,-98.45578,Christine,TX,Texas,True,,227.0,3.5,48013,Atascosa,"{""48013"": 100}",Atascosa,48013,False,False,America/Chicago,"(28.75792, -98.45578)",84.34722250801521,1938467.0,29_0_yes,27.596695526028025,-98.88304175274006,100.0
78014,28.39837,-99.10946,Cotulla,TX,Texas,True,,5510.0,2.4,48283,La Salle,"{""48283"": 97.68, ""48127"": 2.32}",La Salle|Dimmit,48283|48127,False,False,America/Chicago,"(28.39837, -99.10946)",57.086752371769165,1938467.0,29_0_yes,27.596695526028025,-98.88304175274006,100.0
78017,28.72456,-99.20455,Dilley,TX,Texas,True,,6120.0,5.9,48163,Frio,"{""48163"": 87.59, ""48283"": 12.41}",Frio|La Salle,48163|48283,False,False,America/Chicago,"(28.72456, -99.20455)",80.35115116733186,1938467.0,29_0_yes,27.596695526028025,-98.88304175274006,100.0
78019,28.02401,-99.28461,Encinal,TX,Texas,True,,2111.0,1.1,48479,Webb,"{""48479"": 84.14, ""48283"": 15.86}",Webb|La Salle,48479|48283,False,False,America/Chicago,"(28.02401, -99.28461)",38.39216201069183,1938467.0,29_0_yes,27.596695526028025,-98.88304175274006,100.0
78021,28.4318,-98.83489,Fowlerton,TX,Texas,True,,158.0,0.2,48283,La Salle,"{""48283"": 64.18, ""48311"": 35.82}",La Salle|McMullen,48283|48311,False,False,America/Chicago,"(28.4318, -98.83489)",57.774928335292266,1938467.0,29_0_yes,27.596695526028025,-98.88304175274006,100.0
78022,28.24222,-98.16421,George West,TX,Texas,True,,4082.0,3.3,48297,Live Oak,"{""48297"": 88.64, ""48311"": 11.36}",Live Oak|McMullen,48297|48311,False,False,America/Chicago,"(28.24222, -98.16421)",62.57158942292749,1938467.0,29_0_yes,27.596695526028025,-98.88304175274006,100.0
78026,28.75573,-98.54754,Jourdanton,TX,Texas,True,,7158.0,7.8,48013,Atascosa,"{""48013"": 72.31, ""48311"": 27.69}",Atascosa|McMullen,48013|48311,False,False,America/Chicago,"(28.75573, -98.54754)",82.64740377006368,1938467.0,29_0_yes,27.596695526028025,-98.88304175274006,100.0
78040,27.51349,-99.50232,Laredo,TX,Texas,True,,39997.0,2449.3,48479,Webb,"{""48479"": 100}",Webb,48479,False,False,America/Chicago,"(27.51349, -99.50232)",38.36755803012838,1938467.0,29_0_yes,27.596695526028025,-98.88304175274006,100.0
78041,27.55489,-99.46889,Laredo,TX,Texas,True,,47207.0,1046.4,48479,Webb,"{""48479"": 100}",Webb,48479,False,False,America/Chicago,"(27.55489, -99.46889)",35.99594275099607,1938467.0,29_0_yes,27.596695526028025,-98.88304175274006,100.0
78043,27.54037,-99.27447,Laredo,TX,Texas,True,,46141.0,100.6,48479,Webb,"{""48479"": 100}",Webb,48479,False,False,America/Chicago,"(27.54037, -99.27447)",24.288159887233498,1938467.0,29_0_yes,27.596695526028025,-98.88304175274006,100.0
78044,27.75613,-99.22748,Laredo,TX,Texas,True,,600.0,3.1,48479,Webb,"{""48479"": 100}",Webb,48479,False,False,America/Chicago,"(27.75613, -99.22748)",23.78079301854158,1938467.0,29_0_yes,27.596695526028025,-98.88304175274006,100.0
78045,27.83197,-99.65963,Laredo,TX,Texas,True,,67981.0,39.6,48479,Webb,"{""48479"": 100}",Webb,48479,False,False,America/Chicago,"(27.83197, -99.65963)",50.205866220234896,1938467.0,29_0_yes,27.596695526028025,-98.88304175274006,100.0
78046,27.38371,-99.36803,Laredo,TX,Texas,True,,71726.0,151.1,48479,Webb,"{""48479"": 100}",Webb,48479,False,False,America/Chicago,"(27.38371, -99.36803)",33.169047210941336,1938467.0,29_0_yes,27.596695526028025,-98.88304175274006,100.0
78057,29.03924,-99.02185,Moore,TX,Texas,True,,520.0,1.3,48163,Frio,"{""48163"": 83.56, ""48325"": 16.44}",Frio|Medina,48163|48325,False,False,America/Chicago,"(29.03924, -99.02185)",100.02725541172308,1938467.0,29_0_yes,27.596695526028025,-98.88304175274006,100.0
78061,28.90162,-99.13104,Pearsall,TX,Texas,True,,12566.0,9.5,48163,Frio,"{""48163"": 100}",Frio,48163,False,False,America/Chicago,"(28.90162, -99.13104)",91.41634470199696,1938467.0,29_0_yes,27.596695526028025,-98.88304175274006,100.0
78064,28.9206,-98.4249,Pleasanton,TX,Texas,True,,16722.0,22.9,48013,Atascosa,"{""48013"": 95.91, ""48493"": 4.09}",Atascosa|Wilson,48013|48493,False,False,America/Chicago,"(28.9206, -98.4249)",95.62773663847223,1938467.0,29_0_yes,27.596695526028025,-98.88304175274006,100.0
78067,27.11312,-99.32793,San Ygnacio,TX,Texas,True,,615.0,1.3,48505,Zapata,"{""48505"": 100}",Zapata,48505,False,False,America/Chicago,"(27.11312, -99.32793)",43.14765279645027,1938467.0,29_0_yes,27.596695526028025,-98.88304175274006,100.0
78071,28.47756,-98.19733,Three Rivers,TX,Texas,True,,4394.0,5.4,48297,Live Oak,"{""48297"": 89.55, ""48311"": 10.45}",Live Oak|McMullen,48297|48311,False,False,America/Chicago,"(28.47756, -98.19733)",73.84344136222997,1938467.0,29_0_yes,27.596695526028025,-98.88304175274006,100.0
78072,28.32631,-98.58357,Tilden,TX,Texas,True,,508.0,0.3,48311,McMullen,"{""48311"": 100}",McMullen,48311,False,False,America/Chicago,"(28.32631, -98.58357)",53.622112961944616,1938467.0,29_0_yes,27.596695526028025,-98.88304175274006,100.0
78075,28.58862,-98.26823,Whitsett,TX,Texas,True,,249.0,1.4,48297,Live Oak,"{""48297"": 94.8, ""48311"": 5.2}",Live Oak|McMullen,48297|48311,False,False,America/Chicago,"(28.58862, -98.26823)",78.11147651846281,1938467.0,29_0_yes,27.596695526028025,-98.88304175274006,100.0
78076,26.93149,-99.13382,Zapata,TX,Texas,True,,13279.0,9.3,48505,Zapata,"{""48505"": 100}",Zapata,48505,False,False,America/Chicago,"(26.93149, -99.13382)",48.47334318306658,1938467.0,29_0_yes,27.596695526028025,-98.88304175274006,100.0
78102,28.4094,-97.71733,Beeville,TX,Texas,True,,28253.0,20.7,48025,Bee,"{""48025"": 94.24, ""48297"": 5.76}",Bee|Live Oak,48025|48297,False,False,America/Chicago,"(28.4094, -97.71733)",90.60907931791611,1938467.0,29_0_yes,27.596695526028025,-98.88304175274006,100.0
78104,28.52361,-97.76197,Beeville,TX,Texas,True,,176.0,19.7,48025,Bee,"{""48025"": 100}",Bee,48025,False,False,America/Chicago,"(28.52361, -97.76197)",93.66753025637766,1938467.0,29_0_yes,27.596695526028025,-98.88304175274006,100.0
78107,28.57827,-97.59484,Berclair,TX,Texas,True,,316.0,0.7,48175,Goliad,"{""48175"": 100}",Goliad,48175,False,False,America/Chicago,"(28.57827, -97.59484)",103.75584388870304,1938467.0,29_0_yes,27.596695526028025,-98.88304175274006,100.0
78113,28.94563,-98.13611,Falls City,TX,Texas,True,,3253.0,4.2,48493,Wilson,"{""48493"": 40.11, ""48013"": 31.77, ""48255"": 28.11}",Wilson|Atascosa|Karnes,48493|48013|48255,False,False,America/Chicago,"(28.94563, -98.13611)",103.69382121081213,1938467.0,29_0_yes,27.596695526028025,-98.88304175274006,100.0
78117,28.95092,-97.95736,Hobson,TX,Texas,True,,512.0,2.8,48255,Karnes,"{""48255"": 100}",Karnes,48255,False,False,America/Chicago,"(28.95092, -97.95736)",109.21313690955483,1938467.0,29_0_yes,27.596695526028025,-98.88304175274006,100.0
78118,28.87574,-97.94729,Karnes City,TX,Texas,True,,4418.0,8.9,48255,Karnes,"{""48255"": 89.2, ""48297"": 7.38, ""48013"": 3.42}",Karnes|Live Oak|Atascosa,48255|48297|48013,False,False,America/Chicago,"(28.87574, -97.94729)",105.13867917061444,1938467.0,29_0_yes,27.596695526028025,-98.88304175274006,100.0
78119,28.71739,-97.91187,Kenedy,TX,Texas,True,,6960.0,8.2,48255,Karnes,"{""48255"": 54.89, ""48025"": 33.5, ""48297"": 11.61}",Karnes|Bee|Live Oak,48255|48025|48297,False,False,America/Chicago,"(28.71739, -97.91187)",97.44516894413047,1938467.0,29_0_yes,27.596695526028025,-98.88304175274006,100.0
78125,28.53184,-97.96656,Mineral,TX,Texas,True,,39.0,0.6,48025,Bee,"{""48025"": 100}",Bee,48025,False,False,America/Chicago,"(28.53184, -97.96656)",85.42184692265636,1938467.0,29_0_yes,27.596695526028025,-98.88304175274006,100.0
78141,28.90484,-97.62365,Nordheim,TX,Texas,True,,767.0,3.8,48123,DeWitt,"{""48123"": 78.32, ""48255"": 21.68}",DeWitt|Karnes,48123|48255,False,False,America/Chicago,"(28.90484, -97.62365)",118.5078398795638,1938467.0,29_0_yes,27.596695526028025,-98.88304175274006,100.0
78142,28.53632,-97.81297,Normanna,TX,Texas,True,,106.0,6.8,48025,Bee,"{""48025"": 100}",Bee,48025,False,False,America/Chicago,"(28.53632, -97.81297)",92.03773260121726,1938467.0,29_0_yes,27.596695526028025,-98.88304175274006,100.0
78144,28.95506,-97.88795,Panna Maria,TX,Texas,True,,14.0,2.4,48255,Karnes,"{""48255"": 100}",Karnes,48255,False,False,America/Chicago,"(28.95506, -97.88795)",111.68966373369506,1938467.0,29_0_yes,27.596695526028025,-98.88304175274006,100.0
78145,28.64539,-97.99248,Pawnee,TX,Texas,True,,85.0,10.1,48025,Bee,"{""48025"": 100}",Bee,48025,False,False,America/Chicago,"(28.64539, -97.99248)",90.52641965765531,1938467.0,29_0_yes,27.596695526028025,-98.88304175274006,100.0
78146,28.6038,-97.83989,Pettus,TX,Texas,True,,834.0,8.0,48025,Bee,"{""48025"": 100}",Bee,48025,False,False,America/Chicago,"(28.6038, -97.83989)",94.25526419544894,1938467.0,29_0_yes,27.596695526028025,-98.88304175274006,100.0
78151,28.86788,-97.70986,Runge,TX,Texas,True,,1705.0,6.1,48255,Karnes,"{""48255"": 95.18, ""48123"": 4.82}",Karnes|DeWitt,48255|48123,False,False,America/Chicago,"(28.86788, -97.70986)",113.19904146011793,1938467.0,29_0_yes,27.596695526028025,-98.88304175274006,100.0
78162,28.57816,-97.79447,Tuleta,TX,Texas,True,,393.0,9.5,48025,Bee,"{""48025"": 100}",Bee,48025,False,False,America/Chicago,"(28.57816, -97.79447)",94.87552338461332,1938467.0,29_0_yes,27.596695526028025,-98.88304175274006,100.0
78164,28.9792,-97.5188,Yorktown,TX,Texas,True,,3990.0,6.1,48123,DeWitt,"{""48123"": 87.29, ""48175"": 12.71}",DeWitt|Goliad,48123|48175,False,False,America/Chicago,"(28.9792, -97.5188)",126.54365207153853,1938467.0,29_0_yes,27.596695526028025,-98.88304175274006,100.0
78330,27.7656,-97.91378,Agua Dulce,TX,Texas,True,,633.0,11.3,48355,Nueces,"{""48355"": 100}",Nueces,48355,False,False,America/Chicago,"(27.7656, -97.91378)",60.441860115513954,1938467.0,29_0_yes,27.596695526028025,-98.88304175274006,100.0
78332,27.71671,-98.13208,Alice,TX,Texas,True,,28301.0,22.4,48249,Jim Wells,"{""48249"": 84.76, ""48131"": 15.24}",Jim Wells|Duval,48249|48131,False,False,America/Chicago,"(27.71671, -98.13208)",46.70020592778711,1938467.0,29_0_yes,27.596695526028025,-98.88304175274006,100.0
78339,27.80036,-97.7912,Banquete,TX,Texas,True,,476.0,128.3,48355,Nueces,"{""48355"": 100}",Nueces,48355,False,False,America/Chicago,"(27.80036, -97.7912)",68.26010964377058,1938467.0,29_0_yes,27.596695526028025,-98.88304175274006,100.0
78341,27.57551,-98.46636,Benavides,TX,Texas,True,,2318.0,3.7,48131,Duval,"{""48131"": 100}",Duval,48131,False,False,America/Chicago,"(27.57551, -98.46636)",25.55894423829184,1938467.0,29_0_yes,27.596695526028025,-98.88304175274006,100.0
78342,27.66012,-98.07572,Ben Bolt,TX,Texas,True,,342.0,75.1,48249,Jim Wells,"{""48249"": 100}",Jim Wells,48249,False,False,America/Chicago,"(27.66012, -98.07572)",49.61398448777552,1938467.0,29_0_yes,27.596695526028025,-98.88304175274006,100.0
78343,27.62163,-97.77216,Bishop,TX,Texas,True,,4627.0,12.5,48355,Nueces,"{""48355"": 100}",Nueces,48355,False,False,America/Chicago,"(27.62163, -97.77216)",68.03611603094515,1938467.0,29_0_yes,27.596695526028025,-98.88304175274006,100.0
78344,27.56303,-98.85966,Bruni,TX,Texas,True,,419.0,1.1,48479,Webb,"{""48479"": 100}",Webb,48479,False,False,America/Chicago,"(27.56303, -98.85966)",2.731493571181341,1938467.0,29_0_yes,27.596695526028025,-98.88304175274006,100.0
78349,27.37501,-98.29983,Concepcion,TX,Texas,True,,598.0,1.9,48131,Duval,"{""48131"": 100}",Duval,48131,False,False,America/Chicago,"(27.37501, -98.29983)",38.890887681373684,1938467.0,29_0_yes,27.596695526028025,-98.88304175274006,100.0
78351,27.66779,-97.75258,Driscoll,TX,Texas,True,,519.0,212.5,48355,Nueces,"{""48355"": 100}",Nueces,48355,False,False,America/Chicago,"(27.66779, -97.75258)",69.37262240215021,1938467.0,29_0_yes,27.596695526028025,-98.88304175274006,100.0
78352,27.98154,-97.68978,Edroy,TX,Texas,True,,256.0,23.9,48409,San Patricio,"{""48409"": 100}",San Patricio,48409,False,False,America/Chicago,"(27.98154, -97.68978)",77.6331378887419,1938467.0,29_0_yes,27.596695526028025,-98.88304175274006,100.0
78353,26.88621,-98.23927,Encino,TX,Texas,True,,320.0,0.5,48047,Brooks,"{""48047"": 100}",Brooks,48047,False,False,America/Chicago,"(26.88621, -98.23927)",63.03753726221641,1938467.0,29_0_yes,27.596695526028025,-98.88304175274006,100.0
78355,27.18855,-98.20304,Falfurrias,TX,Texas,True,,7222.0,7.9,48047,Brooks,"{""48047"": 84.64, ""48249"": 11.29, ""48273"": 4.07}",Brooks|Jim Wells|Kleberg,48047|48249|48273,False,False,America/Chicago,"(27.18855, -98.20304)",50.352976085933776,1938467.0,29_0_yes,27.596695526028025,-98.88304175274006,100.0
78357,27.93286,-98.5629,Freer,TX,Texas,True,,2695.0,3.9,48131,Duval,"{""48131"": 100}",Duval,48131,False,False,America/Chicago,"(27.93286, -98.5629)",30.374033281161662,1938467.0,29_0_yes,27.596695526028025,-98.88304175274006,100.0
78359,27.93021,-97.30056,Gregory,TX,Texas,True,,2218.0,89.4,48409,San Patricio,"{""48409"": 100}",San Patricio,48409,False,False,America/Chicago,"(27.93021, -97.30056)",99.45721779366657,1938467.0,29_0_yes,27.596695526028025,-98.88304175274006,100.0
78361,27.08457,-98.73973,Hebbronville,TX,Texas,True,,5273.0,2.2,48247,Jim Hogg,"{""48247"": 87.68, ""48505"": 9.44, ""48131"": 2.88}",Jim Hogg|Zapata|Duval,48247|48505|48131,False,False,America/Chicago,"(27.08457, -98.73973)",36.46131942909772,1938467.0,29_0_yes,27.596695526028025,-98.88304175274006,100.0
78363,27.43836,-97.85532,Kingsville,TX,Texas,True,,29400.0,74.6,48273,Kleberg,"{""48273"": 100}",Kleberg,48273,False,False,America/Chicago,"(27.43836, -97.85532)",63.91850255624465,1938467.0,29_0_yes,27.596695526028025,-98.88304175274006,100.0
78368,28.11299,-97.81201,Mathis,TX,Texas,True,,9305.0,17.4,48409,San Patricio,"{""48409"": 68.73, ""48297"": 31.27}",San Patricio|Live Oak,48409|48297,False,False,America/Chicago,"(28.11299, -97.81201)",74.51943680448407,1938467.0,29_0_yes,27.596695526028025,-98.88304175274006,100.0
78369,27.42418,-99.08229,Mirando City,TX,Texas,True,,378.0,2.2,48479,Webb,"{""48479"": 100}",Webb,48479,False,False,America/Chicago,"(27.42418, -99.08229)",17.063559167628558,1938467.0,29_0_yes,27.596695526028025,-98.88304175274006,100.0
78370,27.94238,-97.6033,Odem,TX,Texas,True,,4458.0,15.6,48409,San Patricio,"{""48409"": 100}",San Patricio,48409,False,False,America/Chicago,"(27.94238, -97.6033)",81.80208419820963,1938467.0,29_0_yes,27.596695526028025,-98.88304175274006,100.0
78371,27.5493,-99.04716,Oilton,TX,Texas,True,,170.0,0.7,48479,Webb,"{""48479"": 100}",Webb,48479,False,False,America/Chicago,"(27.5493, -99.04716)",10.571559053247661,1938467.0,29_0_yes,27.596695526028025,-98.88304175274006,100.0
78372,27.9979,-98.09669,Orange Grove,TX,Texas,True,,4967.0,7.8,48249,Jim Wells,"{""48249"": 77.29, ""48297"": 12.94, ""48131"": 9.77}",Jim Wells|Live Oak|Duval,48249|48297|48131,False,False,America/Chicago,"(27.9979, -98.09669)",55.48299493351228,1938467.0,29_0_yes,27.596695526028025,-98.88304175274006,100.0
78374,27.88849,-97.29366,Portland,TX,Texas,True,,17972.0,373.9,48409,San Patricio,"{""48409"": 100}",San Patricio,48409,False,False,America/Chicago,"(27.88849, -97.29366)",99.26043671466509,1938467.0,29_0_yes,27.596695526028025,-98.88304175274006,100.0
78375,27.38282,-98.16351,Premont,TX,Texas,True,,2982.0,13.0,48249,Jim Wells,"{""48249"": 100}",Jim Wells,48249,False,False,America/Chicago,"(27.38282, -98.16351)",46.51158443316908,1938467.0,29_0_yes,27.596695526028025,-98.88304175274006,100.0
78376,27.37163,-98.47721,Realitos,TX,Texas,True,,447.0,1.1,48131,Duval,"{""48131"": 100}",Duval,48131,False,False,America/Chicago,"(27.37163, -98.47721)",29.33623210208352,1938467.0,29_0_yes,27.596695526028025,-98.88304175274006,100.0
78379,27.30211,-97.79361,Riviera,TX,Texas,True,,1285.0,6.5,48273,Kleberg,"{""48273"": 100}",Kleberg,48273,False,False,America/Chicago,"(27.30211, -97.79361)",69.83009126268841,1938467.0,29_0_yes,27.596695526028025,-98.88304175274006,100.0
78380,27.77872,-97.7363,Robstown,TX,Texas,True,,23610.0,26.6,48355,Nueces,"{""48355"": 99.72, ""48249"": 0.28}",Nueces|Jim Wells,48355|48249,False,False,America/Chicago,"(27.77872, -97.7363)",71.27770329207674,1938467.0,29_0_yes,27.596695526028025,-98.88304175274006,100.0
78383,28.07713,-97.94425,Sandia,TX,Texas,True,,6079.0,16.6,48297,Live Oak,"{""48297"": 63.83, ""48249"": 29.03, ""48355"": 7.14}",Live Oak|Jim Wells|Nueces,48297|48249|48355,False,False,America/Chicago,"(28.07713, -97.94425)",66.27078101051623,1938467.0,29_0_yes,27.596695526028025,-98.88304175274006,100.0
78384,27.73068,-98.4707,San Diego,TX,Texas,True,,5621.0,3.7,48131,Duval,"{""48131"": 98.61, ""48249"": 1.39}",Duval|Jim Wells,48131|48249,False,False,America/Chicago,"(27.73068, -98.4707)",26.877885775213183,1938467.0,29_0_yes,27.596695526028025,-98.88304175274006,100.0
78385,27.1276,-97.8369,Sarita,TX,Texas,True,,391.0,0.5,48261,Kenedy,"{""48261"": 100}",Kenedy,48261,False,False,America/Chicago,"(27.1276, -97.8369)",71.91231149083178,1938467.0,29_0_yes,27.596695526028025,-98.88304175274006,100.0
78387,28.08224,-97.55255,Sinton,TX,Texas,True,,9874.0,22.1,48409,San Patricio,"{""48409"": 79.14, ""48025"": 20.86}",San Patricio|Bee,48409|48025,False,False,America/Chicago,"(28.08224, -97.55255)",87.93822213256074,1938467.0,29_0_yes,27.596695526028025,-98.88304175274006,100.0
78389,28.244,-97.66619,Skidmore,TX,Texas,True,,1984.0,6.2,48025,Bee,"{""48025"": 100}",Bee,48025,False,False,America/Chicago,"(28.244, -97.66619)",86.71282744053207,1938467.0,29_0_yes,27.596695526028025,-98.88304175274006,100.0
78390,28.00198,-97.35631,Taft,TX,Texas,True,,5299.0,10.1,48409,San Patricio,"{""48409"": 91.7, ""48007"": 8.3}",San Patricio|Aransas,48409|48007,False,False,America/Chicago,"(28.00198, -97.35631)",97.42267165720119,1938467.0,29_0_yes,27.596695526028025,-98.88304175274006,100.0
78391,28.18297,-97.72743,Tynan,TX,Texas,True,,223.0,4.0,48025,Bee,"{""48025"": 100}",Bee,48025,False,False,America/Chicago,"(28.18297, -97.72743)",81.36970946477261,1938467.0,29_0_yes,27.596695526028025,-98.88304175274006,100.0
78393,28.18097,-97.35427,Woodsboro,TX,Texas,True,,2182.0,6.6,48391,Refugio,"{""48391"": 100}",Refugio,48391,False,False,America/Chicago,"(28.18097, -97.35427)",101.71308641265438,1938467.0,29_0_yes,27.596695526028025,-98.88304175274006,100.0
78401,27.79734,-97.40118,Corpus Christi,TX,Texas,True,,4823.0,865.5,48355,Nueces,"{""48355"": 100}",Nueces,48355,False,False,America/Chicago,"(27.79734, -97.40118)",91.70843060614078,1938467.0,29_0_yes,27.596695526028025,-98.88304175274006,100.0
78402,27.82413,-97.4091,Corpus Christi,TX,Texas,True,,159.0,14.5,48355,Nueces,"{""48355"": 100}",Nueces,48355,False,False,America/Chicago,"(27.82413, -97.4091)",91.5181560733339,1938467.0,29_0_yes,27.596695526028025,-98.88304175274006,100.0
78404,27.76798,-97.39946,Corpus Christi,TX,Texas,True,,16852.0,2022.8,48355,Nueces,"{""48355"": 100}",Nueces,48355,False,False,America/Chicago,"(27.76798, -97.39946)",91.54023411277896,1938467.0,29_0_yes,27.596695526028025,-98.88304175274006,100.0
78405,27.77404,-97.43872,Corpus Christi,TX,Texas,True,,14224.0,1078.3,48355,Nueces,"{""48355"": 100}",Nueces,48355,False,False,America/Chicago,"(27.77404, -97.43872)",89.21297352286837,1938467.0,29_0_yes,27.596695526028025,-98.88304175274006,100.0
78406,27.77197,-97.51543,Corpus Christi,TX,Texas,True,,2051.0,70.3,48355,Nueces,"{""48355"": 100}",Nueces,48355,False,False,America/Chicago,"(27.77197, -97.51543)",84.54681750151369,1938467.0,29_0_yes,27.596695526028025,-98.88304175274006,100.0
78407,27.80762,-97.44772,Corpus Christi,TX,Texas,True,,2292.0,369.1,48355,Nueces,"{""48355"": 100}",Nueces,48355,False,False,America/Chicago,"(27.80762, -97.44772)",89.00453165802405,1938467.0,29_0_yes,27.596695526028025,-98.88304175274006,100.0
78408,27.80081,-97.44339,Corpus Christi,TX,Texas,True,,11299.0,744.4,48355,Nueces,"{""48355"": 100}",Nueces,48355,False,False,America/Chicago,"(27.80081, -97.44339)",89.19295387634948,1938467.0,29_0_yes,27.596695526028025,-98.88304175274006,100.0
78409,27.81729,-97.51458,Corpus Christi,TX,Texas,True,,2448.0,51.3,48355,Nueces,"{""48355"": 100}",Nueces,48355,False,False,America/Chicago,"(27.81729, -97.51458)",85.08584876538184,1938467.0,29_0_yes,27.596695526028025,-98.88304175274006,100.0
78410,27.83798,-97.59388,Corpus Christi,TX,Texas,True,,28210.0,484.4,48355,Nueces,"{""48355"": 100}",Nueces,48355,False,False,America/Chicago,"(27.83798, -97.59388)",80.59439508187094,1938467.0,29_0_yes,27.596695526028025,-98.88304175274006,100.0
78411,27.7293,-97.38504,Corpus Christi,TX,Texas,True,,25548.0,1608.1,48355,Nueces,"{""48355"": 100}",Nueces,48355,False,False,America/Chicago,"(27.7293, -97.38504)",92.12723813584583,1938467.0,29_0_yes,27.596695526028025,-98.88304175274006,100.0
78412,27.70364,-97.34264,Corpus Christi,TX,Texas,True,,42385.0,1894.8,48355,Nueces,"{""48355"": 100}",Nueces,48355,False,False,America/Chicago,"(27.70364, -97.34264)",94.56536782682004,1938467.0,29_0_yes,27.596695526028025,-98.88304175274006,100.0
78413,27.68345,-97.40409,Corpus Christi,TX,Texas,True,,39782.0,1949.2,48355,Nueces,"{""48355"": 100}",Nueces,48355,False,False,America/Chicago,"(27.68345, -97.40409)",90.72200004380662,1938467.0,29_0_yes,27.596695526028025,-98.88304175274006,100.0
78414,27.65992,-97.369,Corpus Christi,TX,Texas,True,,44014.0,1193.9,48355,Nueces,"{""48355"": 100}",Nueces,48355,False,False,America/Chicago,"(27.65992, -97.369)",92.78438774796,1938467.0,29_0_yes,27.596695526028025,-98.88304175274006,100.0
78415,27.65437,-97.48712,Corpus Christi,TX,Texas,True,,41976.0,148.5,48355,Nueces,"{""48355"": 100}",Nueces,48355,False,False,America/Chicago,"(27.65437, -97.48712)",85.54593647540023,1938467.0,29_0_yes,27.596695526028025,-98.88304175274006,100.0
78416,27.74933,-97.43759,Corpus Christi,TX,Texas,True,,15804.0,1838.1,48355,Nueces,"{""48355"": 100}",Nueces,48355,False,False,America/Chicago,"(27.74933, -97.43759)",89.07314579372596,1938467.0,29_0_yes,27.596695526028025,-98.88304175274006,100.0
78417,27.73753,-97.46771,Corpus Christi,TX,Texas,True,,4572.0,189.4,48355,Nueces,"{""48355"": 100}",Nueces,48355,False,False,America/Chicago,"(27.73753, -97.46771)",87.15322909040917,1938467.0,29_0_yes,27.596695526028025,-98.88304175274006,100.0
78418,27.52732,-97.29313,Corpus Christi,TX,Texas,True,,29789.0,156.8,48273,Kleberg,"{""48273"": 53.26, ""48355"": 46.74}",Kleberg|Nueces,48273|48355,False,False,America/Chicago,"(27.52732, -97.29313)",97.50256767172561,1938467.0,29_0_yes,27.596695526028025,-98.88304175274006,100.0
78419,27.69689,-97.26881,Corpus Christi,TX,Texas,True,,861.0,457.5,48355,Nueces,"{""48355"": 100}",Nueces,48355,False,False,America/Chicago,"(27.69689, -97.26881)",99.040041638467,1938467.0,29_0_yes,27.596695526028025,-98.88304175274006,100.0
78501,26.21599,-98.2391,Mcallen,TX,Texas,True,,60299.0,1498.2,48215,Hidalgo,"{""48215"": 100}",Hidalgo,48215,False,False,America/Chicago,"(26.21599, -98.2391)",103.31863934523246,1938467.0,29_0_yes,27.596695526028025,-98.88304175274006,100.0
78503,26.16229,-98.25132,Mcallen,TX,Texas,True,,20703.0,416.1,48215,Hidalgo,"{""48215"": 100}",Hidalgo,48215,False,False,America/Chicago,"(26.16229, -98.25132)",106.47983665069619,1938467.0,29_0_yes,27.596695526028025,-98.88304175274006,100.0
78504,26.27758,-98.23728,Mcallen,TX,Texas,True,,61182.0,1205.7,48215,Hidalgo,"{""48215"": 100}",Hidalgo,48215,False,False,America/Chicago,"(26.27758, -98.23728)",99.44337832270533,1938467.0,29_0_yes,27.596695526028025,-98.88304175274006,100.0
78535,26.24948,-97.73124,Combes,TX,Texas,True,,732.0,677.4,48061,Cameron,"{""48061"": 100}",Cameron,48061,False,False,America/Chicago,"(26.24948, -97.73124)",117.04251886950738,1938467.0,29_0_yes,27.596695526028025,-98.88304175274006,100.0
78536,26.6432,-98.44369,Delmita,TX,Texas,True,,340.0,3.0,48427,Starr,"{""48427"": 98.23, ""48215"": 1.77}",Starr|Hidalgo,48427|48215,False,False,America/Chicago,"(26.6432, -98.44369)",71.20528201823653,1938467.0,29_0_yes,27.596695526028025,-98.88304175274006,100.0
78537,26.17322,-98.05744,Donna,TX,Texas,True,,45120.0,302.5,48215,Hidalgo,"{""48215"": 100}",Hidalgo,48215,False,False,America/Chicago,"(26.17322, -98.05744)",110.73216997784483,1938467.0,29_0_yes,27.596695526028025,-98.88304175274006,100.0
78538,26.36812,-97.97152,Edcouch,TX,Texas,True,,10698.0,61.6,48215,Hidalgo,"{""48215"": 100}",Hidalgo,48215,False,False,America/Chicago,"(26.36812, -97.97152)",101.76171631243407,1938467.0,29_0_yes,27.596695526028025,-98.88304175274006,100.0
78539,26.28,-98.18311,Edinburg,TX,Texas,True,,37411.0,1180.2,48215,Hidalgo,"{""48215"": 100}",Hidalgo,48215,False,False,America/Chicago,"(26.28, -98.18311)",100.67300905518162,1938467.0,29_0_yes,27.596695526028025,-98.88304175274006,100.0
78541,26.4528,-98.28632,Edinburg,TX,Texas,True,,44740.0,59.5,48215,Hidalgo,"{""48215"": 100}",Hidalgo,48215,False,False,America/Chicago,"(26.4528, -98.28632)",87.1520311784396,1938467.0,29_0_yes,27.596695526028025,-98.88304175274006,100.0
78542,26.44412,-98.09163,Edinburg,TX,Texas,True,,80837.0,177.4,48215,Hidalgo,"{""48215"": 100}",Hidalgo,48215,False,False,America/Chicago,"(26.44412, -98.09163)",93.35180989946106,1938467.0,29_0_yes,27.596695526028025,-98.88304175274006,100.0
78543,26.30117,-98.00508,Elsa,TX,Texas,True,,10188.0,618.8,48215,Hidalgo,"{""48215"": 100}",Hidalgo,48215,False,False,America/Chicago,"(26.30117, -98.00508)",104.57646412301102,1938467.0,29_0_yes,27.596695526028025,-98.88304175274006,100.0
78545,26.591,-99.13889,Falcon Heights,TX,Texas,True,,202.0,3.6,48505,Zapata,"{""48505"": 54.16, ""48427"": 45.84}",Zapata|Starr,48505|48427,False,False,America/Chicago,"(26.591, -99.13889)",71.24671123885521,1938467.0,29_0_yes,27.596695526028025,-98.88304175274006,100.0
78548,26.27654,-98.65527,Grulla,TX,Texas,True,,583.0,30.1,48427,Starr,"{""48427"": 100}",Starr,48427,False,False,America/Chicago,"(26.27654, -98.65527)",92.28669326090575,1938467.0,29_0_yes,27.596695526028025,-98.88304175274006,100.0
78549,26.48528,-98.02329,Hargill,TX,Texas,True,,1095.0,16.3,48215,Hidalgo,"{""48215"": 100}",Hidalgo,48215,False,False,America/Chicago,"(26.48528, -98.02329)",93.25322180189193,1938467.0,29_0_yes,27.596695526028025,-98.88304175274006,100.0
78550,26.25469,-97.66406,Harlingen,TX,Texas,True,,52022.0,213.3,48061,Cameron,"{""48061"": 100}",Cameron,48061,False,False,America/Chicago,"(26.25469, -97.66406)",119.3155454261475,1938467.0,29_0_yes,27.596695526028025,-98.88304175274006,100.0
78552,26.19664,-97.75083,Harlingen,TX,Texas,True,,38982.0,313.3,48061,Cameron,"{""48061"": 100}",Cameron,48061,False,False,America/Chicago,"(26.19664, -97.75083)",119.26613706752894,1938467.0,29_0_yes,27.596695526028025,-98.88304175274006,100.0
78558,26.29276,-98.02366,La Blanca,TX,Texas,True,,979.0,490.3,48215,Hidalgo,"{""48215"": 100}",Hidalgo,48215,False,False,America/Chicago,"(26.29276, -98.02366)",104.49099176881778,1938467.0,29_0_yes,27.596695526028025,-98.88304175274006,100.0
78559,26.14549,-97.82765,La Feria,TX,Texas,True,,13733.0,146.0,48061,Cameron,"{""48061"": 100}",Cameron,48061,False,False,America/Chicago,"(26.14549, -97.82765)",119.51786031551806,1938467.0,29_0_yes,27.596695526028025,-98.88304175274006,100.0
78560,26.25545,-98.49515,La Joya,TX,Texas,True,,4743.0,128.7,48215,Hidalgo,"{""48215"": 100}",Hidalgo,48215,False,False,America/Chicago,"(26.25545, -98.49515)",95.70213699004402,1938467.0,29_0_yes,27.596695526028025,-98.88304175274006,100.0
78561,26.4687,-97.91595,Lasara,TX,Texas,True,,482.0,176.0,48489,Willacy,"{""48489"": 100}",Willacy,48489,False,False,America/Chicago,"(26.4687, -97.91595)",98.06390615336915,1938467.0,29_0_yes,27.596695526028025,-98.88304175274006,100.0
78562,26.28809,-97.89293,La Villa,TX,Texas,True,,3198.0,57.5,48215,Hidalgo,"{""48215"": 100}",Hidalgo,48215,False,False,America/Chicago,"(26.28809, -97.89293)",109.05933821270199,1938467.0,29_0_yes,27.596695526028025,-98.88304175274006,100.0
78563,26.66557,-98.2517,Linn,TX,Texas,True,,293.0,0.5,48215,Hidalgo,"{""48215"": 99.25, ""48427"": 0.75}",Hidalgo|Starr,48215|48427,False,False,America/Chicago,"(26.66557, -98.2517)",75.13991041667475,1938467.0,29_0_yes,27.596695526028025,-98.88304175274006,100.0
78564,26.67801,-99.13171,Lopeno,TX,Texas,True,,205.0,4.0,48505,Zapata,"{""48505"": 100}",Zapata,48505,False,False,America/Chicago,"(26.67801, -99.13171)",65.29061703047246,1938467.0,29_0_yes,27.596695526028025,-98.88304175274006,100.0
78565,26.24453,-98.561,Los Ebanos,TX,Texas,True,,42.0,5.1,48215,Hidalgo,"{""48215"": 100}",Hidalgo,48215,False,False,America/Chicago,"(26.24453, -98.561)",95.50890614416825,1938467.0,29_0_yes,27.596695526028025,-98.88304175274006,100.0
78569,26.37417,-97.73851,Lyford,TX,Texas,True,,4541.0,11.5,48489,Willacy,"{""48489"": 79.64, ""48215"": 14.72, ""48061"": 5.64}",Willacy|Hidalgo|Cameron,48489|48215|48061,False,False,America/Chicago,"(26.37417, -97.73851)",110.00233759992814,1938467.0,29_0_yes,27.596695526028025,-98.88304175274006,100.0
78570,26.17149,-97.9112,Mercedes,TX,Texas,True,,32841.0,168.6,48215,Hidalgo,"{""48215"": 100}",Hidalgo,48215,False,False,America/Chicago,"(26.17149, -97.9112)",115.2534313858687,1938467.0,29_0_yes,27.596695526028025,-98.88304175274006,100.0
78572,26.19848,-98.35633,Mission,TX,Texas,True,,80135.0,576.5,48215,Hidalgo,"{""48215"": 100}",Hidalgo,48215,False,False,America/Chicago,"(26.19848, -98.35633)",101.91299124236548,1938467.0,29_0_yes,27.596695526028025,-98.88304175274006,100.0
78573,26.29745,-98.30242,Mission,TX,Texas,True,,41336.0,435.1,48215,Hidalgo,"{""48215"": 100}",Hidalgo,48215,False,False,America/Chicago,"(26.29745, -98.30242)",96.6297643450177,1938467.0,29_0_yes,27.596695526028025,-98.88304175274006,100.0
78574,26.31118,-98.37293,Mission,TX,Texas,True,,62972.0,468.8,48215,Hidalgo,"{""48215"": 100}",Hidalgo,48215,False,False,America/Chicago,"(26.31118, -98.37293)",94.2127622403501,1938467.0,29_0_yes,27.596695526028025,-98.88304175274006,100.0
78576,26.32584,-98.46799,Penitas,TX,Texas,True,,10262.0,68.1,48215,Hidalgo,"{""48215"": 100}",Hidalgo,48215,False,False,America/Chicago,"(26.32584, -98.46799)",91.45213149662857,1938467.0,29_0_yes,27.596695526028025,-98.88304175274006,100.0
78577,26.1665,-98.19082,Pharr,TX,Texas,True,,78731.0,1169.1,48215,Hidalgo,"{""48215"": 100}",Hidalgo,48215,False,False,America/Chicago,"(26.1665, -98.19082)",107.63134587477386,1938467.0,29_0_yes,27.596695526028025,-98.88304175274006,100.0
78580,26.50065,-97.75087,Raymondville,TX,Texas,True,,14734.0,22.1,48489,Willacy,"{""48489"": 92.05, ""48261"": 7.95}",Willacy|Kenedy,48489|48261,False,False,America/Chicago,"(26.50065, -97.75087)",102.9003537353996,1938467.0,29_0_yes,27.596695526028025,-98.88304175274006,100.0
78582,26.53937,-98.73985,Rio Grande City,TX,Texas,True,,44047.0,30.1,48427,Starr,"{""48427"": 100}",Starr,48427,False,False,America/Chicago,"(26.53937, -98.73985)",73.58350533410152,1938467.0,29_0_yes,27.596695526028025,-98.88304175274006,100.0
78583,26.28166,-97.4686,Rio Hondo,TX,Texas,True,,6915.0,28.7,48061,Cameron,"{""48061"": 100}",Cameron,48061,False,False,America/Chicago,"(26.28166, -97.4686)",125.8788900662718,1938467.0,29_0_yes,27.596695526028025,-98.88304175274006,100.0
78584,26.56226,-98.98471,Roma,TX,Texas,True,,18286.0,33.2,48427,Starr,"{""48427"": 100}",Starr,48427,False,False,America/Chicago,"(26.56226, -98.98471)",71.74581798926634,1938467.0,29_0_yes,27.596695526028025,-98.88304175274006,100.0
78588,26.73966,-98.39852,San Isidro,TX,Texas,True,,135.0,1.4,48427,Starr,"{""48427"": 99.63, ""48215"": 0.37}",Starr|Hidalgo,48427|48215,False,False,America/Chicago,"(26.73966, -98.39852)",66.28360684684544,1938467.0,29_0_yes,27.596695526028025,-98.88304175274006,100.0
78589,26.15349,-98.15979,San Juan,TX,Texas,True,,41112.0,622.7,48215,Hidalgo,"{""48215"": 100}",Hidalgo,48215,False,False,America/Chicago,"(26.15349, -98.15979)",109.22450097107232,1938467.0,29_0_yes,27.596695526028025,-98.88304175274006,100.0
78590,26.50401,-97.63486,San Perlita,TX,Texas,True,,298.0,114.9,48489,Willacy,"{""48489"": 100}",Willacy,48489,False,False,America/Chicago,"(26.50401, -97.63486)",107.69772609994313,1938467.0,29_0_yes,27.596695526028025,-98.88304175274006,100.0
78591,26.65351,-98.53408,Santa Elena,TX,Texas,True,,260.0,0.6,48427,Starr,"{""48427"": 100}",Starr,48427,False,False,America/Chicago,"(26.65351, -98.53408)",68.60998266074485,1938467.0,29_0_yes,27.596695526028025,-98.88304175274006,100.0
78593,26.26999,-97.82187,Santa Rosa,TX,Texas,True,,5432.0,54.7,48061,Cameron,"{""48061"": 100}",Cameron,48061,False,False,America/Chicago,"(26.26999, -97.82187)",112.58456796421594,1938467.0,29_0_yes,27.596695526028025,-98.88304175274006,100.0
78594,26.34704,-97.8037,Sebastian,TX,Texas,True,,1538.0,187.4,48489,Willacy,"{""48489"": 100}",Willacy,48489,False,False,America/Chicago,"(26.34704, -97.8037)",108.95965692084512,1938467.0,29_0_yes,27.596695526028025,-98.88304175274006,100.0
78595,26.31457,-98.54038,Sullivan City,TX,Texas,True,,7442.0,94.1,48215,Hidalgo,"{""48215"": 78.34, ""48427"": 21.66}",Hidalgo|Starr,48215|48427,False,False,America/Chicago,"(26.31457, -98.54038)",91.06525627836521,1938467.0,29_0_yes,27.596695526028025,-98.88304175274006,100.0
78598,26.52363,-97.42327,Port Mansfield,TX,Texas,True,,127.0,7.7,48489,Willacy,"{""48489"": 100}",Willacy,48489,False,False,America/Chicago,"(26.52363, -97.42327)",116.46460723792552,1938467.0,29_0_yes,27.596695526028025,-98.88304175274006,100.0
78827,28.42865,-99.72393,Asherton,TX,Texas,True,,1030.0,6.2,48127,Dimmit,"{""48127"": 100}",Dimmit,48127,False,False,America/Chicago,"(28.42865, -99.72393)",77.03980386147006,1938467.0,29_0_yes,27.596695526028025,-98.88304175274006,100.0
78829,28.89351,-99.57401,Batesville,TX,Texas,True,,1764.0,1.3,48507,Zavala,"{""48507"": 100}",Zavala,48507,False,False,America/Chicago,"(28.89351, -99.57401)",98.97996903983643,1938467.0,29_0_yes,27.596695526028025,-98.88304175274006,100.0
78830,28.53226,-99.48219,Big Wells,TX,Texas,True,,877.0,2.1,48127,Dimmit,"{""48127"": 100}",Dimmit,48127,False,False,America/Chicago,"(28.53226, -99.48219)",74.24865439653814,1938467.0,29_0_yes,27.596695526028025,-98.88304175274006,100.0
78834,28.54776,-99.87286,Carrizo Springs,TX,Texas,True,,8245.0,6.2,48127,Dimmit,"{""48127"": 89.1, ""48507"": 10.9}",Dimmit|Zavala,48127|48507,False,False,America/Chicago,"(28.54776, -99.87286)",89.2152070586494,1938467.0,29_0_yes,27.596695526028025,-98.88304175274006,100.0
78836,28.32336,-99.64569,Catarina,TX,Texas,True,,80.0,0.4,48127,Dimmit,"{""48127"": 100}",Dimmit,48127,False,False,America/Chicago,"(28.32336, -99.64569)",68.46189747805249,1938467.0,29_0_yes,27.596695526028025,-98.88304175274006,100.0
78839,28.71282,-99.75516,Crystal City,TX,Texas,True,,8790.0,13.9,48507,Zavala,"{""48507"": 97.93, ""48127"": 2.07}",Zavala|Dimmit,48507|48127,False,False,America/Chicago,"(28.71282, -99.75516)",93.64500361385477,1938467.0,29_0_yes,27.596695526028025,-98.88304175274006,100.0
78852,28.82698,-100.31543,Eagle Pass,TX,Texas,True,,57160.0,45.7,48323,Maverick,"{""48323"": 100}",Maverick,48323,False,False,America/Chicago,"(28.82698, -100.31543)",121.78269096640945,1938467.0,29_0_yes,27.596695526028025,-98.88304175274006,100.0
78872,28.90751,-99.88039,La Pryor,TX,Texas,True,,1376.0,3.2,48507,Zavala,"{""48507"": 100}",Zavala,48507,False,False,America/Chicago,"(28.90751, -99.88039)",109.02747854939645,1938467.0,29_0_yes,27.596695526028025,-98.88304175274006,100.0
