zip,lat,lng,city,state_id,state_name,zcta,parent_zcta,population,density,county_fips,county_name,county_weights,county_names_all,county_fips_all,imprecise,military,timezone,Coord,distance_miles,market_total_population,market_id,market_center_lat,market_center_lng,radius_miles
85320,33.83563,-113.23214,Aguila,AZ,Arizona,True,,956.0,1.4,4013,Maricopa,"{""04013"": 100}",Maricopa,04013,False,False,America/Phoenix,"(33.83563, -113.23214)",80.41360870038862,806614.0,70_0_yes,33.56542571372064,-114.592859091685,100.0
85325,33.98328,-113.84323,Bouse,AZ,Arizona,True,,1281.0,0.7,4012,La Paz,"{""04012"": 100}",La Paz,04012,False,False,America/Phoenix,"(33.98328, -113.84323)",51.83714738074435,806614.0,70_0_yes,33.56542571372064,-114.592859091685,100.0
85328,33.22795,-114.63413,Cibola,AZ,Arizona,True,,286.0,0.6,4012,La Paz,"{""04012"": 100}",La Paz,04012,False,False,America/Phoenix,"(33.22795, -114.63413)",23.438569606624657,806614.0,70_0_yes,33.56542571372064,-114.592859091685,100.0
85332,34.19209,-112.89444,Congress,AZ,Arizona,True,,1960.0,1.8,4025,Yavapai,"{""04025"": 100}",Yavapai,04025,False,False,America/Phoenix,"(34.19209, -112.89444)",106.61195017851144,806614.0,70_0_yes,33.56542571372064,-114.592859091685,100.0
85333,32.97896,-113.30714,Dateland,AZ,Arizona,True,,607.0,0.4,4013,Maricopa,"{""04013"": 55.51, ""04027"": 44.49}",Maricopa|Yuma,04013|04027,False,False,America/Phoenix,"(32.97896, -113.30714)",84.60586046962254,806614.0,70_0_yes,33.56542571372064,-114.592859091685,100.0
85334,33.60535,-114.4075,Ehrenberg,AZ,Arizona,True,,1005.0,6.7,4012,La Paz,"{""04012"": 100}",La Paz,04012,False,False,America/Phoenix,"(33.60535, -114.4075)",11.019943768564312,806614.0,70_0_yes,33.56542571372064,-114.592859091685,100.0
85336,32.51904,-114.77977,San Luis,AZ,Arizona,True,,873.0,34.5,4027,Yuma,"{""04027"": 100}",Yuma,04027,False,False,America/Phoenix,"(32.51904, -114.77977)",73.10431898909061,806614.0,70_0_yes,33.56542571372064,-114.592859091685,100.0
85337,32.97553,-112.866,Gila Bend,AZ,Arizona,True,,2676.0,2.9,4013,Maricopa,"{""04013"": 100}",Maricopa,04013,False,False,America/Phoenix,"(32.97553, -112.866)",107.76079885272661,806614.0,70_0_yes,33.56542571372064,-114.592859091685,100.0
85344,33.98527,-114.23267,Parker,AZ,Arizona,True,,10608.0,4.7,4012,La Paz,"{""04012"": 100}",La Paz,04012,False,False,America/Phoenix,"(33.98527, -114.23267)",35.62884351781488,806614.0,70_0_yes,33.56542571372064,-114.592859091685,100.0
85346,33.60992,-114.15835,Quartzsite,AZ,Arizona,True,,4275.0,4.5,4012,La Paz,"{""04012"": 100}",La Paz,04012,False,False,America/Phoenix,"(33.60992, -114.15835)",25.19752445393825,806614.0,70_0_yes,33.56542571372064,-114.592859091685,100.0
85347,32.78612,-113.80633,Roll,AZ,Arizona,True,,498.0,0.9,4027,Yuma,"{""04027"": 100}",Yuma,04027,False,False,America/Phoenix,"(32.78612, -113.80633)",70.48501863990252,806614.0,70_0_yes,33.56542571372064,-114.592859091685,100.0
85348,33.69914,-113.66372,Salome,AZ,Arizona,True,,2836.0,1.6,4012,La Paz,"{""04012"": 100}",La Paz,04012,False,False,America/Phoenix,"(33.69914, -113.66372)",54.243705284100706,806614.0,70_0_yes,33.56542571372064,-114.592859091685,100.0
85349,32.47983,-114.69647,San Luis,AZ,Arizona,True,,31340.0,536.1,4027,Yuma,"{""04027"": 100}",Yuma,04027,False,False,America/Phoenix,"(32.47983, -114.69647)",75.24728483926964,806614.0,70_0_yes,33.56542571372064,-114.592859091685,100.0
85350,32.56651,-114.70896,Somerton,AZ,Arizona,True,,24044.0,114.1,4027,Yuma,"{""04027"": 100}",Yuma,04027,False,False,America/Phoenix,"(32.56651, -114.70896)",69.3451124914256,806614.0,70_0_yes,33.56542571372064,-114.592859091685,100.0
85352,32.69118,-113.8963,Tacna,AZ,Arizona,True,,495.0,4.5,4027,Yuma,"{""04027"": 100}",Yuma,04027,False,False,America/Phoenix,"(32.69118, -113.8963)",72.61603994798584,806614.0,70_0_yes,33.56542571372064,-114.592859091685,100.0
85354,33.40735,-113.06637,Tonopah,AZ,Arizona,True,,7673.0,4.1,4013,Maricopa,"{""04013"": 100}",Maricopa,04013,False,False,America/Phoenix,"(33.40735, -113.06637)",88.63867444812536,806614.0,70_0_yes,33.56542571372064,-114.592859091685,100.0
85356,32.68933,-114.1852,Wellton,AZ,Arizona,True,,5009.0,10.7,4027,Yuma,"{""04027"": 100}",Yuma,04027,False,False,America/Phoenix,"(32.68933, -114.1852)",64.96583637664905,806614.0,70_0_yes,33.56542571372064,-114.592859091685,100.0
85357,34.02498,-113.49055,Wenden,AZ,Arizona,True,,434.0,0.4,4012,La Paz,"{""04012"": 100}",La Paz,04012,False,False,America/Phoenix,"(34.02498, -113.49055)",70.81063654293679,806614.0,70_0_yes,33.56542571372064,-114.592859091685,100.0
85360,34.54833,-113.57275,Wikieup,AZ,Arizona,True,,99.0,0.0,4015,Mohave,"{""04015"": 100}",Mohave,04015,False,False,America/Phoenix,"(34.54833, -113.57275)",89.56379547013768,806614.0,70_0_yes,33.56542571372064,-114.592859091685,100.0
85364,32.70469,-114.65664,Yuma,AZ,Arizona,True,,73674.0,741.1,4027,Yuma,"{""04027"": 100}",Yuma,04027,False,False,America/Phoenix,"(32.70469, -114.65664)",59.58554853124507,806614.0,70_0_yes,33.56542571372064,-114.592859091685,100.0
85365,33.07067,-114.13801,Yuma,AZ,Arizona,True,,53355.0,15.3,4027,Yuma,"{""04027"": 100}",Yuma,04027,False,False,America/Phoenix,"(33.07067, -114.13801)",43.10717664623784,806614.0,70_0_yes,33.56542571372064,-114.592859091685,100.0
85367,32.66082,-114.39361,Yuma,AZ,Arizona,True,,22067.0,226.7,4027,Yuma,"{""04027"": 100}",Yuma,04027,False,False,America/Phoenix,"(32.66082, -114.39361)",63.5570215174502,806614.0,70_0_yes,33.56542571372064,-114.592859091685,100.0
85371,33.96732,-114.39005,Poston,AZ,Arizona,True,,310.0,12.9,4012,La Paz,"{""04012"": 100}",La Paz,04012,False,False,America/Phoenix,"(33.96732, -114.39005)",30.11266987095683,806614.0,70_0_yes,33.56542571372064,-114.592859091685,100.0
85390,33.92391,-112.86739,Wickenburg,AZ,Arizona,True,,9443.0,7.7,4013,Maricopa,"{""04013"": 76.23, ""04025"": 23.77}",Maricopa|Yavapai,04013|04025,False,False,America/Phoenix,"(33.92391, -112.86739)",102.1787701248913,806614.0,70_0_yes,33.56542571372064,-114.592859091685,100.0
86321,34.55367,-113.08895,Bagdad,AZ,Arizona,True,,2509.0,2.4,4025,Yavapai,"{""04025"": 100}",Yavapai,04025,False,False,America/Phoenix,"(34.55367, -113.08895)",109.87440235125081,806614.0,70_0_yes,33.56542571372064,-114.592859091685,100.0
86403,34.47703,-114.34423,Lake Havasu City,AZ,Arizona,True,,19123.0,669.9,4015,Mohave,"{""04015"": 100}",Mohave,04015,False,False,America/Los_Angeles,"(34.47703, -114.34423)",64.57502239678092,806614.0,70_0_yes,33.56542571372064,-114.592859091685,100.0
86404,34.61156,-114.29452,Lake Havasu City,AZ,Arizona,True,,16451.0,39.3,4015,Mohave,"{""04015"": 100}",Mohave,04015,False,False,America/Phoenix,"(34.61156, -114.29452)",74.2694670908094,806614.0,70_0_yes,33.56542571372064,-114.592859091685,100.0
86406,34.42269,-114.12418,Lake Havasu City,AZ,Arizona,True,,23069.0,36.4,4015,Mohave,"{""04015"": 100}",Mohave,04015,False,False,America/Phoenix,"(34.42269, -114.12418)",65.03189753785722,806614.0,70_0_yes,33.56542571372064,-114.592859091685,100.0
86426,35.0134,-114.54968,Fort Mohave,AZ,Arizona,True,,15326.0,169.6,4015,Mohave,"{""04015"": 100}",Mohave,04015,False,False,America/Phoenix,"(35.0134, -114.54968)",100.07585003954264,806614.0,70_0_yes,33.56542571372064,-114.592859091685,100.0
86433,34.92862,-114.35853,Oatman,AZ,Arizona,True,,43.0,0.1,4015,Mohave,"{""04015"": 100}",Mohave,04015,False,False,America/Phoenix,"(34.92862, -114.35853)",95.13374592525865,806614.0,70_0_yes,33.56542571372064,-114.592859091685,100.0
86436,34.73914,-114.42273,Topock,AZ,Arizona,True,,1282.0,5.7,4015,Mohave,"{""04015"": 99.89, ""06071"": 0.11}",Mohave|San Bernardino,04015|06071,False,False,America/Phoenix,"(34.73914, -114.42273)",81.67723021911017,806614.0,70_0_yes,33.56542571372064,-114.592859091685,100.0
86438,34.68595,-113.98175,Yucca,AZ,Arizona,True,,794.0,0.3,4015,Mohave,"{""04015"": 100}",Mohave,04015,False,False,America/Phoenix,"(34.68595, -113.98175)",84.94475010889204,806614.0,70_0_yes,33.56542571372064,-114.592859091685,100.0
86440,34.88855,-114.54071,Mohave Valley,AZ,Arizona,True,,7773.0,24.3,4015,Mohave,"{""04015"": 100}",Mohave,04015,False,False,America/Phoenix,"(34.88855, -114.54071)",91.4677045761502,806614.0,70_0_yes,33.56542571372064,-114.592859091685,100.0
91905,32.67773,-116.30734,Boulevard,CA,California,True,,1665.0,7.7,6073,San Diego,"{""06073"": 100}",San Diego,06073,False,False,America/Los_Angeles,"(32.67773, -116.30734)",116.63641918686716,806614.0,70_0_yes,33.56542571372064,-114.592859091685,100.0
91934,32.66488,-116.16828,Jacumba,CA,California,True,,785.0,5.9,6073,San Diego,"{""06073"": 100}",San Diego,06073,False,False,America/Los_Angeles,"(32.66488, -116.16828)",110.37731421890967,806614.0,70_0_yes,33.56542571372064,-114.592859091685,100.0
92004,33.18481,-116.15688,Borrego Springs,CA,California,True,,2284.0,1.0,6073,San Diego,"{""06073"": 58.05, ""06025"": 41.95}",San Diego|Imperial,06073|06025,False,False,America/Los_Angeles,"(33.18481, -116.15688)",93.99502577528374,806614.0,70_0_yes,33.56542571372064,-114.592859091685,100.0
92201,33.70804,-116.23502,Indio,CA,California,True,,64967.0,1547.2,6065,Riverside,"{""06065"": 100}",Riverside,06065,False,False,America/Los_Angeles,"(33.70804, -116.23502)",94.97655139122436,806614.0,70_0_yes,33.56542571372064,-114.592859091685,100.0
92203,33.75159,-116.24139,Indio,CA,California,True,,32360.0,677.0,6065,Riverside,"{""06065"": 100}",Riverside,06065,False,False,America/Los_Angeles,"(33.75159, -116.24139)",95.67499547545476,806614.0,70_0_yes,33.56542571372064,-114.592859091685,100.0
92225,33.71642,-114.65606,Blythe,CA,California,True,,22520.0,15.0,6065,Riverside,"{""06065"": 99.52, ""06025"": 0.48}",Riverside|Imperial,06065|06025,False,False,America/Los_Angeles,"(33.71642, -114.65606)",11.047982528734053,806614.0,70_0_yes,33.56542571372064,-114.592859091685,100.0
92227,32.98677,-115.3341,Brawley,CA,California,True,,27165.0,17.7,6025,Imperial,"{""06025"": 100}",Imperial,06025,False,False,America/Los_Angeles,"(32.98677, -115.3341)",58.581554829700934,806614.0,70_0_yes,33.56542571372064,-114.592859091685,100.0
92231,32.68751,-115.56433,Calexico,CA,California,True,,39884.0,224.6,6025,Imperial,"{""06025"": 100}",Imperial,06025,False,False,America/Los_Angeles,"(32.68751, -115.56433)",82.69892744351901,806614.0,70_0_yes,33.56542571372064,-114.592859091685,100.0
92233,33.14736,-115.50686,Calipatria,CA,California,True,,7520.0,19.1,6025,Imperial,"{""06025"": 100}",Imperial,06025,False,False,America/Los_Angeles,"(33.14736, -115.50686)",60.13911857011004,806614.0,70_0_yes,33.56542571372064,-114.592859091685,100.0
92236,33.70276,-116.07254,Coachella,CA,California,True,,45975.0,287.0,6065,Riverside,"{""06065"": 100}",Riverside,06065,False,False,America/Los_Angeles,"(33.70276, -116.07254)",85.64752082732797,806614.0,70_0_yes,33.56542571372064,-114.592859091685,100.0
92239,33.87424,-115.24396,Desert Center,CA,California,True,,295.0,0.2,6065,Riverside,"{""06065"": 100}",Riverside,06065,False,False,America/Los_Angeles,"(33.87424, -115.24396)",43.074189065454874,806614.0,70_0_yes,33.56542571372064,-114.592859091685,100.0
92241,33.84634,-116.28342,Desert Hot Springs,CA,California,True,,7695.0,22.4,6065,Riverside,"{""06065"": 100}",Riverside,06065,False,False,America/Los_Angeles,"(33.84634, -116.28342)",99.08930603837938,806614.0,70_0_yes,33.56542571372064,-114.592859091685,100.0
92242,34.19019,-114.30755,Earp,CA,California,True,,1300.0,11.1,6071,San Bernardino,"{""06071"": 100}",San Bernardino,06071,False,False,America/Los_Angeles,"(34.19019, -114.30755)",46.16543149370572,806614.0,70_0_yes,33.56542571372064,-114.592859091685,100.0
92243,32.77285,-115.60065,El Centro,CA,California,True,,50112.0,170.8,6025,Imperial,"{""06025"": 100}",Imperial,06025,False,False,America/Los_Angeles,"(32.77285, -115.60065)",79.97464257057678,806614.0,70_0_yes,33.56542571372064,-114.592859091685,100.0
92249,32.72606,-115.48218,Heber,CA,California,True,,8459.0,164.4,6025,Imperial,"{""06025"": 100}",Imperial,06025,False,False,America/Los_Angeles,"(32.72606, -115.48218)",77.52506660247768,806614.0,70_0_yes,33.56542571372064,-114.592859091685,100.0
92250,32.79188,-115.23454,Holtville,CA,California,True,,8255.0,9.0,6025,Imperial,"{""06025"": 100}",Imperial,06025,False,False,America/Los_Angeles,"(32.79188, -115.23454)",65.0654070747547,806614.0,70_0_yes,33.56542571372064,-114.592859091685,100.0
92251,32.87129,-115.71804,Imperial,CA,California,True,,24321.0,38.0,6025,Imperial,"{""06025"": 100}",Imperial,06025,False,False,America/Los_Angeles,"(32.87129, -115.71804)",80.8086656874846,806614.0,70_0_yes,33.56542571372064,-114.592859091685,100.0
92252,34.14801,-116.28422,Joshua Tree,CA,California,True,,9500.0,32.7,6071,San Bernardino,"{""06071"": 100}",San Bernardino,06071,False,False,America/Los_Angeles,"(34.14801, -116.28422)",105.06099099416528,806614.0,70_0_yes,33.56542571372064,-114.592859091685,100.0
92253,33.65562,-116.28785,La Quinta,CA,California,True,,41573.0,396.9,6065,Riverside,"{""06065"": 100}",Riverside,06065,False,False,America/Los_Angeles,"(33.65562, -116.28785)",97.73153999382764,806614.0,70_0_yes,33.56542571372064,-114.592859091685,100.0
92254,33.54371,-115.99995,Mecca,CA,California,True,,8336.0,67.2,6065,Riverside,"{""06065"": 100}",Riverside,06065,False,False,America/Los_Angeles,"(33.54371, -115.99995)",81.03310862878108,806614.0,70_0_yes,33.56542571372064,-114.592859091685,100.0
92257,33.33976,-115.52814,Niland,CA,California,True,,1217.0,1.7,6025,Imperial,"{""06025"": 100}",Imperial,06025,False,False,America/Los_Angeles,"(33.33976, -115.52814)",56.125651461813554,806614.0,70_0_yes,33.56542571372064,-114.592859091685,100.0
92259,32.73478,-115.94632,Ocotillo,CA,California,True,,89.0,0.1,6025,Imperial,"{""06025"": 100}",Imperial,06025,False,False,America/Los_Angeles,"(32.73478, -115.94632)",97.07523781128117,806614.0,70_0_yes,33.56542571372064,-114.592859091685,100.0
92266,33.17507,-114.92594,Palo Verde,CA,California,True,,119.0,0.0,6025,Imperial,"{""06025"": 100}",Imperial,06025,False,False,America/Los_Angeles,"(33.17507, -114.92594)",33.118295679177145,806614.0,70_0_yes,33.56542571372064,-114.592859091685,100.0
92267,34.29765,-114.20138,Parker Dam,CA,California,True,,26.0,0.2,6071,San Bernardino,"{""06071"": 100}",San Bernardino,06071,False,False,America/Los_Angeles,"(34.29765, -114.20138)",55.34602257042205,806614.0,70_0_yes,33.56542571372064,-114.592859091685,100.0
92273,32.80798,-115.69592,Seeley,CA,California,True,,1847.0,220.7,6025,Imperial,"{""06025"": 100}",Imperial,06025,False,False,America/Los_Angeles,"(32.80798, -115.69592)",82.50457916294806,806614.0,70_0_yes,33.56542571372064,-114.592859091685,100.0
92274,33.47031,-116.11387,Thermal,CA,California,True,,14105.0,25.2,6065,Riverside,"{""06065"": 66.1, ""06025"": 33.9}",Riverside|Imperial,06065|06025,False,False,America/Los_Angeles,"(33.47031, -116.11387)",87.86182327115877,806614.0,70_0_yes,33.56542571372064,-114.592859091685,100.0
92275,33.20783,-115.88084,Salton City,CA,California,True,,2531.0,24.1,6025,Imperial,"{""06025"": 100}",Imperial,06025,False,False,America/Los_Angeles,"(33.20783, -115.88084)",78.30478309621235,806614.0,70_0_yes,33.56542571372064,-114.592859091685,100.0
92277,34.11248,-115.68752,Twentynine Palms,CA,California,True,,24464.0,5.9,6071,San Bernardino,"{""06071"": 78.08, ""06065"": 21.92}",San Bernardino|Riverside,06071|06065,False,False,America/Los_Angeles,"(34.11248, -115.68752)",73.31553051465347,806614.0,70_0_yes,33.56542571372064,-114.592859091685,100.0
92278,34.23505,-116.05825,Twentynine Palms,CA,California,True,,5001.0,4919.6,6071,San Bernardino,"{""06071"": 100}",San Bernardino,06071,False,False,America/Los_Angeles,"(34.23505, -116.05825)",95.93021045911877,806614.0,70_0_yes,33.56542571372064,-114.592859091685,100.0
92281,33.05033,-115.61264,Westmorland,CA,California,True,,2865.0,83.8,6025,Imperial,"{""06025"": 100}",Imperial,06025,False,False,America/Los_Angeles,"(33.05033, -115.61264)",68.80467843072297,806614.0,70_0_yes,33.56542571372064,-114.592859091685,100.0
92283,32.83741,-114.79462,Winterhaven,CA,California,True,,1730.0,2.0,6025,Imperial,"{""06025"": 100}",Imperial,06025,False,False,America/Los_Angeles,"(32.83741, -114.79462)",51.63582849220874,806614.0,70_0_yes,33.56542571372064,-114.592859091685,100.0
92304,34.53062,-115.65933,Amboy,CA,California,True,,7.0,0.1,6071,San Bernardino,"{""06071"": 100}",San Bernardino,06071,False,False,America/Los_Angeles,"(34.53062, -115.65933)",90.41412918398365,806614.0,70_0_yes,33.56542571372064,-114.592859091685,100.0
92332,34.90728,-115.36409,Essex,CA,California,True,,94.0,0.0,6071,San Bernardino,"{""06071"": 100}",San Bernardino,06071,False,False,America/Los_Angeles,"(34.90728, -115.36409)",102.64626503535102,806614.0,70_0_yes,33.56542571372064,-114.592859091685,100.0
92363,34.70863,-114.57562,Needles,CA,California,True,,5374.0,5.6,6071,San Bernardino,"{""06071"": 100}",San Bernardino,06071,False,False,America/Los_Angeles,"(34.70863, -114.57562)",78.99404456417518,806614.0,70_0_yes,33.56542571372064,-114.592859091685,100.0
