zip,lat,lng,city,state_id,state_name,zcta,parent_zcta,population,density,county_fips,county_name,county_weights,county_names_all,county_fips_all,imprecise,military,timezone,Coord,distance_miles,market_total_population,market_id,market_center_lat,market_center_lng,radius_miles
19930,38.56311,-75.07085,Bethany Beach,DE,Delaware,True,,3077.0,202.8,10005,Sussex,"{""10005"": 100}",Sussex,10005,False,False,America/New_York,"(38.56311, -75.07085)",98.97580328766051,5335038.0,72_0_no,37.32000446520205,-75.97352897179076,100.0
19931,38.56928,-75.61029,Bethel,DE,Delaware,True,,416.0,134.6,10005,Sussex,"{""10005"": 100}",Sussex,10005,False,False,America/New_York,"(38.56928, -75.61029)",88.55649662558648,5335038.0,72_0_no,37.32000446520205,-75.97352897179076,100.0
19933,38.73699,-75.60586,Bridgeville,DE,Delaware,True,,11457.0,65.8,10005,Sussex,"{""10005"": 100}",Sussex,10005,False,False,America/New_York,"(38.73699, -75.60586)",99.9281072250935,5335038.0,72_0_no,37.32000446520205,-75.97352897179076,100.0
19939,38.56575,-75.2022,Dagsboro,DE,Delaware,True,,7302.0,108.6,10005,Sussex,"{""10005"": 100}",Sussex,10005,False,False,America/New_York,"(38.56575, -75.2022)",95.78485652263772,5335038.0,72_0_no,37.32000446520205,-75.97352897179076,100.0
19940,38.47723,-75.56828,Delmar,DE,Delaware,True,,6560.0,61.3,10005,Sussex,"{""10005"": 100}",Sussex,10005,False,False,America/New_York,"(38.47723, -75.56828)",82.95300760125797,5335038.0,72_0_no,37.32000446520205,-75.97352897179076,100.0
19944,38.47542,-75.05559,Fenwick Island,DE,Delaware,True,,746.0,231.8,10005,Sussex,"{""10005"": 100}",Sussex,10005,False,False,America/New_York,"(38.47542, -75.05559)",94.22120314349327,5335038.0,72_0_no,37.32000446520205,-75.97352897179076,100.0
19945,38.50336,-75.22855,Frankford,DE,Delaware,True,,6432.0,39.8,10005,Sussex,"{""10005"": 100}",Sussex,10005,False,False,America/New_York,"(38.50336, -75.22855)",91.29102496320401,5335038.0,72_0_no,37.32000446520205,-75.97352897179076,100.0
19947,38.67421,-75.39864,Georgetown,DE,Delaware,True,,20033.0,64.9,10005,Sussex,"{""10005"": 100}",Sussex,10005,False,False,America/New_York,"(38.67421, -75.39864)",98.66305695961498,5335038.0,72_0_no,37.32000446520205,-75.97352897179076,100.0
19951,38.68763,-75.25124,Harbeson,DE,Delaware,True,,2046.0,88.4,10005,Sussex,"{""10005"": 100}",Sussex,10005,False,False,America/New_York,"(38.68763, -75.25124)",102.34871540864442,5335038.0,72_0_no,37.32000446520205,-75.97352897179076,100.0
19956,38.5465,-75.53961,Laurel,DE,Delaware,True,,14557.0,56.0,10005,Sussex,"{""10005"": 100}",Sussex,10005,False,False,America/New_York,"(38.5465, -75.53961)",87.97980820846773,5335038.0,72_0_no,37.32000446520205,-75.97352897179076,100.0
19958,38.72737,-75.16632,Lewes,DE,Delaware,True,,27123.0,221.5,10005,Sussex,"{""10005"": 100}",Sussex,10005,False,False,America/New_York,"(38.72737, -75.16632)",106.70327896761066,5335038.0,72_0_no,37.32000446520205,-75.97352897179076,100.0
19966,38.58118,-75.28274,Millsboro,DE,Delaware,True,,30601.0,132.6,10005,Sussex,"{""10005"": 100}",Sussex,10005,False,False,America/New_York,"(38.58118, -75.28274)",94.91845826793048,5335038.0,72_0_no,37.32000446520205,-75.97352897179076,100.0
19967,38.53978,-75.1209,Millville,DE,Delaware,True,,1005.0,238.4,10005,Sussex,"{""10005"": 100}",Sussex,10005,False,False,America/New_York,"(38.53978, -75.1209)",96.23817067766828,5335038.0,72_0_no,37.32000446520205,-75.97352897179076,100.0
19970,38.55504,-75.09901,Ocean View,DE,Delaware,True,,8770.0,363.1,10005,Sussex,"{""10005"": 100}",Sussex,10005,False,False,America/New_York,"(38.55504, -75.09901)",97.73646665979733,5335038.0,72_0_no,37.32000446520205,-75.97352897179076,100.0
19971,38.69113,-75.10132,Rehoboth Beach,DE,Delaware,True,,13922.0,299.3,10005,Sussex,"{""10005"": 100}",Sussex,10005,False,False,America/New_York,"(38.69113, -75.10132)",105.96870341992074,5335038.0,72_0_no,37.32000446520205,-75.97352897179076,100.0
19973,38.63404,-75.62454,Seaford,DE,Delaware,True,,25991.0,119.5,10005,Sussex,"{""10005"": 92.75, ""24019"": 7.25}",Sussex|Dorchester,10005|24019,False,False,America/New_York,"(38.63404, -75.62454)",92.75920007201607,5335038.0,72_0_no,37.32000446520205,-75.97352897179076,100.0
19975,38.46862,-75.17462,Selbyville,DE,Delaware,True,,9336.0,141.2,10005,Sussex,"{""10005"": 100}",Sussex,10005,False,False,America/New_York,"(38.46862, -75.17462)",90.52955322057606,5335038.0,72_0_no,37.32000446520205,-75.97352897179076,100.0
20110,38.7464,-77.48699,Manassas,VA,Virginia,True,,48035.0,1444.8,51683,Manassas,"{""51683"": 76.78, ""51153"": 23.22}",Manassas|Prince William,51683|51153,False,False,America/New_York,"(38.7464, -77.48699)",128.43623954902722,5335038.0,72_0_no,37.32000446520205,-75.97352897179076,100.0
20111,38.74907,-77.43039,Manassas,VA,Virginia,True,,36264.0,853.5,51153,Prince William,"{""51153"": 81.96, ""51685"": 18.04}",Prince William|Manassas Park,51153|51685,False,False,America/New_York,"(38.74907, -77.43039)",126.62622350122238,5335038.0,72_0_no,37.32000446520205,-75.97352897179076,100.0
20112,38.67274,-77.42901,Manassas,VA,Virginia,True,,25990.0,296.1,51153,Prince William,"{""51153"": 100}",Prince William,51153,False,False,America/New_York,"(38.67274, -77.42901)",122.53680308632231,5335038.0,72_0_no,37.32000446520205,-75.97352897179076,100.0
20119,38.62159,-77.62819,Catlett,VA,Virginia,True,,4288.0,25.5,51061,Fauquier,"{""51061"": 99.02, ""51153"": 0.98}",Fauquier|Prince William,51061|51153,False,False,America/New_York,"(38.62159, -77.62819)",127.31496937708023,5335038.0,72_0_no,37.32000446520205,-75.97352897179076,100.0
20136,38.7374,-77.55473,Bristow,VA,Virginia,True,,32135.0,896.8,51153,Prince William,"{""51153"": 100}",Prince William,51153,False,False,America/New_York,"(38.7374, -77.55473)",130.36625548049417,5335038.0,72_0_no,37.32000446520205,-75.97352897179076,100.0
20181,38.66687,-77.55374,Nokesville,VA,Virginia,True,,8526.0,42.3,51153,Prince William,"{""51153"": 93.57, ""51061"": 6.43}",Prince William|Fauquier,51153|51061,False,False,America/New_York,"(38.66687, -77.55374)",126.73823599256605,5335038.0,72_0_no,37.32000446520205,-75.97352897179076,100.0
20187,38.71846,-77.74275,Warrenton,VA,Virginia,True,,18684.0,141.3,51061,Fauquier,"{""51061"": 100}",Fauquier,51061,False,False,America/New_York,"(38.71846, -77.74275)",136.4139815601331,5335038.0,72_0_no,37.32000446520205,-75.97352897179076,100.0
20601,38.61863,-76.85715,Waldorf,MD,Maryland,True,,26236.0,211.8,24017,Charles,"{""24017"": 83.95, ""24033"": 16.05}",Charles|Prince George's,24017|24033,False,False,America/New_York,"(38.61863, -76.85715)",101.81869460286647,5335038.0,72_0_no,37.32000446520205,-75.97352897179076,100.0
20602,38.58335,-76.89466,Waldorf,MD,Maryland,True,,26835.0,715.7,24017,Charles,"{""24017"": 100}",Charles,24017,False,False,America/New_York,"(38.58335, -76.89466)",100.68563367104099,5335038.0,72_0_no,37.32000446520205,-75.97352897179076,100.0
20603,38.62972,-76.97473,Waldorf,MD,Maryland,True,,32726.0,780.1,24017,Charles,"{""24017"": 100}",Charles,24017,False,False,America/New_York,"(38.62972, -76.97473)",105.65086842480792,5335038.0,72_0_no,37.32000446520205,-75.97352897179076,100.0
20606,38.25412,-76.73878,Abell,MD,Maryland,True,,314.0,133.2,24037,St. Mary's,"{""24037"": 100}",St. Mary's,24037,False,False,America/New_York,"(38.25412, -76.73878)",76.8863313254665,5335038.0,72_0_no,37.32000446520205,-75.97352897179076,100.0
20607,38.67161,-77.02478,Accokeek,MD,Maryland,True,,10755.0,211.5,24033,Prince George's,"{""24033"": 96.39, ""24017"": 3.61}",Prince George's|Charles,24033|24017,False,False,America/New_York,"(38.67161, -77.02478)",109.53127546779864,5335038.0,72_0_no,37.32000446520205,-75.97352897179076,100.0
20608,38.58638,-76.70702,Aquasco,MD,Maryland,True,,739.0,16.1,24033,Prince George's,"{""24033"": 100}",Prince George's,24033,False,False,America/New_York,"(38.58638, -76.70702)",96.19074055478758,5335038.0,72_0_no,37.32000446520205,-75.97352897179076,100.0
20609,38.27191,-76.74625,Avenue,MD,Maryland,True,,1211.0,46.7,24037,St. Mary's,"{""24037"": 100}",St. Mary's,24037,False,False,America/New_York,"(38.27191, -76.74625)",78.13771558138704,5335038.0,72_0_no,37.32000446520205,-75.97352897179076,100.0
20611,38.46251,-76.98538,Bel Alton,MD,Maryland,True,,1354.0,62.9,24017,Charles,"{""24017"": 100}",Charles,24017,False,False,America/New_York,"(38.46251, -76.98538)",96.30799523140819,5335038.0,72_0_no,37.32000446520205,-75.97352897179076,100.0
20612,38.50708,-76.67789,Benedict,MD,Maryland,True,,181.0,299.3,24017,Charles,"{""24017"": 100}",Charles,24017,False,False,America/New_York,"(38.50708, -76.67789)",90.56025025918369,5335038.0,72_0_no,37.32000446520205,-75.97352897179076,100.0
20613,38.67179,-76.80576,Brandywine,MD,Maryland,True,,13240.0,70.6,24033,Prince George's,"{""24033"": 91.87, ""24017"": 8.13}",Prince George's|Charles,24033|24017,False,False,America/New_York,"(38.67179, -76.80576)",103.81032078902864,5335038.0,72_0_no,37.32000446520205,-75.97352897179076,100.0
20615,38.4204,-76.54772,Broomes Island,MD,Maryland,True,,513.0,272.4,24009,Calvert,"{""24009"": 100}",Calvert,24009,False,False,America/New_York,"(38.4204, -76.54772)",82.2270945958089,5335038.0,72_0_no,37.32000446520205,-75.97352897179076,100.0
20616,38.65443,-77.08848,Bryans Road,MD,Maryland,True,,6728.0,268.1,24017,Charles,"{""24017"": 100}",Charles,24017,False,False,America/New_York,"(38.65443, -77.08848)",110.39344574980933,5335038.0,72_0_no,37.32000446520205,-75.97352897179076,100.0
20617,38.54351,-76.854,Bryantown,MD,Maryland,True,,715.0,46.0,24017,Charles,"{""24017"": 100}",Charles,24017,False,False,America/New_York,"(38.54351, -76.854)",97.20324870656815,5335038.0,72_0_no,37.32000446520205,-75.97352897179076,100.0
20618,38.28152,-76.78891,Bushwood,MD,Maryland,True,,402.0,20.5,24037,St. Mary's,"{""24037"": 100}",St. Mary's,24037,False,False,America/New_York,"(38.28152, -76.78891)",79.96849076045139,5335038.0,72_0_no,37.32000446520205,-75.97352897179076,100.0
20619,38.2919,-76.52714,California,MD,Maryland,True,,13845.0,332.8,24037,St. Mary's,"{""24037"": 100}",St. Mary's,24037,False,False,America/New_York,"(38.2919, -76.52714)",73.63845272088052,5335038.0,72_0_no,37.32000446520205,-75.97352897179076,100.0
20620,38.23288,-76.52196,Callaway,MD,Maryland,True,,1688.0,152.1,24037,St. Mary's,"{""24037"": 100}",St. Mary's,24037,False,False,America/New_York,"(38.23288, -76.52196)",69.82327338137661,5335038.0,72_0_no,37.32000446520205,-75.97352897179076,100.0
20621,38.33062,-76.79438,Chaptico,MD,Maryland,True,,1277.0,35.6,24037,St. Mary's,"{""24037"": 100}",St. Mary's,24037,False,False,America/New_York,"(38.33062, -76.79438)",82.96112951365765,5335038.0,72_0_no,37.32000446520205,-75.97352897179076,100.0
20622,38.45281,-76.84504,Charlotte Hall,MD,Maryland,True,,6692.0,70.7,24017,Charles,"{""24017"": 83.11, ""24037"": 16.89}",Charles|St. Mary's,24017|24037,False,False,America/New_York,"(38.45281, -76.84504)",91.56641125585466,5335038.0,72_0_no,37.32000446520205,-75.97352897179076,100.0
20623,38.7423,-76.83747,Cheltenham,MD,Maryland,True,,2619.0,527.1,24033,Prince George's,"{""24033"": 100}",Prince George's,24033,False,False,America/New_York,"(38.7423, -76.83747)",108.93868898151845,5335038.0,72_0_no,37.32000446520205,-75.97352897179076,100.0
20624,38.33523,-76.73451,Clements,MD,Maryland,True,,1242.0,46.1,24037,St. Mary's,"{""24037"": 100}",St. Mary's,24037,False,False,America/New_York,"(38.33523, -76.73451)",81.51668355836352,5335038.0,72_0_no,37.32000446520205,-75.97352897179076,100.0
20625,38.26212,-76.84877,Cobb Island,MD,Maryland,True,,929.0,732.9,24017,Charles,"{""24017"": 100}",Charles,24017,False,False,America/New_York,"(38.26212, -76.84877)",80.75188776073112,5335038.0,72_0_no,37.32000446520205,-75.97352897179076,100.0
20626,38.23256,-76.76404,Coltons Point,MD,Maryland,True,,278.0,70.2,24037,St. Mary's,"{""24037"": 100}",St. Mary's,24037,False,False,America/New_York,"(38.23256, -76.76404)",76.41434263422678,5335038.0,72_0_no,37.32000446520205,-75.97352897179076,100.0
20628,38.1459,-76.35027,Dameron,MD,Maryland,True,,452.0,26.9,24037,St. Mary's,"{""24037"": 100}",St. Mary's,24037,False,False,America/New_York,"(38.1459, -76.35027)",60.66368713988734,5335038.0,72_0_no,37.32000446520205,-75.97352897179076,100.0
20629,38.33996,-76.45388,Dowell,MD,Maryland,True,,525.0,241.6,24009,Calvert,"{""24009"": 100}",Calvert,24009,False,False,America/New_York,"(38.33996, -76.45388)",75.18941543548917,5335038.0,72_0_no,37.32000446520205,-75.97352897179076,100.0
20630,38.16653,-76.47087,Drayden,MD,Maryland,True,,192.0,10.7,24037,St. Mary's,"{""24037"": 100}",St. Mary's,24037,False,False,America/New_York,"(38.16653, -76.47087)",64.49288477812746,5335038.0,72_0_no,37.32000446520205,-75.97352897179076,100.0
20632,38.42591,-76.95682,Faulkner,MD,Maryland,True,,314.0,18.5,24017,Charles,"{""24017"": 100}",Charles,24017,False,False,America/New_York,"(38.42591, -76.95682)",93.35108787056106,5335038.0,72_0_no,37.32000446520205,-75.97352897179076,100.0
20634,38.24582,-76.49412,Great Mills,MD,Maryland,True,,6961.0,384.4,24037,St. Mary's,"{""24037"": 100}",St. Mary's,24037,False,False,America/New_York,"(38.24582, -76.49412)",69.99981031326132,5335038.0,72_0_no,37.32000446520205,-75.97352897179076,100.0
20636,38.35582,-76.57212,Hollywood,MD,Maryland,True,,11295.0,126.9,24037,St. Mary's,"{""24037"": 100}",St. Mary's,24037,False,False,America/New_York,"(38.35582, -76.57212)",78.66873855160806,5335038.0,72_0_no,37.32000446520205,-75.97352897179076,100.0
20637,38.52577,-76.77897,Hughesville,MD,Maryland,True,,5288.0,62.4,24017,Charles,"{""24017"": 100}",Charles,24017,False,False,America/New_York,"(38.52577, -76.77897)",94.16781925779686,5335038.0,72_0_no,37.32000446520205,-75.97352897179076,100.0
20639,38.60823,-76.6086,Huntingtown,MD,Maryland,True,,15216.0,141.2,24009,Calvert,"{""24009"": 100}",Calvert,24009,False,False,America/New_York,"(38.60823, -76.6086)",95.49356036076253,5335038.0,72_0_no,37.32000446520205,-75.97352897179076,100.0
20640,38.55408,-77.1657,Indian Head,MD,Maryland,True,,11113.0,102.8,24017,Charles,"{""24017"": 100}",Charles,24017,False,False,America/New_York,"(38.55408, -77.1657)",107.19289079392111,5335038.0,72_0_no,37.32000446520205,-75.97352897179076,100.0
20645,38.29838,-76.91413,Issue,MD,Maryland,True,,653.0,183.1,24017,Charles,"{""24017"": 100}",Charles,24017,False,False,America/New_York,"(38.29838, -76.91413)",84.88698814413601,5335038.0,72_0_no,37.32000446520205,-75.97352897179076,100.0
20646,38.52114,-76.99989,La Plata,MD,Maryland,True,,22583.0,109.3,24017,Charles,"{""24017"": 100}",Charles,24017,False,False,America/New_York,"(38.52114, -76.99989)",100.08294380689759,5335038.0,72_0_no,37.32000446520205,-75.97352897179076,100.0
20650,38.27186,-76.63276,Leonardtown,MD,Maryland,True,,14069.0,88.4,24037,St. Mary's,"{""24037"": 100}",St. Mary's,24037,False,False,America/New_York,"(38.27186, -76.63276)",74.97102421156458,5335038.0,72_0_no,37.32000446520205,-75.97352897179076,100.0
20653,38.22795,-76.43139,Lexington Park,MD,Maryland,True,,26112.0,303.8,24037,St. Mary's,"{""24037"": 100}",St. Mary's,24037,False,False,America/New_York,"(38.22795, -76.43139)",67.53276419299846,5335038.0,72_0_no,37.32000446520205,-75.97352897179076,100.0
20657,38.38358,-76.44537,Lusby,MD,Maryland,True,,19711.0,254.8,24009,Calvert,"{""24009"": 100}",Calvert,24009,False,False,America/New_York,"(38.38358, -76.44537)",77.86392499739371,5335038.0,72_0_no,37.32000446520205,-75.97352897179076,100.0
20658,38.56973,-77.15958,Marbury,MD,Maryland,True,,858.0,75.9,24017,Charles,"{""24017"": 100}",Charles,24017,False,False,America/New_York,"(38.56973, -77.15958)",107.85067926843043,5335038.0,72_0_no,37.32000446520205,-75.97352897179076,100.0
20659,38.41886,-76.73238,Mechanicsville,MD,Maryland,True,,23030.0,91.7,24037,St. Mary's,"{""24037"": 96.01, ""24017"": 3.99}",St. Mary's|Charles,24037|24017,False,False,America/New_York,"(38.41886, -76.73238)",86.471911946369,5335038.0,72_0_no,37.32000446520205,-75.97352897179076,100.0
20662,38.43359,-77.19972,Nanjemoy,MD,Maryland,True,,2333.0,16.0,24017,Charles,"{""24017"": 100}",Charles,24017,False,False,America/New_York,"(38.43359, -77.19972)",101.93923162585332,5335038.0,72_0_no,37.32000446520205,-75.97352897179076,100.0
20664,38.35062,-76.91631,Newburg,MD,Maryland,True,,3285.0,31.0,24017,Charles,"{""24017"": 100}",Charles,24017,False,False,America/New_York,"(38.35062, -76.91631)",87.84736571216878,5335038.0,72_0_no,37.32000446520205,-75.97352897179076,100.0
20667,38.21782,-76.44537,Park Hall,MD,Maryland,True,,868.0,140.4,24037,St. Mary's,"{""24037"": 100}",St. Mary's,24037,False,False,America/New_York,"(38.21782, -76.44537)",67.17294163940055,5335038.0,72_0_no,37.32000446520205,-75.97352897179076,100.0
20670,38.2824,-76.42031,Patuxent River,MD,Maryland,True,,1620.0,66.9,24037,St. Mary's,"{""24037"": 100}",St. Mary's,24037,False,False,America/New_York,"(38.2824, -76.42031)",70.82733313481992,5335038.0,72_0_no,37.32000446520205,-75.97352897179076,100.0
20674,38.13307,-76.50019,Piney Point,MD,Maryland,True,,1082.0,225.0,24037,St. Mary's,"{""24037"": 100}",St. Mary's,24037,False,False,America/New_York,"(38.13307, -76.50019)",63.12080035958836,5335038.0,72_0_no,37.32000446520205,-75.97352897179076,100.0
20675,38.58349,-77.01522,Pomfret,MD,Maryland,True,,1662.0,90.1,24017,Charles,"{""24017"": 100}",Charles,24017,False,False,America/New_York,"(38.58349, -77.01522)",104.12300797942024,5335038.0,72_0_no,37.32000446520205,-75.97352897179076,100.0
20676,38.4869,-76.54788,Port Republic,MD,Maryland,True,,3631.0,97.2,24009,Calvert,"{""24009"": 100}",Calvert,24009,False,False,America/New_York,"(38.4869, -76.54788)",86.49120987669568,5335038.0,72_0_no,37.32000446520205,-75.97352897179076,100.0
20677,38.49992,-77.04016,Port Tobacco,MD,Maryland,True,,2215.0,54.7,24017,Charles,"{""24017"": 100}",Charles,24017,False,False,America/New_York,"(38.49992, -77.04016)",100.1336192084275,5335038.0,72_0_no,37.32000446520205,-75.97352897179076,100.0
20678,38.52164,-76.60072,Prince Frederick,MD,Maryland,True,,12418.0,106.8,24009,Calvert,"{""24009"": 100}",Calvert,24009,False,False,America/New_York,"(38.52164, -76.60072)",89.78677237870949,5335038.0,72_0_no,37.32000446520205,-75.97352897179076,100.0
20680,38.11071,-76.37353,Ridge,MD,Maryland,True,,649.0,31.8,24037,St. Mary's,"{""24037"": 100}",St. Mary's,24037,False,False,America/New_York,"(38.11071, -76.37353)",58.84452529997752,5335038.0,72_0_no,37.32000446520205,-75.97352897179076,100.0
20684,38.14308,-76.41027,Saint Inigoes,MD,Maryland,True,,784.0,36.3,24037,St. Mary's,"{""24037"": 100}",St. Mary's,24037,False,False,America/New_York,"(38.14308, -76.41027)",61.673658656112686,5335038.0,72_0_no,37.32000446520205,-75.97352897179076,100.0
20685,38.43465,-76.52904,Saint Leonard,MD,Maryland,True,,6732.0,113.5,24009,Calvert,"{""24009"": 100}",Calvert,24009,False,False,America/New_York,"(38.43465, -76.52904)",82.75885193327488,5335038.0,72_0_no,37.32000446520205,-75.97352897179076,100.0
20686,38.18557,-76.43898,Saint Marys City,MD,Maryland,True,,1639.0,2334.7,24037,St. Mary's,"{""24037"": 100}",St. Mary's,24037,False,False,America/New_York,"(38.18557, -76.43898)",64.98566007045231,5335038.0,72_0_no,37.32000446520205,-75.97352897179076,100.0
20687,38.07578,-76.34382,Scotland,MD,Maryland,True,,429.0,33.2,24037,St. Mary's,"{""24037"": 100}",St. Mary's,24037,False,False,America/New_York,"(38.07578, -76.34382)",56.00561745079818,5335038.0,72_0_no,37.32000446520205,-75.97352897179076,100.0
20688,38.33475,-76.46965,Solomons,MD,Maryland,True,,1945.0,652.1,24009,Calvert,"{""24009"": 100}",Calvert,24009,False,False,America/New_York,"(38.33475, -76.46965)",75.15816689580298,5335038.0,72_0_no,37.32000446520205,-75.97352897179076,100.0
20689,38.66963,-76.58591,Sunderland,MD,Maryland,True,,2386.0,119.5,24009,Calvert,"{""24009"": 100}",Calvert,24009,False,False,America/New_York,"(38.66963, -76.58591)",99.03180653128454,5335038.0,72_0_no,37.32000446520205,-75.97352897179076,100.0
20690,38.15916,-76.52631,Tall Timbers,MD,Maryland,True,,950.0,219.9,24037,St. Mary's,"{""24037"": 100}",St. Mary's,24037,False,False,America/New_York,"(38.15916, -76.52631)",65.37504650351913,5335038.0,72_0_no,37.32000446520205,-75.97352897179076,100.0
20692,38.18352,-76.50682,Valley Lee,MD,Maryland,True,,684.0,36.7,24037,St. Mary's,"{""24037"": 100}",St. Mary's,24037,False,False,America/New_York,"(38.18352, -76.50682)",66.39601911024202,5335038.0,72_0_no,37.32000446520205,-75.97352897179076,100.0
20693,38.45924,-77.08931,Welcome,MD,Maryland,True,,1171.0,22.4,24017,Charles,"{""24017"": 100}",Charles,24017,False,False,America/New_York,"(38.45924, -77.08931)",99.48441040643235,5335038.0,72_0_no,37.32000446520205,-75.97352897179076,100.0
20695,38.58885,-76.97269,White Plains,MD,Maryland,True,,8400.0,225.4,24017,Charles,"{""24017"": 100}",Charles,24017,False,False,America/New_York,"(38.58885, -76.97269)",103.19192083071148,5335038.0,72_0_no,37.32000446520205,-75.97352897179076,100.0
20714,38.71813,-76.53987,North Beach,MD,Maryland,True,,5331.0,1446.7,24003,Anne Arundel,"{""24003"": 64.4, ""24009"": 35.6}",Anne Arundel|Calvert,24003|24009,False,False,America/New_York,"(38.71813, -76.53987)",101.40012282502204,5335038.0,72_0_no,37.32000446520205,-75.97352897179076,100.0
20732,38.65573,-76.54292,Chesapeake Beach,MD,Maryland,True,,10295.0,356.5,24009,Calvert,"{""24009"": 100}",Calvert,24009,False,False,America/New_York,"(38.65573, -76.54292)",97.35854181222129,5335038.0,72_0_no,37.32000446520205,-75.97352897179076,100.0
20735,38.75034,-76.90566,Clinton,MD,Maryland,True,,37009.0,551.2,24033,Prince George's,"{""24033"": 100}",Prince George's,24033,False,False,America/New_York,"(38.75034, -76.90566)",111.08347083329359,5335038.0,72_0_no,37.32000446520205,-75.97352897179076,100.0
20736,38.6913,-76.62855,Owings,MD,Maryland,True,,8715.0,136.0,24009,Calvert,"{""24009"": 97.14, ""24003"": 2.86}",Calvert|Anne Arundel,24009|24003,False,False,America/New_York,"(38.6913, -76.62855)",101.23537330333193,5335038.0,72_0_no,37.32000446520205,-75.97352897179076,100.0
20744,38.75362,-76.98393,Fort Washington,MD,Maryland,True,,54572.0,807.6,24033,Prince George's,"{""24033"": 100}",Prince George's,24033,False,False,America/New_York,"(38.75362, -76.98393)",113.28924100573771,5335038.0,72_0_no,37.32000446520205,-75.97352897179076,100.0
20754,38.736,-76.65493,Dunkirk,MD,Maryland,True,,6950.0,167.4,24009,Calvert,"{""24009"": 83.86, ""24003"": 16.14}",Calvert|Anne Arundel,24009|24003,False,False,America/New_York,"(38.736, -76.65493)",104.62799409235402,5335038.0,72_0_no,37.32000446520205,-75.97352897179076,100.0
20758,38.73399,-76.58961,Friendship,MD,Maryland,True,,486.0,38.6,24003,Anne Arundel,"{""24003"": 97.47, ""24009"": 2.53}",Anne Arundel|Calvert,24003|24009,False,False,America/New_York,"(38.73399, -76.58961)",103.29029718581091,5335038.0,72_0_no,37.32000446520205,-75.97352897179076,100.0
20779,38.76388,-76.57665,Tracys Landing,MD,Maryland,True,,956.0,54.1,24003,Anne Arundel,"{""24003"": 100}",Anne Arundel,24003,False,False,America/New_York,"(38.76388, -76.57665)",105.02111302997757,5335038.0,72_0_no,37.32000446520205,-75.97352897179076,100.0
21612,38.74928,-76.27695,Bozman,MD,Maryland,True,,597.0,41.6,24041,Talbot,"{""24041"": 100}",Talbot,24041,False,False,America/New_York,"(38.74928, -76.27695)",100.12431343284382,5335038.0,72_0_no,37.32000446520205,-75.97352897179076,100.0
21613,38.49537,-76.07169,Cambridge,MD,Maryland,True,,17115.0,43.0,24019,Dorchester,"{""24019"": 100}",Dorchester,24019,False,False,America/New_York,"(38.49537, -76.07169)",81.38612125712616,5335038.0,72_0_no,37.32000446520205,-75.97352897179076,100.0
21622,38.40821,-76.17381,Church Creek,MD,Maryland,True,,704.0,4.2,24019,Dorchester,"{""24019"": 100}",Dorchester,24019,False,False,America/New_York,"(38.40821, -76.17381)",75.97730853843355,5335038.0,72_0_no,37.32000446520205,-75.97352897179076,100.0
21626,38.33902,-76.08398,Crapo,MD,Maryland,True,,47.0,0.7,24019,Dorchester,"{""24019"": 100}",Dorchester,24019,False,False,America/New_York,"(38.33902, -76.08398)",70.66479091361106,5335038.0,72_0_no,37.32000446520205,-75.97352897179076,100.0
21627,38.23528,-76.04967,Crocheron,MD,Maryland,True,,4.0,0.9,24019,Dorchester,"{""24019"": 100}",Dorchester,24019,False,False,America/New_York,"(38.23528, -76.04967)",63.37606396439769,5335038.0,72_0_no,37.32000446520205,-75.97352897179076,100.0
21631,38.58784,-75.94598,East New Market,MD,Maryland,True,,2708.0,43.3,24019,Dorchester,"{""24019"": 100}",Dorchester,24019,False,False,America/New_York,"(38.58784, -75.94598)",87.61194711020046,5335038.0,72_0_no,37.32000446520205,-75.97352897179076,100.0
21632,38.72287,-75.77478,Federalsburg,MD,Maryland,True,,5885.0,29.2,24011,Caroline,"{""24011"": 79.6, ""24019"": 20.4}",Caroline|Dorchester,24011|24019,False,False,America/New_York,"(38.72287, -75.77478)",97.53050815215545,5335038.0,72_0_no,37.32000446520205,-75.97352897179076,100.0
21634,38.27995,-76.185,Fishing Creek,MD,Maryland,True,,243.0,20.8,24019,Dorchester,"{""24019"": 100}",Dorchester,24019,False,False,America/New_York,"(38.27995, -76.185)",67.32317191068456,5335038.0,72_0_no,37.32000446520205,-75.97352897179076,100.0
21643,38.6442,-75.87124,Hurlock,MD,Maryland,True,,5956.0,49.8,24019,Dorchester,"{""24019"": 100}",Dorchester,24019,False,False,America/New_York,"(38.6442, -75.87124)",91.66260407288927,5335038.0,72_0_no,37.32000446520205,-75.97352897179076,100.0
21648,38.4966,-76.23386,Madison,MD,Maryland,True,,126.0,5.2,24019,Dorchester,"{""24019"": 100}",Dorchester,24019,False,False,America/New_York,"(38.4966, -76.23386)",82.5243293511276,5335038.0,72_0_no,37.32000446520205,-75.97352897179076,100.0
21652,38.72028,-76.28108,Neavitt,MD,Maryland,True,,149.0,110.0,24041,Talbot,"{""24041"": 100}",Talbot,24041,False,False,America/New_York,"(38.72028, -76.28108)",98.18722317674495,5335038.0,72_0_no,37.32000446520205,-75.97352897179076,100.0
21653,38.74704,-76.17744,Newcomb,MD,Maryland,True,,96.0,200.6,24041,Talbot,"{""24041"": 100}",Talbot,24041,False,False,America/New_York,"(38.74704, -76.17744)",99.2211903121527,5335038.0,72_0_no,37.32000446520205,-75.97352897179076,100.0
21654,38.6908,-76.12518,Oxford,MD,Maryland,True,,1221.0,42.5,24041,Talbot,"{""24041"": 100}",Talbot,24041,False,False,America/New_York,"(38.6908, -76.12518)",95.07207360642397,5335038.0,72_0_no,37.32000446520205,-75.97352897179076,100.0
21655,38.74601,-75.92103,Preston,MD,Maryland,True,,4763.0,34.9,24011,Caroline,"{""24011"": 100}",Caroline,24011,False,False,America/New_York,"(38.74601, -75.92103)",98.56900790249236,5335038.0,72_0_no,37.32000446520205,-75.97352897179076,100.0
21659,38.57442,-75.79985,Rhodesdale,MD,Maryland,True,,1509.0,13.3,24019,Dorchester,"{""24019"": 100}",Dorchester,24019,False,False,America/New_York,"(38.57442, -75.79985)",87.1868627880097,5335038.0,72_0_no,37.32000446520205,-75.97352897179076,100.0
21662,38.7136,-76.20209,Royal Oak,MD,Maryland,True,,369.0,17.0,24041,Talbot,"{""24041"": 100}",Talbot,24041,False,False,America/New_York,"(38.7136, -76.20209)",97.08862558176627,5335038.0,72_0_no,37.32000446520205,-75.97352897179076,100.0
21664,38.6081,-75.94732,Secretary,MD,Maryland,True,,497.0,658.8,24019,Dorchester,"{""24019"": 100}",Dorchester,24019,False,False,America/New_York,"(38.6081, -75.94732)",89.01037350986886,5335038.0,72_0_no,37.32000446520205,-75.97352897179076,100.0
21665,38.75158,-76.34469,Sherwood,MD,Maryland,True,,194.0,14.2,24041,Talbot,"{""24041"": 100}",Talbot,24041,False,False,America/New_York,"(38.75158, -76.34469)",100.95341025568578,5335038.0,72_0_no,37.32000446520205,-75.97352897179076,100.0
21669,38.45897,-76.28509,Taylors Island,MD,Maryland,True,,114.0,3.0,24019,Dorchester,"{""24019"": 100}",Dorchester,24019,False,False,America/New_York,"(38.45897, -76.28509)",80.50777679410717,5335038.0,72_0_no,37.32000446520205,-75.97352897179076,100.0
21671,38.69658,-76.33562,Tilghman,MD,Maryland,True,,808.0,147.6,24041,Talbot,"{""24041"": 100}",Talbot,24041,False,False,America/New_York,"(38.69658, -76.33562)",97.13327548268204,5335038.0,72_0_no,37.32000446520205,-75.97352897179076,100.0
21672,38.27707,-76.06148,Toddville,MD,Maryland,True,,149.0,5.9,24019,Dorchester,"{""24019"": 100}",Dorchester,24019,False,False,America/New_York,"(38.27707, -76.06148)",66.30102606552016,5335038.0,72_0_no,37.32000446520205,-75.97352897179076,100.0
21673,38.65235,-76.04163,Trappe,MD,Maryland,True,,3019.0,22.5,24041,Talbot,"{""24041"": 100}",Talbot,24041,False,False,America/New_York,"(38.65235, -76.04163)",92.13096924243361,5335038.0,72_0_no,37.32000446520205,-75.97352897179076,100.0
21675,38.29011,-76.0884,Wingate,MD,Maryland,True,,57.0,7.8,24019,Dorchester,"{""24019"": 100}",Dorchester,24019,False,False,America/New_York,"(38.29011, -76.0884)",67.32059119322287,5335038.0,72_0_no,37.32000446520205,-75.97352897179076,100.0
21677,38.48454,-76.18544,Woolford,MD,Maryland,True,,579.0,17.1,24019,Dorchester,"{""24019"": 100}",Dorchester,24019,False,False,America/New_York,"(38.48454, -76.18544)",81.28686211305931,5335038.0,72_0_no,37.32000446520205,-75.97352897179076,100.0
21801,38.38106,-75.64073,Salisbury,MD,Maryland,True,,30122.0,289.9,24045,Wicomico,"{""24045"": 100}",Wicomico,24045,False,False,America/New_York,"(38.38106, -75.64073)",75.52666113916183,5335038.0,72_0_no,37.32000446520205,-75.97352897179076,100.0
21804,38.31726,-75.53673,Salisbury,MD,Maryland,True,,39842.0,224.3,24045,Wicomico,"{""24045"": 77.67, ""24047"": 22.33}",Wicomico|Worcester,24045|24047,False,False,America/New_York,"(38.31726, -75.53673)",72.91142429017933,5335038.0,72_0_no,37.32000446520205,-75.97352897179076,100.0
21810,38.29005,-75.68887,Allen,MD,Maryland,True,,656.0,533.7,24045,Wicomico,"{""24045"": 97.55, ""24039"": 2.45}",Wicomico|Somerset,24045|24039,False,False,America/New_York,"(38.29005, -75.68887)",68.80154438540784,5335038.0,72_0_no,37.32000446520205,-75.97352897179076,100.0
21811,38.31977,-75.22024,Berlin,MD,Maryland,True,,24356.0,92.6,24047,Worcester,"{""24047"": 100}",Worcester,24047,False,False,America/New_York,"(38.31977, -75.22024)",80.38609264737514,5335038.0,72_0_no,37.32000446520205,-75.97352897179076,100.0
21813,38.42658,-75.17293,Bishopville,MD,Maryland,True,,2636.0,37.1,24047,Worcester,"{""24047"": 100}",Worcester,24047,False,False,America/New_York,"(38.42658, -75.17293)",88.04618991293448,5335038.0,72_0_no,37.32000446520205,-75.97352897179076,100.0
21814,38.29176,-75.88669,Bivalve,MD,Maryland,True,,274.0,29.7,24045,Wicomico,"{""24045"": 100}",Wicomico,24045,False,False,America/New_York,"(38.29176, -75.88669)",67.3090463870019,5335038.0,72_0_no,37.32000446520205,-75.97352897179076,100.0
21817,37.98081,-75.83537,Crisfield,MD,Maryland,True,,4247.0,113.4,24039,Somerset,"{""24039"": 100}",Somerset,24039,False,False,America/New_York,"(37.98081, -75.83537)",46.27862844493486,5335038.0,72_0_no,37.32000446520205,-75.97352897179076,100.0
21821,38.16664,-75.90611,Deal Island,MD,Maryland,True,,834.0,21.9,24039,Somerset,"{""24039"": 100}",Somerset,24039,False,False,America/New_York,"(38.16664, -75.90611)",58.61279822207354,5335038.0,72_0_no,37.32000446520205,-75.97352897179076,100.0
21822,38.28129,-75.65566,Eden,MD,Maryland,True,,1527.0,15.4,24045,Wicomico,"{""24045"": 50.96, ""24047"": 25.92, ""24039"": 23.12}",Wicomico|Worcester|Somerset,24045|24047|24039,False,False,America/New_York,"(38.28129, -75.65566)",68.64801675883797,5335038.0,72_0_no,37.32000446520205,-75.97352897179076,100.0
21824,37.97982,-76.02871,Ewell,MD,Maryland,True,,181.0,30.6,24039,Somerset,"{""24039"": 100}",Somerset,24039,False,False,America/New_York,"(37.97982, -76.02871)",45.68874091373971,5335038.0,72_0_no,37.32000446520205,-75.97352897179076,100.0
21826,38.32077,-75.62353,Fruitland,MD,Maryland,True,,5317.0,508.1,24045,Wicomico,"{""24045"": 100}",Wicomico,24045,False,False,America/New_York,"(38.32077, -75.62353)",71.73632979940588,5335038.0,72_0_no,37.32000446520205,-75.97352897179076,100.0
21829,38.09892,-75.38324,Girdletree,MD,Maryland,True,,397.0,9.1,24047,Worcester,"{""24047"": 100}",Worcester,24047,False,False,America/New_York,"(38.09892, -75.38324)",62.74883900107789,5335038.0,72_0_no,37.32000446520205,-75.97352897179076,100.0
21830,38.40202,-75.72841,Hebron,MD,Maryland,True,,4790.0,56.2,24045,Wicomico,"{""24045"": 100}",Wicomico,24045,False,False,America/New_York,"(38.40202, -75.72841)",75.94637194206258,5335038.0,72_0_no,37.32000446520205,-75.97352897179076,100.0
21835,38.53355,-75.93758,Linkwood,MD,Maryland,True,,207.0,7.5,24019,Dorchester,"{""24019"": 100}",Dorchester,24019,False,False,America/New_York,"(38.53355, -75.93758)",83.87089498644468,5335038.0,72_0_no,37.32000446520205,-75.97352897179076,100.0
21837,38.4594,-75.76731,Mardela Springs,MD,Maryland,True,,3322.0,29.2,24045,Wicomico,"{""24045"": 100}",Wicomico,24045,False,False,America/New_York,"(38.4594, -75.76731)",79.52368163022538,5335038.0,72_0_no,37.32000446520205,-75.97352897179076,100.0
21838,38.01452,-75.73098,Marion Station,MD,Maryland,True,,1805.0,12.7,24039,Somerset,"{""24039"": 100}",Somerset,24039,False,False,America/New_York,"(38.01452, -75.73098)",49.786240796142025,5335038.0,72_0_no,37.32000446520205,-75.97352897179076,100.0
21840,38.25814,-75.89276,Nanticoke,MD,Maryland,True,,353.0,25.9,24045,Wicomico,"{""24045"": 100}",Wicomico,24045,False,False,America/New_York,"(38.25814, -75.89276)",64.96884074048596,5335038.0,72_0_no,37.32000446520205,-75.97352897179076,100.0
21841,38.24385,-75.29588,Newark,MD,Maryland,True,,1455.0,19.9,24047,Worcester,"{""24047"": 100}",Worcester,24047,False,False,America/New_York,"(38.24385, -75.29588)",73.78182271382632,5335038.0,72_0_no,37.32000446520205,-75.97352897179076,100.0
21842,38.3778,-75.09084,Ocean City,MD,Maryland,True,,10525.0,443.6,24047,Worcester,"{""24047"": 100}",Worcester,24047,False,False,America/New_York,"(38.3778, -75.09084)",87.52521148931984,5335038.0,72_0_no,37.32000446520205,-75.97352897179076,100.0
21849,38.37006,-75.46064,Parsonsburg,MD,Maryland,True,,3659.0,38.3,24045,Wicomico,"{""24045"": 100}",Wicomico,24045,False,False,America/New_York,"(38.37006, -75.46064)",77.76126296864211,5335038.0,72_0_no,37.32000446520205,-75.97352897179076,100.0
21850,38.36171,-75.39867,Pittsville,MD,Maryland,True,,3442.0,47.3,24045,Wicomico,"{""24045"": 100}",Wicomico,24045,False,False,America/New_York,"(38.36171, -75.39867)",78.51239151308151,5335038.0,72_0_no,37.32000446520205,-75.97352897179076,100.0
21851,38.07825,-75.54375,Pocomoke City,MD,Maryland,True,,7237.0,27.0,24047,Worcester,"{""24047"": 80.33, ""24039"": 19.67}",Worcester|Somerset,24047|24039,False,False,America/New_York,"(38.07825, -75.54375)",57.41696136357715,5335038.0,72_0_no,37.32000446520205,-75.97352897179076,100.0
21853,38.20453,-75.7102,Princess Anne,MD,Maryland,True,,11437.0,38.5,24039,Somerset,"{""24039"": 100}",Somerset,24039,False,False,America/New_York,"(38.20453, -75.7102)",62.78461712698513,5335038.0,72_0_no,37.32000446520205,-75.97352897179076,100.0
21856,38.33807,-75.79224,Quantico,MD,Maryland,True,,957.0,11.0,24045,Wicomico,"{""24045"": 100}",Wicomico,24045,False,False,America/New_York,"(38.33807, -75.79224)",71.03392571686359,5335038.0,72_0_no,37.32000446520205,-75.97352897179076,100.0
21861,38.53525,-75.72834,Sharptown,MD,Maryland,True,,687.0,101.8,24045,Wicomico,"{""24045"": 100}",Wicomico,24045,False,False,America/New_York,"(38.53525, -75.72834)",85.0220305001077,5335038.0,72_0_no,37.32000446520205,-75.97352897179076,100.0
21862,38.39716,-75.21514,Showell,MD,Maryland,True,,86.0,31.6,24047,Worcester,"{""24047"": 100}",Worcester,24047,False,False,America/New_York,"(38.39716, -75.21514)",85.14925109614443,5335038.0,72_0_no,37.32000446520205,-75.97352897179076,100.0
21863,38.19167,-75.40327,Snow Hill,MD,Maryland,True,,4578.0,14.4,24047,Worcester,"{""24047"": 100}",Worcester,24047,False,False,America/New_York,"(38.19167, -75.40327)",67.8054656085092,5335038.0,72_0_no,37.32000446520205,-75.97352897179076,100.0
21864,38.04355,-75.40532,Stockton,MD,Maryland,True,,643.0,10.9,24047,Worcester,"{""24047"": 100}",Worcester,24047,False,False,America/New_York,"(38.04355, -75.40532)",58.86061189219712,5335038.0,72_0_no,37.32000446520205,-75.97352897179076,100.0
21865,38.28605,-75.83296,Tyaskin,MD,Maryland,True,,433.0,9.1,24045,Wicomico,"{""24045"": 100}",Wicomico,24045,False,False,America/New_York,"(38.28605, -75.83296)",67.18705206462397,5335038.0,72_0_no,37.32000446520205,-75.97352897179076,100.0
21866,37.9672,-76.02137,Tylerton,MD,Maryland,True,,80.0,251.3,24039,Somerset,"{""24039"": 100}",Somerset,24039,False,False,America/New_York,"(37.9672, -76.02137)",44.793484830667566,5335038.0,72_0_no,37.32000446520205,-75.97352897179076,100.0
21867,38.11025,-75.79399,Upper Fairmount,MD,Maryland,True,,23.0,37.7,24039,Somerset,"{""24039"": 100}",Somerset,24039,False,False,America/New_York,"(38.11025, -75.79399)",55.47554554033624,5335038.0,72_0_no,37.32000446520205,-75.97352897179076,100.0
21869,38.43246,-75.89012,Vienna,MD,Maryland,True,,1155.0,5.1,24019,Dorchester,"{""24019"": 100}",Dorchester,24019,False,False,America/New_York,"(38.43246, -75.89012)",76.99783655855272,5335038.0,72_0_no,37.32000446520205,-75.97352897179076,100.0
21871,38.10489,-75.73127,Westover,MD,Maryland,True,,2031.0,11.7,24039,Somerset,"{""24039"": 100}",Somerset,24039,False,False,America/New_York,"(38.10489, -75.73127)",55.82358923928675,5335038.0,72_0_no,37.32000446520205,-75.97352897179076,100.0
21872,38.4163,-75.29399,Whaleyville,MD,Maryland,True,,585.0,13.8,24047,Worcester,"{""24047"": 100}",Worcester,24047,False,False,America/New_York,"(38.4163, -75.29399)",84.3282707060537,5335038.0,72_0_no,37.32000446520205,-75.97352897179076,100.0
21874,38.39266,-75.35417,Willards,MD,Maryland,True,,1917.0,26.2,24045,Wicomico,"{""24045"": 99.47, ""10005"": 0.53}",Wicomico|Sussex,24045|10005,False,False,America/New_York,"(38.39266, -75.35417)",81.45132886156664,5335038.0,72_0_no,37.32000446520205,-75.97352897179076,100.0
21875,38.44038,-75.54559,Delmar,MD,Maryland,True,,7084.0,112.2,24045,Wicomico,"{""24045"": 100}",Wicomico,24045,False,False,America/New_York,"(38.44038, -75.54559)",80.8516989681052,5335038.0,72_0_no,37.32000446520205,-75.97352897179076,100.0
21890,38.15673,-75.6998,Westover,MD,Maryland,True,,3272.0,3598.8,24039,Somerset,"{""24039"": 100}",Somerset,24039,False,False,America/New_York,"(38.15673, -75.6998)",59.71550142663621,5335038.0,72_0_no,37.32000446520205,-75.97352897179076,100.0
22025,38.59874,-77.3491,Dumfries,VA,Virginia,True,,19634.0,787.0,51153,Prince William,"{""51153"": 100}",Prince William,51153,False,False,America/New_York,"(38.59874, -77.3491)",115.84818512535585,5335038.0,72_0_no,37.32000446520205,-75.97352897179076,100.0
22026,38.56717,-77.29476,Dumfries,VA,Virginia,True,,16701.0,768.4,51153,Prince William,"{""51153"": 100}",Prince William,51153,False,False,America/New_York,"(38.56717, -77.29476)",112.2833171020018,5335038.0,72_0_no,37.32000446520205,-75.97352897179076,100.0
22039,38.74992,-77.31536,Fairfax Station,VA,Virginia,True,,18095.0,295.8,51059,Fairfax,"{""51059"": 100}",Fairfax,51059,False,False,America/New_York,"(38.74992, -77.31536)",122.8514242618313,5335038.0,72_0_no,37.32000446520205,-75.97352897179076,100.0
22060,38.70525,-77.15636,Fort Belvoir,VA,Virginia,True,,9800.0,288.1,51059,Fairfax,"{""51059"": 100}",Fairfax,51059,False,False,America/New_York,"(38.70525, -77.15636)",115.35195917331313,5335038.0,72_0_no,37.32000446520205,-75.97352897179076,100.0
22079,38.67998,-77.2055,Lorton,VA,Virginia,True,,36839.0,500.4,51059,Fairfax,"{""51059"": 100}",Fairfax,51059,False,False,America/New_York,"(38.67998, -77.2055)",115.44721997567098,5335038.0,72_0_no,37.32000446520205,-75.97352897179076,100.0
22125,38.68217,-77.26073,Occoquan,VA,Virginia,True,,797.0,2030.4,51153,Prince William,"{""51153"": 100}",Prince William,51153,False,False,America/New_York,"(38.68217, -77.26073)",117.34033100038604,5335038.0,72_0_no,37.32000446520205,-75.97352897179076,100.0
22134,38.53186,-77.409,Quantico,VA,Virginia,True,,7354.0,60.2,51179,Stafford,"{""51179"": 76.56, ""51153"": 23.44}",Stafford|Prince William,51179|51153,False,False,America/New_York,"(38.53186, -77.409)",114.59004143356667,5335038.0,72_0_no,37.32000446520205,-75.97352897179076,100.0
22153,38.74443,-77.23451,Springfield,VA,Virginia,True,,31897.0,1390.3,51059,Fairfax,"{""51059"": 100}",Fairfax,51059,False,False,America/New_York,"(38.74443, -77.23451)",119.97877912955276,5335038.0,72_0_no,37.32000446520205,-75.97352897179076,100.0
22172,38.5742,-77.3895,Triangle,VA,Virginia,True,,11494.0,215.4,51153,Prince William,"{""51153"": 100}",Prince William,51153,False,False,America/New_York,"(38.5742, -77.3895)",116.02033991667881,5335038.0,72_0_no,37.32000446520205,-75.97352897179076,100.0
22191,38.6249,-77.26849,Woodbridge,VA,Virginia,True,,73081.0,1829.0,51153,Prince William,"{""51153"": 100}",Prince William,51153,False,False,America/New_York,"(38.6249, -77.26849)",114.4678988727642,5335038.0,72_0_no,37.32000446520205,-75.97352897179076,100.0
22192,38.68358,-77.31821,Woodbridge,VA,Virginia,True,,59670.0,1199.7,51153,Prince William,"{""51153"": 100}",Prince William,51153,False,False,America/New_York,"(38.68358, -77.31821)",119.31204972950955,5335038.0,72_0_no,37.32000446520205,-75.97352897179076,100.0
22193,38.64233,-77.34881,Woodbridge,VA,Virginia,True,,82060.0,1733.1,51153,Prince William,"{""51153"": 100}",Prince William,51153,False,False,America/New_York,"(38.64233, -77.34881)",118.13688301315243,5335038.0,72_0_no,37.32000446520205,-75.97352897179076,100.0
22306,38.75655,-77.09254,Alexandria,VA,Virginia,True,,34391.0,1956.6,51059,Fairfax,"{""51059"": 100}",Fairfax,51059,False,False,America/New_York,"(38.75655, -77.09254)",116.44413888097804,5335038.0,72_0_no,37.32000446520205,-75.97352897179076,100.0
22308,38.72957,-77.05876,Alexandria,VA,Virginia,True,,12980.0,1130.0,51059,Fairfax,"{""51059"": 100}",Fairfax,51059,False,False,America/New_York,"(38.72957, -77.05876)",113.9012899626846,5335038.0,72_0_no,37.32000446520205,-75.97352897179076,100.0
22309,38.71931,-77.10724,Alexandria,VA,Virginia,True,,36110.0,1852.4,51059,Fairfax,"{""51059"": 100}",Fairfax,51059,False,False,America/New_York,"(38.71931, -77.10724)",114.69564528075665,5335038.0,72_0_no,37.32000446520205,-75.97352897179076,100.0
22315,38.75735,-77.14803,Alexandria,VA,Virginia,True,,29634.0,2077.7,51059,Fairfax,"{""51059"": 100}",Fairfax,51059,False,False,America/New_York,"(38.75735, -77.14803)",118.09733037403433,5335038.0,72_0_no,37.32000446520205,-75.97352897179076,100.0
22401,38.29928,-77.48704,Fredericksburg,VA,Virginia,True,,29059.0,1082.4,51630,Fredericksburg,"{""51630"": 100}",Fredericksburg,51630,False,False,America/New_York,"(38.29928, -77.48704)",106.78621962371375,5335038.0,72_0_no,37.32000446520205,-75.97352897179076,100.0
22405,38.31568,-77.40377,Fredericksburg,VA,Virginia,True,,33482.0,242.5,51179,Stafford,"{""51179"": 100}",Stafford,51179,False,False,America/New_York,"(38.31568, -77.40377)",104.04906900905699,5335038.0,72_0_no,37.32000446520205,-75.97352897179076,100.0
22406,38.39964,-77.55596,Fredericksburg,VA,Virginia,True,,25665.0,136.3,51179,Stafford,"{""51179"": 95.39, ""51061"": 4.61}",Stafford|Fauquier,51179|51061,False,False,America/New_York,"(38.39964, -77.55596)",114.08424508472754,5335038.0,72_0_no,37.32000446520205,-75.97352897179076,100.0
22407,38.28581,-77.58055,Fredericksburg,VA,Virginia,True,,59551.0,376.9,51177,Spotsylvania,"{""51177"": 97.26, ""51047"": 2.63, ""51630"": 0.11}",Spotsylvania|Culpeper|Fredericksburg,51177|51047|51630,False,False,America/New_York,"(38.28581, -77.58055)",110.22268869322161,5335038.0,72_0_no,37.32000446520205,-75.97352897179076,100.0
22408,38.21916,-77.44013,Fredericksburg,VA,Virginia,True,,30129.0,245.8,51177,Spotsylvania,"{""51177"": 82.83, ""51033"": 17.17}",Spotsylvania|Caroline,51177|51033,False,False,America/New_York,"(38.21916, -77.44013)",101.36729603176485,5335038.0,72_0_no,37.32000446520205,-75.97352897179076,100.0
22427,38.07177,-77.28624,Bowling Green,VA,Virginia,True,,5259.0,19.2,51033,Caroline,"{""51033"": 100}",Caroline,51033,False,False,America/New_York,"(38.07177, -77.28624)",88.59057935985375,5335038.0,72_0_no,37.32000446520205,-75.97352897179076,100.0
22432,37.8637,-76.35043,Burgess,VA,Virginia,True,,233.0,28.5,51133,Northumberland,"{""51133"": 100}",Northumberland,51133,False,False,America/New_York,"(37.8637, -76.35043)",42.85982197119228,5335038.0,72_0_no,37.32000446520205,-75.97352897179076,100.0
22435,37.97216,-76.57288,Callao,VA,Virginia,True,,2559.0,38.8,51133,Northumberland,"{""51133"": 93.43, ""51159"": 5.25, ""51193"": 1.32}",Northumberland|Richmond|Westmoreland,51133|51159|51193,False,False,America/New_York,"(37.97216, -76.57288)",55.726811414645596,5335038.0,72_0_no,37.32000446520205,-75.97352897179076,100.0
22436,38.04698,-77.07471,Caret,VA,Virginia,True,,1055.0,14.0,51057,Essex,"{""51057"": 100}",Essex,51057,False,False,America/New_York,"(38.04698, -77.07471)",78.41186110642293,5335038.0,72_0_no,37.32000446520205,-75.97352897179076,100.0
22437,37.7764,-76.8156,Center Cross,VA,Virginia,True,,1002.0,10.4,51097,King and Queen,"{""51097"": 66.04, ""51057"": 33.96}",King and Queen|Essex,51097|51057,False,False,America/New_York,"(37.7764, -76.8156)",55.87667301188358,5335038.0,72_0_no,37.32000446520205,-75.97352897179076,100.0
22438,38.03788,-76.99971,Champlain,VA,Virginia,True,,379.0,3.6,51057,Essex,"{""51057"": 90.57, ""51033"": 9.43}",Essex|Caroline,51057|51033,False,False,America/New_York,"(38.03788, -76.99971)",74.89335796261079,5335038.0,72_0_no,37.32000446520205,-75.97352897179076,100.0
22443,38.18078,-76.99776,Colonial Beach,VA,Virginia,True,,8906.0,58.0,51193,Westmoreland,"{""51193"": 99.69, ""51099"": 0.31}",Westmoreland|King George,51193|51099,False,False,America/New_York,"(38.18078, -76.99776)",81.65724308293592,5335038.0,72_0_no,37.32000446520205,-75.97352897179076,100.0
22448,38.33996,-77.03238,Dahlgren,VA,Virginia,True,,714.0,67.3,51099,King George,"{""51099"": 100}",King George,51099,False,False,America/New_York,"(38.33996, -77.03238)",91.13198271771526,5335038.0,72_0_no,37.32000446520205,-75.97352897179076,100.0
22454,37.83599,-76.85032,Dunnsville,VA,Virginia,True,,1968.0,16.9,51057,Essex,"{""51057"": 100}",Essex,51057,False,False,America/New_York,"(37.83599, -76.85032)",59.80009344103588,5335038.0,72_0_no,37.32000446520205,-75.97352897179076,100.0
22460,37.87612,-76.60692,Farnham,VA,Virginia,True,,1276.0,8.5,51159,Richmond,"{""51159"": 100}",Richmond,51159,False,False,America/New_York,"(37.87612, -76.60692)",51.75570541823346,5335038.0,72_0_no,37.32000446520205,-75.97352897179076,100.0
22469,38.0667,-76.64749,Hague,VA,Virginia,True,,2347.0,29.7,51193,Westmoreland,"{""51193"": 100}",Westmoreland,51193,False,False,America/New_York,"(38.0667, -76.64749)",63.39871470985646,5335038.0,72_0_no,37.32000446520205,-75.97352897179076,100.0
22473,37.88316,-76.41386,Heathsville,VA,Virginia,True,,5013.0,16.9,51133,Northumberland,"{""51133"": 96.92, ""51103"": 3.08}",Northumberland|Lancaster,51133|51103,False,False,America/New_York,"(37.88316, -76.41386)",45.771253922365325,5335038.0,72_0_no,37.32000446520205,-75.97352897179076,100.0
22476,38.03807,-77.06872,Hustle,VA,Virginia,True,,225.0,5.0,51057,Essex,"{""51057"": 100}",Essex,51057,False,False,America/New_York,"(38.03807, -77.06872)",77.76923698812757,5335038.0,72_0_no,37.32000446520205,-75.97352897179076,100.0
22480,37.66631,-76.41498,Irvington,VA,Virginia,True,,692.0,108.0,51103,Lancaster,"{""51103"": 100}",Lancaster,51103,False,False,America/New_York,"(37.66631, -76.41498)",34.03210018287506,5335038.0,72_0_no,37.32000446520205,-75.97352897179076,100.0
22482,37.73723,-76.35245,Kilmarnock,VA,Virginia,True,,2980.0,37.9,51133,Northumberland,"{""51133"": 65.09, ""51103"": 34.91}",Northumberland|Lancaster,51133|51103,False,False,America/New_York,"(37.73723, -76.35245)",35.526246421494896,5335038.0,72_0_no,37.32000446520205,-75.97352897179076,100.0
22485,38.2717,-77.15996,King George,VA,Virginia,True,,25997.0,57.1,51099,King George,"{""51099"": 99.77, ""51193"": 0.23}",King George|Westmoreland,51099|51193,False,False,America/New_York,"(38.2717, -77.15996)",92.3010024447685,5335038.0,72_0_no,37.32000446520205,-75.97352897179076,100.0
22488,38.04986,-76.58796,Kinsale,VA,Virginia,True,,678.0,10.4,51193,Westmoreland,"{""51193"": 100}",Westmoreland,51193,False,False,America/New_York,"(38.04986, -76.58796)",60.594552343669044,5335038.0,72_0_no,37.32000446520205,-75.97352897179076,100.0
22503,37.7624,-76.50432,Lancaster,VA,Virginia,True,,3606.0,16.1,51103,Lancaster,"{""51103"": 98.07, ""51133"": 1.93}",Lancaster|Northumberland,51103|51133,False,False,America/New_York,"(37.7624, -76.50432)",42.18912538347793,5335038.0,72_0_no,37.32000446520205,-75.97352897179076,100.0
22504,37.76346,-76.72675,Laneview,VA,Virginia,True,,117.0,3.6,51057,Essex,"{""51057"": 81.31, ""51119"": 18.69}",Essex|Middlesex,51057|51119,False,False,America/New_York,"(37.76346, -76.72675)",51.39626930497383,5335038.0,72_0_no,37.32000446520205,-75.97352897179076,100.0
22509,38.10642,-77.06669,Loretto,VA,Virginia,True,,55.0,1.4,51057,Essex,"{""51057"": 100}",Essex,51057,False,False,America/New_York,"(38.10642, -77.06669)",80.76111924702633,5335038.0,72_0_no,37.32000446520205,-75.97352897179076,100.0
22511,37.98352,-76.50323,Lottsburg,VA,Virginia,True,,816.0,19.8,51133,Northumberland,"{""51133"": 100}",Northumberland,51133,False,False,America/New_York,"(37.98352, -76.50323)",54.23416477618556,5335038.0,72_0_no,37.32000446520205,-75.97352897179076,100.0
22514,37.9724,-77.24471,Milford,VA,Virginia,True,,2307.0,11.6,51033,Caroline,"{""51033"": 97.63, ""51097"": 2.37}",Caroline|King and Queen,51033|51097,False,False,America/New_York,"(37.9724, -77.24471)",82.87328718563873,5335038.0,72_0_no,37.32000446520205,-75.97352897179076,100.0
22520,38.11651,-76.80634,Montross,VA,Virginia,True,,5410.0,21.6,51193,Westmoreland,"{""51193"": 97.56, ""51159"": 2.44}",Westmoreland|Richmond,51193|51159,False,False,America/New_York,"(38.11651, -76.80634)",71.41687419673411,5335038.0,72_0_no,37.32000446520205,-75.97352897179076,100.0
22529,38.01036,-76.67942,Oldhams,VA,Virginia,True,,11.0,0.6,51193,Westmoreland,"{""51193"": 100}",Westmoreland,51193,False,False,America/New_York,"(38.01036, -76.67942)",61.36544507074146,5335038.0,72_0_no,37.32000446520205,-75.97352897179076,100.0
22534,38.08473,-77.67062,Partlow,VA,Virginia,True,,2910.0,33.9,51177,Spotsylvania,"{""51177"": 100}",Spotsylvania,51177,False,False,America/New_York,"(38.08473, -77.67062)",106.76262854596352,5335038.0,72_0_no,37.32000446520205,-75.97352897179076,100.0
22535,38.12314,-77.19619,Port Royal,VA,Virginia,True,,432.0,3.9,51033,Caroline,"{""51033"": 100}",Caroline,51033,False,False,America/New_York,"(38.12314, -77.19619)",86.85691667785646,5335038.0,72_0_no,37.32000446520205,-75.97352897179076,100.0
22538,38.18941,-77.27334,Rappahannock Academy,VA,Virginia,True,,177.0,2.8,51033,Caroline,"{""51033"": 100}",Caroline,51033,False,False,America/New_York,"(38.18941, -77.27334)",93.00502508189825,5335038.0,72_0_no,37.32000446520205,-75.97352897179076,100.0
22539,37.85865,-76.28731,Reedville,VA,Virginia,True,,2429.0,55.5,51133,Northumberland,"{""51133"": 100}",Northumberland,51133,False,False,America/New_York,"(37.85865, -76.28731)",40.99051707867077,5335038.0,72_0_no,37.32000446520205,-75.97352897179076,100.0
22546,37.94342,-77.44565,Ruther Glen,VA,Virginia,True,,16553.0,39.0,51033,Caroline,"{""51033"": 93.91, ""51085"": 4.58, ""51177"": 1.51}",Caroline|Hanover|Spotsylvania,51033|51085|51177,False,False,America/New_York,"(37.94342, -77.44565)",91.344150737794,5335038.0,72_0_no,37.32000446520205,-75.97352897179076,100.0
22548,37.82929,-76.69256,Sharps,VA,Virginia,True,,439.0,170.6,51159,Richmond,"{""51159"": 100}",Richmond,51159,False,False,America/New_York,"(37.82929, -76.69256)",52.80661550730923,5335038.0,72_0_no,37.32000446520205,-75.97352897179076,100.0
22551,38.17273,-77.70575,Spotsylvania,VA,Virginia,True,,20218.0,46.4,51177,Spotsylvania,"{""51177"": 99.39, ""51137"": 0.61}",Spotsylvania|Orange,51177|51137,False,False,America/New_York,"(38.17273, -77.70575)",111.47647168399938,5335038.0,72_0_no,37.32000446520205,-75.97352897179076,100.0
22553,38.26594,-77.6397,Spotsylvania,VA,Virginia,True,,15960.0,141.4,51177,Spotsylvania,"{""51177"": 100}",Spotsylvania,51177,False,False,America/New_York,"(38.26594, -77.6397)",112.01293532791637,5335038.0,72_0_no,37.32000446520205,-75.97352897179076,100.0
22554,38.42285,-77.3835,Stafford,VA,Virginia,True,,57488.0,346.2,51179,Stafford,"{""51179"": 100}",Stafford,51179,False,False,America/New_York,"(38.42285, -77.3835)",108.25739348123352,5335038.0,72_0_no,37.32000446520205,-75.97352897179076,100.0
22556,38.48624,-77.513,Stafford,VA,Virginia,True,,31545.0,262.8,51179,Stafford,"{""51179"": 99.18, ""51061"": 0.82}",Stafford|Fauquier,51179|51061,False,False,America/New_York,"(38.48624, -77.513)",116.34548581639423,5335038.0,72_0_no,37.32000446520205,-75.97352897179076,100.0
22560,37.91289,-76.96196,Tappahannock,VA,Virginia,True,,6269.0,24.4,51057,Essex,"{""51057"": 88.72, ""51097"": 11.28}",Essex|King and Queen,51057|51097,False,False,America/New_York,"(37.91289, -76.96196)",67.85606553862131,5335038.0,72_0_no,37.32000446520205,-75.97352897179076,100.0
22572,37.97552,-76.77495,Warsaw,VA,Virginia,True,,7378.0,20.2,51159,Richmond,"{""51159"": 91.58, ""51193"": 8.42}",Richmond|Westmoreland,51159|51193,False,False,America/New_York,"(37.97552, -76.77495)",63.03574435903678,5335038.0,72_0_no,37.32000446520205,-75.97352897179076,100.0
22576,37.69398,-76.43277,Weems,VA,Virginia,True,,1972.0,61.7,51103,Lancaster,"{""51103"": 100}",Lancaster,51103,False,False,America/New_York,"(37.69398, -76.43277)",36.07280003911088,5335038.0,72_0_no,37.32000446520205,-75.97352897179076,100.0
22578,37.65063,-76.36268,White Stone,VA,Virginia,True,,2596.0,53.6,51103,Lancaster,"{""51103"": 100}",Lancaster,51103,False,False,America/New_York,"(37.65063, -76.36268)",31.257935174442547,5335038.0,72_0_no,37.32000446520205,-75.97352897179076,100.0
22580,38.10941,-77.44419,Woodford,VA,Virginia,True,,5467.0,22.3,51033,Caroline,"{""51033"": 89.9, ""51177"": 10.1}",Caroline|Spotsylvania,51033|51177,False,False,America/New_York,"(38.10941, -77.44419)",97.13835499234543,5335038.0,72_0_no,37.32000446520205,-75.97352897179076,100.0
22712,38.55632,-77.75884,Bealeton,VA,Virginia,True,,8209.0,87.4,51061,Fauquier,"{""51061"": 100}",Fauquier,51061,False,False,America/New_York,"(38.55632, -77.75884)",129.46023556056963,5335038.0,72_0_no,37.32000446520205,-75.97352897179076,100.0
22720,38.48044,-77.6468,Goldvein,VA,Virginia,True,,1060.0,29.6,51061,Fauquier,"{""51061"": 100}",Fauquier,51061,False,False,America/New_York,"(38.48044, -77.6468)",121.4495178151327,5335038.0,72_0_no,37.32000446520205,-75.97352897179076,100.0
22728,38.57773,-77.68639,Midland,VA,Virginia,True,,2615.0,20.8,51061,Fauquier,"{""51061"": 100}",Fauquier,51061,False,False,America/New_York,"(38.57773, -77.68639)",127.51411069612999,5335038.0,72_0_no,37.32000446520205,-75.97352897179076,100.0
22736,38.39633,-77.69673,Richardsville,VA,Virginia,True,,990.0,15.8,51047,Culpeper,"{""51047"": 100}",Culpeper,51047,False,False,America/New_York,"(38.39633, -77.69673)",119.85853950103437,5335038.0,72_0_no,37.32000446520205,-75.97352897179076,100.0
22742,38.4589,-77.71179,Sumerduck,VA,Virginia,True,,1838.0,35.5,51061,Fauquier,"{""51061"": 100}",Fauquier,51061,False,False,America/New_York,"(38.4589, -77.71179)",123.1874513185026,5335038.0,72_0_no,37.32000446520205,-75.97352897179076,100.0
23005,37.75982,-77.4826,Ashland,VA,Virginia,True,,18059.0,100.6,51085,Hanover,"{""51085"": 100}",Hanover,51085,False,False,America/New_York,"(37.75982, -77.4826)",88.08276314803388,5335038.0,72_0_no,37.32000446520205,-75.97352897179076,100.0
23009,37.81038,-77.18717,Aylett,VA,Virginia,True,,6955.0,33.1,51101,King William,"{""51101"": 100}",King William,51101,False,False,America/New_York,"(37.81038, -77.18717)",74.6046747436152,5335038.0,72_0_no,37.32000446520205,-75.97352897179076,100.0
23011,37.47562,-76.80691,Barhamsville,VA,Virginia,True,,1404.0,26.1,51127,New Kent,"{""51127"": 99.9, ""51095"": 0.1}",New Kent|James City,51127|51095,False,False,America/New_York,"(37.47562, -76.80691)",46.99106834881948,5335038.0,72_0_no,37.32000446520205,-75.97352897179076,100.0
23015,37.93127,-77.63124,Beaverdam,VA,Virginia,True,,4101.0,18.2,51085,Hanover,"{""51085"": 76.89, ""51177"": 14.5, ""51033"": 7.68, ""51109"": 0.93}",Hanover|Spotsylvania|Caroline|Louisa,51085|51177|51033|51109,False,False,America/New_York,"(37.93127, -77.63124)",100.0627399589198,5335038.0,72_0_no,37.32000446520205,-75.97352897179076,100.0
23021,37.40102,-76.37187,Bohannon,VA,Virginia,True,,318.0,87.9,51115,Mathews,"{""51115"": 100}",Mathews,51115,False,False,America/New_York,"(37.40102, -76.37187)",22.58077493202453,5335038.0,72_0_no,37.32000446520205,-75.97352897179076,100.0
23023,37.78293,-76.96586,Bruington,VA,Virginia,True,,713.0,12.1,51097,King and Queen,"{""51097"": 100}",King and Queen,51097,False,False,America/New_York,"(37.78293, -76.96586)",63.06919975787735,5335038.0,72_0_no,37.32000446520205,-75.97352897179076,100.0
23024,37.92448,-77.77554,Bumpass,VA,Virginia,True,,9492.0,34.0,51109,Louisa,"{""51109"": 80.4, ""51177"": 15.16, ""51085"": 4.44}",Louisa|Spotsylvania|Hanover,51109|51177|51085,False,False,America/New_York,"(37.92448, -77.77554)",107.09314636332516,5335038.0,72_0_no,37.32000446520205,-75.97352897179076,100.0
23025,37.41447,-76.36204,Cardinal,VA,Virginia,True,,168.0,14.8,51115,Mathews,"{""51115"": 100}",Mathews,51115,False,False,America/New_York,"(37.41447, -76.36204)",22.310301988865103,5335038.0,72_0_no,37.32000446520205,-75.97352897179076,100.0
23030,37.34652,-77.05962,Charles City,VA,Virginia,True,,4560.0,11.8,51036,Charles City,"{""51036"": 99.36, ""51087"": 0.64}",Charles City|Henrico,51036|51087,False,False,America/New_York,"(37.34652, -77.05962)",59.695096009864656,5335038.0,72_0_no,37.32000446520205,-75.97352897179076,100.0
23032,37.65552,-76.68199,Church View,VA,Virginia,True,,314.0,7.0,51119,Middlesex,"{""51119"": 100}",Middlesex,51119,False,False,America/New_York,"(37.65552, -76.68199)",45.23279651231605,5335038.0,72_0_no,37.32000446520205,-75.97352897179076,100.0
23035,37.49809,-76.37679,Cobbs Creek,VA,Virginia,True,,1330.0,47.3,51115,Mathews,"{""51115"": 100}",Mathews,51115,False,False,America/New_York,"(37.49809, -76.37679)",25.32229523209857,5335038.0,72_0_no,37.32000446520205,-75.97352897179076,100.0
23043,37.55519,-76.34357,Deltaville,VA,Virginia,True,,1749.0,99.2,51119,Middlesex,"{""51119"": 100}",Middlesex,51119,False,False,America/New_York,"(37.55519, -76.34357)",26.003469223841435,5335038.0,72_0_no,37.32000446520205,-75.97352897179076,100.0
23045,37.42937,-76.27069,Diggs,VA,Virginia,True,,43.0,4.8,51115,Mathews,"{""51115"": 100}",Mathews,51115,False,False,America/New_York,"(37.42937, -76.27069)",17.98115232580469,5335038.0,72_0_no,37.32000446520205,-75.97352897179076,100.0
23047,37.84765,-77.48973,Doswell,VA,Virginia,True,,1628.0,14.6,51085,Hanover,"{""51085"": 88.39, ""51033"": 11.61}",Hanover|Caroline,51085|51033,False,False,America/New_York,"(37.84765, -77.48973)",90.66857353694579,5335038.0,72_0_no,37.32000446520205,-75.97352897179076,100.0
23050,37.48918,-76.41986,Dutton,VA,Virginia,True,,638.0,31.9,51115,Mathews,"{""51115"": 93.23, ""51073"": 6.77}",Mathews|Gloucester,51115|51073,False,False,America/New_York,"(37.48918, -76.41986)",27.14287238426769,5335038.0,72_0_no,37.32000446520205,-75.97352897179076,100.0
23056,37.41809,-76.38724,Foster,VA,Virginia,True,,389.0,21.9,51115,Mathews,"{""51115"": 100}",Mathews,51115,False,False,America/New_York,"(37.41809, -76.38724)",23.706784959578176,5335038.0,72_0_no,37.32000446520205,-75.97352897179076,100.0
23059,37.70424,-77.56539,Glen Allen,VA,Virginia,True,,39602.0,333.6,51085,Hanover,"{""51085"": 59.12, ""51087"": 39.03, ""51075"": 1.85}",Hanover|Henrico|Goochland,51085|51087|51075,False,False,America/New_York,"(37.70424, -77.56539)",91.1928900238867,5335038.0,72_0_no,37.32000446520205,-75.97352897179076,100.0
23060,37.65981,-77.53427,Glen Allen,VA,Virginia,True,,36042.0,913.9,51087,Henrico,"{""51087"": 100}",Henrico,51087,False,False,America/New_York,"(37.65981, -77.53427)",88.7257767726136,5335038.0,72_0_no,37.32000446520205,-75.97352897179076,100.0
23061,37.4331,-76.55019,Gloucester,VA,Virginia,True,,21364.0,52.2,51073,Gloucester,"{""51073"": 100}",Gloucester,51073,False,False,America/New_York,"(37.4331, -76.55019)",32.61209137640128,5335038.0,72_0_no,37.32000446520205,-75.97352897179076,100.0
23062,37.258,-76.50404,Gloucester Point,VA,Virginia,True,,2326.0,581.3,51073,Gloucester,"{""51073"": 100}",Gloucester,51073,False,False,America/New_York,"(37.258, -76.50404)",29.475159409771845,5335038.0,72_0_no,37.32000446520205,-75.97352897179076,100.0
23066,37.49836,-76.28831,Gwynn,VA,Virginia,True,,319.0,52.5,51115,Mathews,"{""51115"": 100}",Mathews,51115,False,False,America/New_York,"(37.49836, -76.28831)",21.220624418629836,5335038.0,72_0_no,37.32000446520205,-75.97352897179076,100.0
23068,37.49511,-76.33727,Hallieford,VA,Virginia,True,,69.0,31.6,51115,Mathews,"{""51115"": 100}",Mathews,51115,False,False,America/New_York,"(37.49511, -76.33727)",23.34329053712022,5335038.0,72_0_no,37.32000446520205,-75.97352897179076,100.0
23069,37.76924,-77.32874,Hanover,VA,Virginia,True,,2817.0,15.7,51085,Hanover,"{""51085"": 41.69, ""51101"": 35.39, ""51033"": 22.92}",Hanover|King William|Caroline,51085|51101|51033,False,False,America/New_York,"(37.76924, -77.32874)",80.46835278516741,5335038.0,72_0_no,37.32000446520205,-75.97352897179076,100.0
23070,37.55065,-76.38528,Hardyville,VA,Virginia,True,,556.0,67.9,51119,Middlesex,"{""51119"": 100}",Middlesex,51119,False,False,America/New_York,"(37.55065, -76.38528)",27.64522492651482,5335038.0,72_0_no,37.32000446520205,-75.97352897179076,100.0
23071,37.54326,-76.45228,Hartfield,VA,Virginia,True,,1700.0,53.8,51119,Middlesex,"{""51119"": 100}",Middlesex,51119,False,False,America/New_York,"(37.54326, -76.45228)",30.461389439789787,5335038.0,72_0_no,37.32000446520205,-75.97352897179076,100.0
23072,37.29543,-76.48148,Hayes,VA,Virginia,True,,12380.0,134.3,51073,Gloucester,"{""51073"": 100}",Gloucester,51073,False,False,America/New_York,"(37.29543, -76.48148)",27.96668719847081,5335038.0,72_0_no,37.32000446520205,-75.97352897179076,100.0
23075,37.54938,-77.31591,Henrico,VA,Virginia,True,,9238.0,774.0,51087,Henrico,"{""51087"": 100}",Henrico,51087,False,False,America/New_York,"(37.54938, -77.31591)",75.33276694809983,5335038.0,72_0_no,37.32000446520205,-75.97352897179076,100.0
23076,37.47328,-76.30499,Hudgins,VA,Virginia,True,,813.0,108.6,51115,Mathews,"{""51115"": 100}",Mathews,51115,False,False,America/New_York,"(37.47328, -76.30499)",21.05201946207412,5335038.0,72_0_no,37.32000446520205,-75.97352897179076,100.0
23079,37.7248,-76.68941,Jamaica,VA,Virginia,True,,497.0,8.9,51119,Middlesex,"{""51119"": 100}",Middlesex,51119,False,False,America/New_York,"(37.7248, -76.68941)",48.17867465731477,5335038.0,72_0_no,37.32000446520205,-75.97352897179076,100.0
23085,37.70623,-76.84205,King And Queen Court House,VA,Virginia,True,,548.0,4.9,51097,King and Queen,"{""51097"": 100}",King and Queen,51097,False,False,America/New_York,"(37.70623, -76.84205)",54.56966182228528,5335038.0,72_0_no,37.32000446520205,-75.97352897179076,100.0
23086,37.66296,-77.05394,King William,VA,Virginia,True,,3282.0,15.3,51101,King William,"{""51101"": 100}",King William,51101,False,False,America/New_York,"(37.66296, -77.05394)",63.79362688242673,5335038.0,72_0_no,37.32000446520205,-75.97352897179076,100.0
23089,37.47593,-76.91212,Lanexa,VA,Virginia,True,,5361.0,34.2,51127,New Kent,"{""51127"": 87.34, ""51095"": 12.66}",New Kent|James City,51127|51095,False,False,America/New_York,"(37.47593, -76.91212)",52.6336845094396,5335038.0,72_0_no,37.32000446520205,-75.97352897179076,100.0
23091,37.64647,-76.80167,Little Plymouth,VA,Virginia,True,,313.0,4.6,51097,King and Queen,"{""51097"": 100}",King and Queen,51097,False,False,America/New_York,"(37.64647, -76.80167)",50.69911203241442,5335038.0,72_0_no,37.32000446520205,-75.97352897179076,100.0
23092,37.59402,-76.50755,Locust Hill,VA,Virginia,True,,682.0,45.7,51119,Middlesex,"{""51119"": 100}",Middlesex,51119,False,False,America/New_York,"(37.59402, -76.50755)",34.87566926636188,5335038.0,72_0_no,37.32000446520205,-75.97352897179076,100.0
23103,37.6506,-77.72754,Manakin Sabot,VA,Virginia,True,,5692.0,57.2,51075,Goochland,"{""51075"": 100}",Goochland,51075,False,False,America/New_York,"(37.6506, -77.72754)",98.83976241167069,5335038.0,72_0_no,37.32000446520205,-75.97352897179076,100.0
23106,37.71524,-77.2062,Manquin,VA,Virginia,True,,1381.0,22.4,51101,King William,"{""51101"": 100}",King William,51101,False,False,America/New_York,"(37.71524, -77.2062)",72.8635669946554,5335038.0,72_0_no,37.32000446520205,-75.97352897179076,100.0
23108,37.65523,-76.73015,Mascot,VA,Virginia,True,,155.0,6.6,51097,King and Queen,"{""51097"": 100}",King and Queen,51097,False,False,America/New_York,"(37.65523, -76.73015)",47.50956803004699,5335038.0,72_0_no,37.32000446520205,-75.97352897179076,100.0
23109,37.43263,-76.32445,Mathews,VA,Virginia,True,,2592.0,49.3,51115,Mathews,"{""51115"": 100}",Mathews,51115,False,False,America/New_York,"(37.43263, -76.32445)",20.779777626578745,5335038.0,72_0_no,37.32000446520205,-75.97352897179076,100.0
23110,37.58338,-76.76578,Mattaponi,VA,Virginia,True,,647.0,11.9,51097,King and Queen,"{""51097"": 100}",King and Queen,51097,False,False,America/New_York,"(37.58338, -76.76578)",47.1118693262228,5335038.0,72_0_no,37.32000446520205,-75.97352897179076,100.0
23111,37.6112,-77.24697,Mechanicsville,VA,Virginia,True,,36511.0,182.7,51085,Hanover,"{""51085"": 100}",Hanover,51085,False,False,America/New_York,"(37.6112, -77.24697)",72.67618426931037,5335038.0,72_0_no,37.32000446520205,-75.97352897179076,100.0
23112,37.43738,-77.66394,Midlothian,VA,Virginia,True,,55165.0,664.4,51041,Chesterfield,"{""51041"": 99.28, ""51145"": 0.72}",Chesterfield|Powhatan,51041|51145,False,False,America/New_York,"(37.43738, -77.66394)",93.16341408359854,5335038.0,72_0_no,37.32000446520205,-75.97352897179076,100.0
23113,37.53935,-77.68093,Midlothian,VA,Virginia,True,,25387.0,268.8,51041,Chesterfield,"{""51041"": 53.56, ""51145"": 46.34, ""51760"": 0.1}",Chesterfield|Powhatan|Richmond,51041|51145|51760,False,False,America/New_York,"(37.53935, -77.68093)",94.89666390674458,5335038.0,72_0_no,37.32000446520205,-75.97352897179076,100.0
23114,37.48317,-77.66054,Midlothian,VA,Virginia,True,,19904.0,633.2,51041,Chesterfield,"{""51041"": 100}",Chesterfield,51041,False,False,America/New_York,"(37.48317, -77.66054)",93.27854187042698,5335038.0,72_0_no,37.32000446520205,-75.97352897179076,100.0
23116,37.67152,-77.33458,Mechanicsville,VA,Virginia,True,,31510.0,221.3,51085,Hanover,"{""51085"": 100}",Hanover,51085,False,False,America/New_York,"(37.67152, -77.33458)",78.46350940863627,5335038.0,72_0_no,37.32000446520205,-75.97352897179076,100.0
23119,37.45139,-76.27978,Moon,VA,Virginia,True,,285.0,49.1,51115,Mathews,"{""51115"": 100}",Mathews,51115,False,False,America/New_York,"(37.45139, -76.27978)",19.107146963706526,5335038.0,72_0_no,37.32000446520205,-75.97352897179076,100.0
23120,37.40872,-77.78468,Moseley,VA,Virginia,True,,11529.0,70.5,51041,Chesterfield,"{""51041"": 93.69, ""51145"": 6.31}",Chesterfield|Powhatan,51041|51145,False,False,America/New_York,"(37.40872, -77.78468)",99.64635965271034,5335038.0,72_0_no,37.32000446520205,-75.97352897179076,100.0
23124,37.55271,-77.05949,New Kent,VA,Virginia,True,,4625.0,33.5,51127,New Kent,"{""51127"": 100}",New Kent,51127,False,False,America/New_York,"(37.55271, -77.05949)",61.70918709450051,5335038.0,72_0_no,37.32000446520205,-75.97352897179076,100.0
23126,37.92285,-77.1448,Newtown,VA,Virginia,True,,505.0,8.8,51097,King and Queen,"{""51097"": 100}",King and Queen,51097,False,False,America/New_York,"(37.92285, -77.1448)",76.44278193311527,5335038.0,72_0_no,37.32000446520205,-75.97352897179076,100.0
23128,37.4514,-76.43216,North,VA,Virginia,True,,505.0,22.8,51115,Mathews,"{""51115"": 85.17, ""51073"": 14.83}",Mathews|Gloucester,51115|51073,False,False,America/New_York,"(37.4514, -76.43216)",26.76520474276264,5335038.0,72_0_no,37.32000446520205,-75.97352897179076,100.0
23129,37.705,-77.78261,Oilville,VA,Virginia,True,,542.0,52.2,51075,Goochland,"{""51075"": 100}",Goochland,51075,False,False,America/New_York,"(37.705, -77.78261)",102.65343122524388,5335038.0,72_0_no,37.32000446520205,-75.97352897179076,100.0
23130,37.39048,-76.26494,Onemo,VA,Virginia,True,,192.0,23.6,51115,Mathews,"{""51115"": 100}",Mathews,51115,False,False,America/New_York,"(37.39048, -76.26494)",16.72910483764259,5335038.0,72_0_no,37.32000446520205,-75.97352897179076,100.0
23138,37.36245,-76.30062,Port Haywood,VA,Virginia,True,,587.0,20.0,51115,Mathews,"{""51115"": 100}",Mathews,51115,False,False,America/New_York,"(37.36245, -76.30062)",18.205468766455326,5335038.0,72_0_no,37.32000446520205,-75.97352897179076,100.0
23140,37.43852,-77.04818,Providence Forge,VA,Virginia,True,,6453.0,34.5,51127,New Kent,"{""51127"": 57.98, ""51036"": 42.02}",New Kent|Charles City,51127|51036,False,False,America/New_York,"(37.43852, -77.04818)",59.567821620493866,5335038.0,72_0_no,37.32000446520205,-75.97352897179076,100.0
23141,37.53042,-77.15791,Quinton,VA,Virginia,True,,7550.0,82.9,51127,New Kent,"{""51127"": 100}",New Kent,51127,False,False,America/New_York,"(37.53042, -77.15791)",66.59321892280866,5335038.0,72_0_no,37.32000446520205,-75.97352897179076,100.0
23146,37.7273,-77.70928,Rockville,VA,Virginia,True,,3356.0,40.2,51085,Hanover,"{""51085"": 78.47, ""51075"": 21.53}",Hanover|Goochland,51085|51075,False,False,America/New_York,"(37.7273, -77.70928)",99.18978696725914,5335038.0,72_0_no,37.32000446520205,-75.97352897179076,100.0
23148,37.84262,-77.06223,Saint Stephens Church,VA,Virginia,True,,1648.0,10.9,51097,King and Queen,"{""51097"": 93.5, ""51057"": 6.5}",King and Queen|Essex,51097|51057,False,False,America/New_York,"(37.84262, -77.06223)",69.6953341799712,5335038.0,72_0_no,37.32000446520205,-75.97352897179076,100.0
23149,37.56794,-76.61599,Saluda,VA,Virginia,True,,2883.0,21.2,51119,Middlesex,"{""51119"": 43.65, ""51073"": 38.73, ""51097"": 17.62}",Middlesex|Gloucester|King and Queen,51119|51073|51097,False,False,America/New_York,"(37.56794, -76.61599)",39.18591901299528,5335038.0,72_0_no,37.32000446520205,-75.97352897179076,100.0
23150,37.50718,-77.25402,Sandston,VA,Virginia,True,,12523.0,164.0,51087,Henrico,"{""51087"": 100}",Henrico,51087,False,False,America/New_York,"(37.50718, -77.25402)",71.45140494250793,5335038.0,72_0_no,37.32000446520205,-75.97352897179076,100.0
23156,37.5244,-76.71106,Shacklefords,VA,Virginia,True,,1384.0,12.7,51097,King and Queen,"{""51097"": 100}",King and Queen,51097,False,False,America/New_York,"(37.5244, -76.71106)",42.863350159988045,5335038.0,72_0_no,37.32000446520205,-75.97352897179076,100.0
23161,37.72152,-76.93037,Stevensville,VA,Virginia,True,,80.0,3.3,51097,King and Queen,"{""51097"": 100}",King and Queen,51097,False,False,America/New_York,"(37.72152, -76.93037)",59.32125034237009,5335038.0,72_0_no,37.32000446520205,-75.97352897179076,100.0
23163,37.3572,-76.29765,Susan,VA,Virginia,True,,46.0,11.6,51115,Mathews,"{""51115"": 100}",Mathews,51115,False,False,America/New_York,"(37.3572, -76.29765)",17.989693515368455,5335038.0,72_0_no,37.32000446520205,-75.97352897179076,100.0
23168,37.3942,-76.832,Toano,VA,Virginia,True,,7601.0,98.5,51095,James City,"{""51095"": 100}",James City,51095,False,False,America/New_York,"(37.3942, -76.832)",47.425136820733904,5335038.0,72_0_no,37.32000446520205,-75.97352897179076,100.0
23169,37.58945,-76.46225,Topping,VA,Virginia,True,,947.0,41.8,51119,Middlesex,"{""51119"": 100}",Middlesex,51119,False,False,America/New_York,"(37.58945, -76.46225)",32.63634139858749,5335038.0,72_0_no,37.32000446520205,-75.97352897179076,100.0
23173,37.57677,-77.54069,Richmond,VA,Virginia,True,,2295.0,2708.3,51760,Richmond,"{""51760"": 99.58, ""51087"": 0.42}",Richmond|Henrico,51760|51087,False,False,America/New_York,"(37.57677, -77.54069)",87.77442623999215,5335038.0,72_0_no,37.32000446520205,-75.97352897179076,100.0
23175,37.65343,-76.62407,Urbanna,VA,Virginia,True,,1634.0,39.7,51119,Middlesex,"{""51119"": 100}",Middlesex,51119,False,False,America/New_York,"(37.65343, -76.62407)",42.459162666315784,5335038.0,72_0_no,37.32000446520205,-75.97352897179076,100.0
23176,37.56934,-76.41991,Wake,VA,Virginia,True,,336.0,28.0,51119,Middlesex,"{""51119"": 100}",Middlesex,51119,False,False,America/New_York,"(37.56934, -76.41991)",29.939612141784938,5335038.0,72_0_no,37.32000446520205,-75.97352897179076,100.0
23177,37.73088,-77.00295,Walkerton,VA,Virginia,True,,776.0,14.5,51097,King and Queen,"{""51097"": 88.53, ""51101"": 11.47}",King and Queen|King William,51097|51101,False,False,America/New_York,"(37.73088, -77.00295)",63.14925487521861,5335038.0,72_0_no,37.32000446520205,-75.97352897179076,100.0
23180,37.69977,-76.62045,Water View,VA,Virginia,True,,670.0,27.3,51119,Middlesex,"{""51119"": 100}",Middlesex,51119,False,False,America/New_York,"(37.69977, -76.62045)",44.10956388718315,5335038.0,72_0_no,37.32000446520205,-75.97352897179076,100.0
23181,37.59809,-76.889,West Point,VA,Virginia,True,,5075.0,30.0,51101,King William,"{""51101"": 90.8, ""51127"": 9.2}",King William|New Kent,51101|51127,False,False,America/New_York,"(37.59809, -76.889)",53.75996928141721,5335038.0,72_0_no,37.32000446520205,-75.97352897179076,100.0
23185,37.24927,-76.68702,Williamsburg,VA,Virginia,True,,49874.0,336.4,51095,James City,"{""51095"": 54.4, ""51199"": 31.98, ""51830"": 13.15, ""51036"": 0.47}",James City|York|Williamsburg|Charles City,51095|51199|51830|51036,False,False,America/New_York,"(37.24927, -76.68702)",39.5261032685232,5335038.0,72_0_no,37.32000446520205,-75.97352897179076,100.0
23188,37.33849,-76.74925,Williamsburg,VA,Virginia,True,,44561.0,176.9,51095,James City,"{""51095"": 70.68, ""51199"": 28.22, ""51830"": 1.1}",James City|York|Williamsburg,51095|51199|51830,False,False,America/New_York,"(37.33849, -76.74925)",42.637594712639675,5335038.0,72_0_no,37.32000446520205,-75.97352897179076,100.0
23192,37.81732,-77.68209,Montpelier,VA,Virginia,True,,6785.0,38.6,51085,Hanover,"{""51085"": 95.94, ""51109"": 4.06}",Hanover|Louisa,51085|51109,False,False,America/New_York,"(37.81732, -77.68209)",99.67717194729657,5335038.0,72_0_no,37.32000446520205,-75.97352897179076,100.0
23219,37.54076,-77.43484,Richmond,VA,Virginia,True,,4652.0,1353.4,51760,Richmond,"{""51760"": 100}",Richmond,51760,False,False,America/New_York,"(37.54076, -77.43484)",81.6141227045614,5335038.0,72_0_no,37.32000446520205,-75.97352897179076,100.0
23220,37.54923,-77.46012,Richmond,VA,Virginia,True,,34853.0,2782.8,51760,Richmond,"{""51760"": 100}",Richmond,51760,False,False,America/New_York,"(37.54923, -77.46012)",83.08209767606861,5335038.0,72_0_no,37.32000446520205,-75.97352897179076,100.0
23221,37.5533,-77.49056,Richmond,VA,Virginia,True,,14619.0,1709.3,51760,Richmond,"{""51760"": 100}",Richmond,51760,False,False,America/New_York,"(37.5533, -77.49056)",84.7728514169978,5335038.0,72_0_no,37.32000446520205,-75.97352897179076,100.0
23222,37.58265,-77.41894,Richmond,VA,Virginia,True,,28542.0,1350.1,51087,Henrico,"{""51087"": 58.62, ""51760"": 41.38}",Henrico|Richmond,51087|51760,False,False,America/New_York,"(37.58265, -77.41894)",81.33193505279839,5335038.0,72_0_no,37.32000446520205,-75.97352897179076,100.0
23223,37.55595,-77.37927,Richmond,VA,Virginia,True,,53917.0,1248.7,51087,Henrico,"{""51087"": 76.75, ""51760"": 23.25}",Henrico|Richmond,51087|51760,False,False,America/New_York,"(37.55595, -77.37927)",78.82372389223748,5335038.0,72_0_no,37.32000446520205,-75.97352897179076,100.0
23224,37.4985,-77.46563,Richmond,VA,Virginia,True,,40136.0,1340.4,51760,Richmond,"{""51760"": 94.64, ""51041"": 5.36}",Richmond|Chesterfield,51760|51041,False,False,America/New_York,"(37.4985, -77.46563)",82.81210108233552,5335038.0,72_0_no,37.32000446520205,-75.97352897179076,100.0
23225,37.51872,-77.51044,Richmond,VA,Virginia,True,,43454.0,1202.8,51760,Richmond,"{""51760"": 81.14, ""51041"": 18.86}",Richmond|Chesterfield,51760|51041,False,False,America/New_York,"(37.51872, -77.51044)",85.44669110123657,5335038.0,72_0_no,37.32000446520205,-75.97352897179076,100.0
23226,37.57774,-77.5198,Richmond,VA,Virginia,True,,16452.0,1128.6,51760,Richmond,"{""51760"": 57.11, ""51087"": 42.89}",Richmond|Henrico,51760|51087,False,False,America/New_York,"(37.57774, -77.5198)",86.66574634765954,5335038.0,72_0_no,37.32000446520205,-75.97352897179076,100.0
23227,37.61486,-77.44234,Richmond,VA,Virginia,True,,26467.0,890.3,51087,Henrico,"{""51087"": 74.22, ""51760"": 25.78}",Henrico|Richmond,51087|51760,False,False,America/New_York,"(37.61486, -77.44234)",83.0840842335539,5335038.0,72_0_no,37.32000446520205,-75.97352897179076,100.0
23228,37.62588,-77.49125,Henrico,VA,Virginia,True,,35847.0,1246.8,51087,Henrico,"{""51087"": 100}",Henrico,51087,False,False,America/New_York,"(37.62588, -77.49125)",85.86507926167839,5335038.0,72_0_no,37.32000446520205,-75.97352897179076,100.0
23229,37.58785,-77.56973,Henrico,VA,Virginia,True,,35626.0,982.0,51087,Henrico,"{""51087"": 100}",Henrico,51087,False,False,America/New_York,"(37.58785, -77.56973)",89.4838260120845,5335038.0,72_0_no,37.32000446520205,-75.97352897179076,100.0
23230,37.587,-77.49153,Richmond,VA,Virginia,True,,6993.0,634.1,51087,Henrico,"{""51087"": 71.97, ""51760"": 28.03}",Henrico|Richmond,51087|51760,False,False,America/New_York,"(37.587, -77.49153)",85.27984707742468,5335038.0,72_0_no,37.32000446520205,-75.97352897179076,100.0
23231,37.44219,-77.31903,Henrico,VA,Virginia,True,,36587.0,160.2,51087,Henrico,"{""51087"": 94.78, ""51036"": 3.96, ""51760"": 1.26}",Henrico|Charles City|Richmond,51087|51036|51760,False,False,America/New_York,"(37.44219, -77.31903)",74.35176459679079,5335038.0,72_0_no,37.32000446520205,-75.97352897179076,100.0
23233,37.64461,-77.62828,Henrico,VA,Virginia,True,,31572.0,945.8,51087,Henrico,"{""51087"": 73.25, ""51075"": 26.75}",Henrico|Goochland,51087|51075,False,False,America/New_York,"(37.64461, -77.62828)",93.45706862750349,5335038.0,72_0_no,37.32000446520205,-75.97352897179076,100.0
23234,37.45293,-77.46752,Richmond,VA,Virginia,True,,45455.0,918.5,51041,Chesterfield,"{""51041"": 61.85, ""51760"": 38.15}",Chesterfield|Richmond,51041|51760,False,False,America/New_York,"(37.45293, -77.46752)",82.52993149672265,5335038.0,72_0_no,37.32000446520205,-75.97352897179076,100.0
23235,37.51314,-77.56426,Richmond,VA,Virginia,True,,31778.0,689.3,51041,Chesterfield,"{""51041"": 73.59, ""51760"": 26.41}",Chesterfield|Richmond,51041|51760,False,False,America/New_York,"(37.51314, -77.56426)",88.30697456296859,5335038.0,72_0_no,37.32000446520205,-75.97352897179076,100.0
23236,37.47438,-77.58634,Richmond,VA,Virginia,True,,24235.0,643.8,51041,Chesterfield,"{""51041"": 100}",Chesterfield,51041,False,False,America/New_York,"(37.47438, -77.58634)",89.16772009689016,5335038.0,72_0_no,37.32000446520205,-75.97352897179076,100.0
23237,37.40173,-77.45433,Richmond,VA,Virginia,True,,26609.0,476.0,51041,Chesterfield,"{""51041"": 100}",Chesterfield,51041,False,False,America/New_York,"(37.40173, -77.45433)",81.51680572203495,5335038.0,72_0_no,37.32000446520205,-75.97352897179076,100.0
23238,37.59595,-77.64138,Henrico,VA,Virginia,True,,26962.0,491.3,51075,Goochland,"{""51075"": 56.75, ""51087"": 43.25}",Goochland|Henrico,51075|51087,False,False,America/New_York,"(37.59595, -77.64138)",93.43991787653631,5335038.0,72_0_no,37.32000446520205,-75.97352897179076,100.0
23294,37.63048,-77.54205,Henrico,VA,Virginia,True,,18493.0,1682.8,51087,Henrico,"{""51087"": 100}",Henrico,51087,False,False,America/New_York,"(37.63048, -77.54205)",88.64137552833094,5335038.0,72_0_no,37.32000446520205,-75.97352897179076,100.0
23301,37.68402,-75.6397,Accomac,VA,Virginia,True,,2200.0,29.5,51001,Accomack,"{""51001"": 100}",Accomack,51001,False,False,America/New_York,"(37.68402, -75.6397)",31.10319296939261,5335038.0,72_0_no,37.32000446520205,-75.97352897179076,100.0
23302,37.85858,-75.52197,Assawoman,VA,Virginia,True,,48.0,8.1,51001,Accomack,"{""51001"": 100}",Accomack,51001,False,False,America/New_York,"(37.85858, -75.52197)",44.67592081266991,5335038.0,72_0_no,37.32000446520205,-75.97352897179076,100.0
23303,37.90346,-75.50562,Atlantic,VA,Virginia,True,,298.0,20.4,51001,Accomack,"{""51001"": 100}",Accomack,51001,False,False,America/New_York,"(37.90346, -75.50562)",47.75981452960456,5335038.0,72_0_no,37.32000446520205,-75.97352897179076,100.0
23306,37.56859,-75.88148,Belle Haven,VA,Virginia,True,,913.0,29.9,51001,Accomack,"{""51001"": 100}",Accomack,51001,False,False,America/New_York,"(37.56859, -75.88148)",17.902489447533984,5335038.0,72_0_no,37.32000446520205,-75.97352897179076,100.0
23307,37.43282,-75.87095,Birdsnest,VA,Virginia,True,,599.0,27.6,51131,Northampton,"{""51131"": 100}",Northampton,51131,False,False,America/New_York,"(37.43282, -75.87095)",9.616696139435847,5335038.0,72_0_no,37.32000446520205,-75.97352897179076,100.0
23308,37.82431,-75.61773,Bloxom,VA,Virginia,True,,1891.0,20.7,51001,Accomack,"{""51001"": 100}",Accomack,51001,False,False,America/New_York,"(37.82431, -75.61773)",39.921845428202275,5335038.0,72_0_no,37.32000446520205,-75.97352897179076,100.0
23310,37.26407,-75.95676,Cape Charles,VA,Virginia,True,,4176.0,24.8,51131,Northampton,"{""51131"": 100}",Northampton,51131,False,False,America/New_York,"(37.26407, -75.95676)",3.9731048326313667,5335038.0,72_0_no,37.32000446520205,-75.97352897179076,100.0
23314,36.95054,-76.53625,Carrollton,VA,Virginia,True,,9028.0,179.1,51093,Isle of Wight,"{""51093"": 100}",Isle of Wight,51093,False,False,America/New_York,"(36.95054, -76.53625)",40.154561775692194,5335038.0,72_0_no,37.32000446520205,-75.97352897179076,100.0
23315,36.73861,-76.84289,Carrsville,VA,Virginia,True,,1211.0,15.6,51093,Isle of Wight,"{""51093"": 100}",Isle of Wight,51093,False,False,America/New_York,"(36.73861, -76.84289)",62.55490117929967,5335038.0,72_0_no,37.32000446520205,-75.97352897179076,100.0
23320,36.75208,-76.21807,Chesapeake,VA,Virginia,True,,59248.0,720.7,51550,Chesapeake,"{""51550"": 100}",Chesapeake,51550,False,False,America/New_York,"(36.75208, -76.21807)",41.4930529927292,5335038.0,72_0_no,37.32000446520205,-75.97352897179076,100.0
23321,36.80067,-76.42189,Chesapeake,VA,Virginia,True,,36768.0,532.6,51550,Chesapeake,"{""51550"": 100}",Chesapeake,51550,False,False,America/New_York,"(36.80067, -76.42189)",43.57386641253306,5335038.0,72_0_no,37.32000446520205,-75.97352897179076,100.0
23322,36.62703,-76.26929,Chesapeake,VA,Virginia,True,,65272.0,134.2,51550,Chesapeake,"{""51550"": 100}",Chesapeake,51550,False,False,America/New_York,"(36.62703, -76.26929)",50.58674148631396,5335038.0,72_0_no,37.32000446520205,-75.97352897179076,100.0
23323,36.70785,-76.37949,Chesapeake,VA,Virginia,True,,40644.0,191.6,51550,Chesapeake,"{""51550"": 100}",Chesapeake,51550,False,False,America/New_York,"(36.70785, -76.37949)",47.859700753546704,5335038.0,72_0_no,37.32000446520205,-75.97352897179076,100.0
23324,36.79996,-76.27517,Chesapeake,VA,Virginia,True,,23232.0,1347.9,51550,Chesapeake,"{""51550"": 100}",Chesapeake,51550,False,False,America/New_York,"(36.79996, -76.27517)",39.594021794235886,5335038.0,72_0_no,37.32000446520205,-75.97352897179076,100.0
23325,36.81507,-76.239,Chesapeake,VA,Virginia,True,,17516.0,1794.6,51550,Chesapeake,"{""51550"": 100}",Chesapeake,51550,False,False,America/New_York,"(36.81507, -76.239)",37.833193089719714,5335038.0,72_0_no,37.32000446520205,-75.97352897179076,100.0
23336,37.95461,-75.33759,Chincoteague Island,VA,Virginia,True,,2912.0,58.2,51001,Accomack,"{""51001"": 100}",Accomack,51001,False,False,America/New_York,"(37.95461, -75.33759)",55.975223298515246,5335038.0,72_0_no,37.32000446520205,-75.97352897179076,100.0
23337,37.93332,-75.46691,Wallops Island,VA,Virginia,True,,302.0,19.1,51001,Accomack,"{""51001"": 100}",Accomack,51001,False,False,America/New_York,"(37.93332, -75.46691)",50.63887218332749,5335038.0,72_0_no,37.32000446520205,-75.97352897179076,100.0
23347,37.36026,-75.96798,Eastville,VA,Virginia,True,,778.0,28.2,51131,Northampton,"{""51131"": 100}",Northampton,51131,False,False,America/New_York,"(37.36026, -75.96798)",2.798045647429631,5335038.0,72_0_no,37.32000446520205,-75.97352897179076,100.0
23350,37.51489,-75.87428,Exmore,VA,Virginia,True,,3468.0,40.7,51131,Northampton,"{""51131"": 100}",Northampton,51131,False,False,America/New_York,"(37.51489, -75.87428)",14.525068200633921,5335038.0,72_0_no,37.32000446520205,-75.97352897179076,100.0
23354,37.47806,-75.90225,Franktown,VA,Virginia,True,,237.0,14.5,51131,Northampton,"{""51131"": 100}",Northampton,51131,False,False,America/New_York,"(37.47806, -75.90225)",11.600294564575343,5335038.0,72_0_no,37.32000446520205,-75.97352897179076,100.0
23356,37.9905,-75.39228,Greenbackville,VA,Virginia,True,,1384.0,150.4,51001,Accomack,"{""51001"": 100}",Accomack,51001,False,False,America/New_York,"(37.9905, -75.39228)",56.187785531964266,5335038.0,72_0_no,37.32000446520205,-75.97352897179076,100.0
23357,37.75862,-75.67459,Greenbush,VA,Virginia,True,,707.0,47.4,51001,Accomack,"{""51001"": 100}",Accomack,51001,False,False,America/New_York,"(37.75862, -75.67459)",34.44779298919427,5335038.0,72_0_no,37.32000446520205,-75.97352897179076,100.0
23358,37.64406,-75.86495,Hacksneck,VA,Virginia,True,,108.0,7.5,51001,Accomack,"{""51001"": 100}",Accomack,51001,False,False,America/New_York,"(37.64406, -75.86495)",23.168030116633602,5335038.0,72_0_no,37.32000446520205,-75.97352897179076,100.0
23359,37.88643,-75.60422,Hallwood,VA,Virginia,True,,1192.0,34.9,51001,Accomack,"{""51001"": 100}",Accomack,51001,False,False,America/New_York,"(37.88643, -75.60422)",44.04904621663622,5335038.0,72_0_no,37.32000446520205,-75.97352897179076,100.0
23389,37.65731,-75.83226,Harborton,VA,Virginia,True,,214.0,93.0,51001,Accomack,"{""51001"": 100}",Accomack,51001,False,False,America/New_York,"(37.65731, -75.83226)",24.55878066535032,5335038.0,72_0_no,37.32000446520205,-75.97352897179076,100.0
23395,37.97051,-75.45159,Horntown,VA,Virginia,True,,349.0,18.5,51001,Accomack,"{""51001"": 100}",Accomack,51001,False,False,America/New_York,"(37.97051, -75.45159)",53.24894310049225,5335038.0,72_0_no,37.32000446520205,-75.97352897179076,100.0
23398,37.52054,-75.93971,Jamesville,VA,Virginia,True,,37.0,11.1,51131,Northampton,"{""51131"": 100}",Northampton,51131,False,False,America/New_York,"(37.52054, -75.93971)",13.979411337634575,5335038.0,72_0_no,37.32000446520205,-75.97352897179076,100.0
23401,37.62776,-75.77843,Keller,VA,Virginia,True,,304.0,54.7,51001,Accomack,"{""51001"": 100}",Accomack,51001,False,False,America/New_York,"(37.62776, -75.77843)",23.803425596496723,5335038.0,72_0_no,37.32000446520205,-75.97352897179076,100.0
23405,37.41466,-75.91969,Machipongo,VA,Virginia,True,,962.0,14.5,51131,Northampton,"{""51131"": 100}",Northampton,51131,False,False,America/New_York,"(37.41466, -75.91969)",7.177265425809661,5335038.0,72_0_no,37.32000446520205,-75.97352897179076,100.0
23407,37.8432,-75.55362,Mappsville,VA,Virginia,True,,894.0,57.0,51001,Accomack,"{""51001"": 100}",Accomack,51001,False,False,America/New_York,"(37.8432, -75.55362)",42.841725554179575,5335038.0,72_0_no,37.32000446520205,-75.97352897179076,100.0
23408,37.4533,-75.84587,Marionville,VA,Virginia,True,,101.0,36.5,51131,Northampton,"{""51131"": 100}",Northampton,51131,False,False,America/New_York,"(37.4533, -75.84587)",11.57313310082105,5335038.0,72_0_no,37.32000446520205,-75.97352897179076,100.0
23409,37.88017,-75.64709,Mears,VA,Virginia,True,,110.0,5.4,51001,Accomack,"{""51001"": 100}",Accomack,51001,False,False,America/New_York,"(37.88017, -75.64709)",42.6298768655813,5335038.0,72_0_no,37.32000446520205,-75.97352897179076,100.0
23410,37.63802,-75.74306,Melfa,VA,Virginia,True,,1826.0,24.8,51001,Accomack,"{""51001"": 100}",Accomack,51001,False,False,America/New_York,"(37.63802, -75.74306)",25.3474084165404,5335038.0,72_0_no,37.32000446520205,-75.97352897179076,100.0
23413,37.4653,-75.85356,Nassawadox,VA,Virginia,True,,725.0,37.7,51131,Northampton,"{""51131"": 100}",Northampton,51131,False,False,America/New_York,"(37.4653, -75.85356)",12.006285701563844,5335038.0,72_0_no,37.32000446520205,-75.97352897179076,100.0
23414,37.81375,-75.58688,Nelsonia,VA,Virginia,True,,156.0,187.0,51001,Accomack,"{""51001"": 100}",Accomack,51001,False,False,America/New_York,"(37.81375, -75.58688)",40.15209990377604,5335038.0,72_0_no,37.32000446520205,-75.97352897179076,100.0
23415,37.97459,-75.53443,New Church,VA,Virginia,True,,1582.0,19.3,51001,Accomack,"{""51001"": 100}",Accomack,51001,False,False,America/New_York,"(37.97459, -75.53443)",51.210966384116794,5335038.0,72_0_no,37.32000446520205,-75.97352897179076,100.0
23416,37.93371,-75.557,Oak Hall,VA,Virginia,True,,160.0,8.9,51001,Accomack,"{""51001"": 100}",Accomack,51001,False,False,America/New_York,"(37.93371, -75.557)",48.14083270164612,5335038.0,72_0_no,37.32000446520205,-75.97352897179076,100.0
23417,37.73061,-75.76687,Onancock,VA,Virginia,True,,3383.0,27.6,51001,Accomack,"{""51001"": 100}",Accomack,51001,False,False,America/New_York,"(37.73061, -75.76687)",30.546725720870825,5335038.0,72_0_no,37.32000446520205,-75.97352897179076,100.0
23418,37.63821,-75.66926,Onley,VA,Virginia,True,,771.0,21.9,51001,Accomack,"{""51001"": 100}",Accomack,51001,False,False,America/New_York,"(37.63821, -75.66926)",27.59911426050852,5335038.0,72_0_no,37.32000446520205,-75.97352897179076,100.0
23420,37.58275,-75.81166,Painter,VA,Virginia,True,,3610.0,39.1,51001,Accomack,"{""51001"": 100}",Accomack,51001,False,False,America/New_York,"(37.58275, -75.81166)",20.208864672673055,5335038.0,72_0_no,37.32000446520205,-75.97352897179076,100.0
23421,37.76564,-75.61429,Parksley,VA,Virginia,True,,3755.0,45.0,51001,Accomack,"{""51001"": 100}",Accomack,51001,False,False,America/New_York,"(37.76564, -75.61429)",36.54274916586383,5335038.0,72_0_no,37.32000446520205,-75.97352897179076,100.0
23422,37.63647,-75.82397,Pungoteague,VA,Virginia,True,,58.0,6.4,51001,Accomack,"{""51001"": 100}",Accomack,51001,False,False,America/New_York,"(37.63647, -75.82397)",23.35287025695246,5335038.0,72_0_no,37.32000446520205,-75.97352897179076,100.0
23423,37.52361,-75.73969,Quinby,VA,Virginia,True,,333.0,8.8,51001,Accomack,"{""51001"": 100}",Accomack,51001,False,False,America/New_York,"(37.52361, -75.73969)",19.040682347255217,5335038.0,72_0_no,37.32000446520205,-75.97352897179076,100.0
23426,37.92706,-75.67506,Sanford,VA,Virginia,True,,70.0,6.8,51001,Accomack,"{""51001"": 100}",Accomack,51001,False,False,America/New_York,"(37.92706, -75.67506)",45.01156186626987,5335038.0,72_0_no,37.32000446520205,-75.97352897179076,100.0
23427,37.9124,-75.71344,Saxis,VA,Virginia,True,,298.0,23.6,51001,Accomack,"{""51001"": 100}",Accomack,51001,False,False,America/New_York,"(37.9124, -75.71344)",43.33518133650847,5335038.0,72_0_no,37.32000446520205,-75.97352897179076,100.0
23430,36.98615,-76.66337,Smithfield,VA,Virginia,True,,17493.0,64.9,51093,Isle of Wight,"{""51093"": 97.05, ""51181"": 2.95}",Isle of Wight|Surry,51093|51181,False,False,America/New_York,"(36.98615, -76.66337)",44.44364651344084,5335038.0,72_0_no,37.32000446520205,-75.97352897179076,100.0
23432,36.87099,-76.55097,Suffolk,VA,Virginia,True,,1451.0,41.3,51800,Suffolk,"{""51800"": 100}",Suffolk,51800,False,False,America/New_York,"(36.87099, -76.55097)",44.443182762165385,5335038.0,72_0_no,37.32000446520205,-75.97352897179076,100.0
23433,36.90763,-76.49183,Suffolk,VA,Virginia,True,,1105.0,248.8,51800,Suffolk,"{""51800"": 100}",Suffolk,51800,False,False,America/New_York,"(36.90763, -76.49183)",40.340028129168964,5335038.0,72_0_no,37.32000446520205,-75.97352897179076,100.0
23434,36.70163,-76.59074,Suffolk,VA,Virginia,True,,49583.0,92.6,51800,Suffolk,"{""51800"": 100}",Suffolk,51800,False,False,America/New_York,"(36.70163, -76.59074)",54.635696424956095,5335038.0,72_0_no,37.32000446520205,-75.97352897179076,100.0
23435,36.83751,-76.4803,Suffolk,VA,Virginia,True,,32137.0,347.8,51800,Suffolk,"{""51800"": 100}",Suffolk,51800,False,False,America/New_York,"(36.83751, -76.4803)",43.493801175567924,5335038.0,72_0_no,37.32000446520205,-75.97352897179076,100.0
23436,36.89516,-76.50873,Suffolk,VA,Virginia,True,,1064.0,263.8,51800,Suffolk,"{""51800"": 100}",Suffolk,51800,False,False,America/New_York,"(36.89516, -76.50873)",41.6094807975545,5335038.0,72_0_no,37.32000446520205,-75.97352897179076,100.0
23437,36.63533,-76.80256,Suffolk,VA,Virginia,True,,4488.0,17.3,51800,Suffolk,"{""51800"": 100}",Suffolk,51800,False,False,America/New_York,"(36.63533, -76.80256)",65.81624915063773,5335038.0,72_0_no,37.32000446520205,-75.97352897179076,100.0
23438,36.58116,-76.69749,Suffolk,VA,Virginia,True,,1555.0,15.1,51800,Suffolk,"{""51800"": 100}",Suffolk,51800,False,False,America/New_York,"(36.58116, -76.69749)",64.83763800563283,5335038.0,72_0_no,37.32000446520205,-75.97352897179076,100.0
23440,37.83048,-75.99019,Tangier,VA,Virginia,True,,506.0,123.2,51001,Accomack,"{""51001"": 100}",Accomack,51001,False,False,America/New_York,"(37.83048, -75.99019)",35.28229809516714,5335038.0,72_0_no,37.32000446520205,-75.97352897179076,100.0
23441,37.71208,-75.69943,Tasley,VA,Virginia,True,,68.0,130.9,51001,Accomack,"{""51001"": 100}",Accomack,51001,False,False,America/New_York,"(37.71208, -75.69943)",30.975902307076403,5335038.0,72_0_no,37.32000446520205,-75.97352897179076,100.0
23442,37.90127,-75.56874,Temperanceville,VA,Virginia,True,,1167.0,25.7,51001,Accomack,"{""51001"": 100}",Accomack,51001,False,False,America/New_York,"(37.90127, -75.56874)",45.867445032043165,5335038.0,72_0_no,37.32000446520205,-75.97352897179076,100.0
23451,36.87175,-76.00689,Virginia Beach,VA,Virginia,True,,41512.0,810.9,51810,Virginia Beach,"{""51810"": 100}",Virginia Beach,51810,False,False,America/New_York,"(36.87175, -76.00689)",31.02595571142889,5335038.0,72_0_no,37.32000446520205,-75.97352897179076,100.0
23452,36.84604,-76.09197,Virginia Beach,VA,Virginia,True,,56392.0,1439.5,51810,Virginia Beach,"{""51810"": 100}",Virginia Beach,51810,False,False,America/New_York,"(36.84604, -76.09197)",33.392222814235474,5335038.0,72_0_no,37.32000446520205,-75.97352897179076,100.0
23453,36.785,-76.07679,Virginia Beach,VA,Virginia,True,,34377.0,1454.6,51810,Virginia Beach,"{""51810"": 100}",Virginia Beach,51810,False,False,America/New_York,"(36.785, -76.07679)",37.40125801539098,5335038.0,72_0_no,37.32000446520205,-75.97352897179076,100.0
23454,36.83216,-76.02616,Virginia Beach,VA,Virginia,True,,57508.0,987.3,51810,Virginia Beach,"{""51810"": 100}",Virginia Beach,51810,False,False,America/New_York,"(36.83216, -76.02616)",33.83147318809289,5335038.0,72_0_no,37.32000446520205,-75.97352897179076,100.0
23455,36.88974,-76.1441,Virginia Beach,VA,Virginia,True,,49405.0,1256.9,51810,Virginia Beach,"{""51810"": 100}",Virginia Beach,51810,False,False,America/New_York,"(36.88974, -76.1441)",31.17890209389568,5335038.0,72_0_no,37.32000446520205,-75.97352897179076,100.0
23456,36.73435,-76.03492,Virginia Beach,VA,Virginia,True,,57705.0,444.4,51810,Virginia Beach,"{""51810"": 100}",Virginia Beach,51810,False,False,America/New_York,"(36.73435, -76.03492)",40.606316111214475,5335038.0,72_0_no,37.32000446520205,-75.97352897179076,100.0
23457,36.61686,-76.01576,Virginia Beach,VA,Virginia,True,,4695.0,26.7,51810,Virginia Beach,"{""51810"": 100}",Virginia Beach,51810,False,False,America/New_York,"(36.61686, -76.01576)",48.63855601263696,5335038.0,72_0_no,37.32000446520205,-75.97352897179076,100.0
23462,36.8366,-76.15105,Virginia Beach,VA,Virginia,True,,67963.0,2379.3,51810,Virginia Beach,"{""51810"": 100}",Virginia Beach,51810,False,False,America/New_York,"(36.8366, -76.15105)",34.804034029022795,5335038.0,72_0_no,37.32000446520205,-75.97352897179076,100.0
23464,36.79732,-76.17899,Virginia Beach,VA,Virginia,True,,77623.0,1798.1,51810,Virginia Beach,"{""51810"": 100}",Virginia Beach,51810,False,False,America/New_York,"(36.79732, -76.17899)",37.849195969607074,5335038.0,72_0_no,37.32000446520205,-75.97352897179076,100.0
23480,37.61388,-75.69077,Wachapreague,VA,Virginia,True,,309.0,61.9,51001,Accomack,"{""51001"": 100}",Accomack,51001,False,False,America/New_York,"(37.61388, -75.69077)",25.548686248236777,5335038.0,72_0_no,37.32000446520205,-75.97352897179076,100.0
23486,37.5177,-75.80824,Willis Wharf,VA,Virginia,True,,19.0,20.9,51131,Northampton,"{""51131"": 100}",Northampton,51131,False,False,America/New_York,"(37.5177, -75.80824)",16.39663870262806,5335038.0,72_0_no,37.32000446520205,-75.97352897179076,100.0
23487,36.85197,-76.72303,Windsor,VA,Virginia,True,,6187.0,25.0,51093,Isle of Wight,"{""51093"": 100}",Isle of Wight,51093,False,False,America/New_York,"(36.85197, -76.72303)",52.46252213280489,5335038.0,72_0_no,37.32000446520205,-75.97352897179076,100.0
23488,37.95237,-75.60831,Withams,VA,Virginia,True,,682.0,36.3,51001,Accomack,"{""51001"": 100}",Accomack,51001,False,False,America/New_York,"(37.95237, -75.60831)",48.04507107070804,5335038.0,72_0_no,37.32000446520205,-75.97352897179076,100.0
23502,36.86274,-76.20983,Norfolk,VA,Virginia,True,,20642.0,804.5,51710,Norfolk,"{""51710"": 100}",Norfolk,51710,False,False,America/New_York,"(36.86274, -76.20983)",34.17291319770182,5335038.0,72_0_no,37.32000446520205,-75.97352897179076,100.0
23503,36.94727,-76.26223,Norfolk,VA,Virginia,True,,32815.0,2511.1,51710,Norfolk,"{""51710"": 100}",Norfolk,51710,False,False,America/New_York,"(36.94727, -76.26223)",30.267691272648804,5335038.0,72_0_no,37.32000446520205,-75.97352897179076,100.0
23504,36.85677,-76.26568,Norfolk,VA,Virginia,True,,24354.0,2299.0,51710,Norfolk,"{""51710"": 100}",Norfolk,51710,False,False,America/New_York,"(36.85677, -76.26568)",35.82864823777348,5335038.0,72_0_no,37.32000446520205,-75.97352897179076,100.0
23505,36.91418,-76.29081,Norfolk,VA,Virginia,True,,29508.0,1734.1,51710,Norfolk,"{""51710"": 100}",Norfolk,51710,False,False,America/New_York,"(36.91418, -76.29081)",33.04242697712253,5335038.0,72_0_no,37.32000446520205,-75.97352897179076,100.0
23507,36.8642,-76.30304,Norfolk,VA,Virginia,True,,6528.0,2776.7,51710,Norfolk,"{""51710"": 100}",Norfolk,51710,False,False,America/New_York,"(36.8642, -76.30304)",36.3540109673012,5335038.0,72_0_no,37.32000446520205,-75.97352897179076,100.0
23508,36.8844,-76.30898,Norfolk,VA,Virginia,True,,21627.0,2499.7,51710,Norfolk,"{""51710"": 100}",Norfolk,51710,False,False,America/New_York,"(36.8844, -76.30898)",35.32081439075324,5335038.0,72_0_no,37.32000446520205,-75.97352897179076,100.0
23509,36.88215,-76.26203,Norfolk,VA,Virginia,True,,12961.0,1967.1,51710,Norfolk,"{""51710"": 100}",Norfolk,51710,False,False,America/New_York,"(36.88215, -76.26203)",34.17590137808868,5335038.0,72_0_no,37.32000446520205,-75.97352897179076,100.0
23510,36.8518,-76.29154,Norfolk,VA,Virginia,True,,9216.0,3095.6,51710,Norfolk,"{""51710"": 100}",Norfolk,51710,False,False,America/New_York,"(36.8518, -76.29154)",36.79325615109757,5335038.0,72_0_no,37.32000446520205,-75.97352897179076,100.0
23511,36.94,-76.30055,Norfolk,VA,Virginia,True,,13926.0,1051.2,51710,Norfolk,"{""51710"": 100}",Norfolk,51710,False,False,America/New_York,"(36.94, -76.30055)",31.84144806692208,5335038.0,72_0_no,37.32000446520205,-75.97352897179076,100.0
23513,36.88948,-76.23831,Norfolk,VA,Virginia,True,,30836.0,2347.8,51710,Norfolk,"{""51710"": 100}",Norfolk,51710,False,False,America/New_York,"(36.88948, -76.23831)",33.1320253709127,5335038.0,72_0_no,37.32000446520205,-75.97352897179076,100.0
23517,36.86927,-76.29198,Norfolk,VA,Virginia,True,,4129.0,1930.1,51710,Norfolk,"{""51710"": 100}",Norfolk,51710,False,False,America/New_York,"(36.86927, -76.29198)",35.74750673189275,5335038.0,72_0_no,37.32000446520205,-75.97352897179076,100.0
