zip,lat,lng,city,state_id,state_name,zcta,parent_zcta,population,density,county_fips,county_name,county_weights,county_names_all,county_fips_all,imprecise,military,timezone,Coord,distance_miles,market_total_population,market_id,market_center_lat,market_center_lng,radius_miles
67009,37.22153,-98.26369,Attica,KS,Kansas,True,,925.0,2.6,20077,Harper,"{""20077"": 100}",Harper,20077,False,False,America/Chicago,"(37.22153, -98.26369)",112.46286119351907,364789.0,83_0_yes,36.23493591092959,-99.87903497380684,100.0
67028,37.47226,-98.96561,Coats,KS,Kansas,True,,311.0,0.6,20097,Kiowa,"{""20097"": 42.17, ""20151"": 38.14, ""20007"": 19.7}",Kiowa|Pratt|Barber,20097|20151|20007,False,False,America/Chicago,"(37.47226, -98.96561)",99.29086925573137,364789.0,83_0_yes,36.23493591092959,-99.87903497380684,100.0
67029,37.16925,-99.28026,Coldwater,KS,Kansas,True,,1065.0,1.0,20033,Comanche,"{""20033"": 97.88, ""20097"": 2.12}",Comanche|Kiowa,20033|20097,False,False,America/Chicago,"(37.16925, -99.28026)",72.57755609945407,364789.0,83_0_yes,36.23493591092959,-99.87903497380684,100.0
67035,37.64845,-98.39338,Cunningham,KS,Kansas,True,,925.0,1.6,20095,Kingman,"{""20095"": 65.68, ""20151"": 25.32, ""20155"": 9.0}",Kingman|Pratt|Reno,20095|20151|20155,False,False,America/Chicago,"(37.64845, -98.39338)",127.5467864946729,364789.0,83_0_yes,36.23493591092959,-99.87903497380684,100.0
67054,37.57658,-99.31884,Greensburg,KS,Kansas,True,,1220.0,2.1,20097,Kiowa,"{""20097"": 96.38, ""20047"": 3.62}",Kiowa|Edwards,20097|20047,False,False,America/Chicago,"(37.57658, -99.31884)",97.72845356568237,364789.0,83_0_yes,36.23493591092959,-99.87903497380684,100.0
67057,37.05954,-98.77864,Hardtner,KS,Kansas,True,,260.0,0.7,20007,Barber,"{""20007"": 100}",Barber,20007,False,False,America/Chicago,"(37.05954, -98.77864)",83.46862555869357,364789.0,83_0_yes,36.23493591092959,-99.87903497380684,100.0
67059,37.65102,-99.10046,Haviland,KS,Kansas,True,,925.0,1.4,20097,Kiowa,"{""20097"": 71.5, ""20047"": 15.68, ""20151"": 12.82}",Kiowa|Edwards|Pratt,20097|20047|20151,False,False,America/Chicago,"(37.65102, -99.10046)",106.87058776050291,364789.0,83_0_yes,36.23493591092959,-99.87903497380684,100.0
67061,37.08593,-98.37673,Hazelton,KS,Kansas,True,,107.0,0.4,20007,Barber,"{""20007"": 66.84, ""20077"": 33.16}",Barber|Harper,20007|20077,False,False,America/Chicago,"(37.08593, -98.37673)",101.93168201135134,364789.0,83_0_yes,36.23493591092959,-99.87903497380684,100.0
67065,37.48295,-98.52989,Isabel,KS,Kansas,True,,308.0,1.6,20151,Pratt,"{""20151"": 56.47, ""20007"": 40.85, ""20095"": 2.68}",Pratt|Barber|Kingman,20151|20007|20095,False,False,America/Chicago,"(37.48295, -98.52989)",114.00734657243285,364789.0,83_0_yes,36.23493591092959,-99.87903497380684,100.0
67068,37.61991,-98.11473,Kingman,KS,Kansas,True,,4026.0,5.5,20095,Kingman,"{""20095"": 91.51, ""20155"": 8.49}",Kingman|Reno,20095|20155,False,False,America/Chicago,"(37.61991, -98.11473)",136.57111685244098,364789.0,83_0_yes,36.23493591092959,-99.87903497380684,100.0
67070,37.0696,-98.53204,Kiowa,KS,Kansas,True,,1024.0,3.8,20007,Barber,"{""20007"": 100}",Barber,20007,False,False,America/Chicago,"(37.0696, -98.53204)",94.3425479340534,364789.0,83_0_yes,36.23493591092959,-99.87903497380684,100.0
67071,37.21423,-98.88522,Lake City,KS,Kansas,True,,281.0,0.7,20007,Barber,"{""20007"": 100}",Barber,20007,False,False,America/Chicago,"(37.21423, -98.88522)",87.21879306687255,364789.0,83_0_yes,36.23493591092959,-99.87903497380684,100.0
67104,37.27286,-98.65223,Medicine Lodge,KS,Kansas,True,,2040.0,2.4,20007,Barber,"{""20007"": 100}",Barber,20007,False,False,America/Chicago,"(37.27286, -98.65223)",98.7663373625501,364789.0,83_0_yes,36.23493591092959,-99.87903497380684,100.0
67109,37.56448,-99.47914,Mullinville,KS,Kansas,True,,361.0,0.7,20097,Kiowa,"{""20097"": 100}",Kiowa,20097,False,False,America/Chicago,"(37.56448, -99.47914)",94.48234729266717,364789.0,83_0_yes,36.23493591092959,-99.87903497380684,100.0
67112,37.44915,-98.41941,Nashville,KS,Kansas,True,,196.0,1.0,20095,Kingman,"{""20095"": 80.81, ""20007"": 19.19}",Kingman|Barber,20095|20007,False,False,America/Chicago,"(37.44915, -98.41941)",116.41102488779262,364789.0,83_0_yes,36.23493591092959,-99.87903497380684,100.0
67124,37.63644,-98.77236,Pratt,KS,Kansas,True,,7801.0,10.9,20151,Pratt,"{""20151"": 100}",Pratt,20151,False,False,America/Chicago,"(37.63644, -98.77236)",114.50712329412684,364789.0,83_0_yes,36.23493591092959,-99.87903497380684,100.0
67127,37.16009,-99.49057,Protection,KS,Kansas,True,,555.0,1.2,20033,Comanche,"{""20033"": 88.44, ""20025"": 11.56}",Comanche|Clark,20033|20025,False,False,America/Chicago,"(37.16009, -99.49057)",67.44731805331737,364789.0,83_0_yes,36.23493591092959,-99.87903497380684,100.0
67134,37.48474,-98.6824,Sawyer,KS,Kansas,True,,482.0,2.6,20151,Pratt,"{""20151"": 64.72, ""20007"": 35.28}",Pratt|Barber,20151|20007,False,False,America/Chicago,"(37.48474, -98.6824)",108.77728157902553,364789.0,83_0_yes,36.23493591092959,-99.87903497380684,100.0
67138,37.25996,-98.41858,Sharon,KS,Kansas,True,,410.0,1.6,20007,Barber,"{""20007"": 100}",Barber,20007,False,False,America/Chicago,"(37.25996, -98.41858)",107.48408915271278,364789.0,83_0_yes,36.23493591092959,-99.87903497380684,100.0
67142,37.45655,-98.1094,Spivey,KS,Kansas,True,,404.0,1.4,20095,Kingman,"{""20095"": 100}",Kingman,20095,False,False,America/Chicago,"(37.45655, -98.1094)",129.2171819250421,364789.0,83_0_yes,36.23493591092959,-99.87903497380684,100.0
67143,37.33284,-98.94434,Sun City,KS,Kansas,True,,35.0,0.1,20007,Barber,"{""20007"": 100}",Barber,20007,False,False,America/Chicago,"(37.33284, -98.94434)",91.81214287635774,364789.0,83_0_yes,36.23493591092959,-99.87903497380684,100.0
67150,37.03207,-98.20187,Waldron,KS,Kansas,True,,26.0,0.6,20077,Harper,"{""20077"": 100}",Harper,20077,False,False,America/Chicago,"(37.03207, -98.20187)",108.07481952856304,364789.0,83_0_yes,36.23493591092959,-99.87903497380684,100.0
67155,37.28171,-99.13233,Wilmore,KS,Kansas,True,,139.0,0.2,20033,Comanche,"{""20033"": 87.07, ""20097"": 12.93}",Comanche|Kiowa,20033|20097,False,False,America/Chicago,"(37.28171, -99.13233)",83.30251255456992,364789.0,83_0_yes,36.23493591092959,-99.87903497380684,100.0
67159,37.42053,-98.30948,Zenda,KS,Kansas,True,,91.0,0.4,20095,Kingman,"{""20095"": 68.69, ""20077"": 31.31}",Kingman|Harper,20095|20077,False,False,America/Chicago,"(37.42053, -98.30948)",119.35032961999603,364789.0,83_0_yes,36.23493591092959,-99.87903497380684,100.0
67831,37.17956,-99.8018,Ashland,KS,Kansas,True,,1004.0,0.9,20025,Clark,"{""20025"": 100}",Clark,20025,False,False,America/Chicago,"(37.17956, -99.8018)",65.40736583145325,364789.0,83_0_yes,36.23493591092959,-99.87903497380684,100.0
67834,37.53174,-99.61886,Bucklin,KS,Kansas,True,,855.0,1.7,20057,Ford,"{""20057"": 66.64, ""20025"": 27.88, ""20097"": 5.48}",Ford|Clark|Kiowa,20057|20025|20097,False,False,America/Chicago,"(37.53174, -99.61886)",90.7468570476749,364789.0,83_0_yes,36.23493591092959,-99.87903497380684,100.0
67837,37.55615,-100.66289,Copeland,KS,Kansas,True,,1029.0,1.8,20081,Haskell,"{""20081"": 58.6, ""20069"": 32.63, ""20119"": 8.77}",Haskell|Gray|Meade,20081|20069|20119,False,False,America/Chicago,"(37.55615, -100.66289)",101.04018821667393,364789.0,83_0_yes,36.23493591092959,-99.87903497380684,100.0
67840,37.0736,-100.01097,Englewood,KS,Kansas,True,,92.0,1.1,20025,Clark,"{""20025"": 100}",Clark,20025,False,False,America/Chicago,"(37.0736, -100.01097)",58.40581281204615,364789.0,83_0_yes,36.23493591092959,-99.87903497380684,100.0
67841,37.62997,-100.22878,Ensign,KS,Kansas,True,,313.0,1.1,20069,Gray,"{""20069"": 60.85, ""20057"": 39.15}",Gray|Ford,20069|20057,False,False,America/Chicago,"(37.62997, -100.22878)",98.30386663904675,364789.0,83_0_yes,36.23493591092959,-99.87903497380684,100.0
67842,37.54766,-99.77138,Ford,KS,Kansas,True,,362.0,0.8,20057,Ford,"{""20057"": 75.28, ""20025"": 24.72}",Ford|Clark,20057|20025,False,False,America/Chicago,"(37.54766, -99.77138)",90.89545454517787,364789.0,83_0_yes,36.23493591092959,-99.87903497380684,100.0
67844,37.37798,-100.19562,Fowler,KS,Kansas,True,,744.0,1.2,20119,Meade,"{""20119"": 82.16, ""20057"": 10.02, ""20069"": 7.82}",Meade|Ford|Gray,20119|20057|20069,False,False,America/Chicago,"(37.37798, -100.19562)",80.89524093921987,364789.0,83_0_yes,36.23493591092959,-99.87903497380684,100.0
67859,37.23636,-100.77421,Kismet,KS,Kansas,True,,591.0,1.2,20175,Seward,"{""20175"": 100}",Seward,20175,False,False,America/Chicago,"(37.23636, -100.77421)",85.11314445283746,364789.0,83_0_yes,36.23493591092959,-99.87903497380684,100.0
67864,37.17178,-100.31807,Meade,KS,Kansas,True,,1702.0,1.4,20119,Meade,"{""20119"": 100}",Meade,20119,False,False,America/Chicago,"(37.17178, -100.31807)",69.14755962518801,364789.0,83_0_yes,36.23493591092959,-99.87903497380684,100.0
67865,37.4368,-99.96506,Minneola,KS,Kansas,True,,980.0,1.4,20025,Clark,"{""20025"": 62.88, ""20057"": 37.12}",Clark|Ford,20025|20057,False,False,America/Chicago,"(37.4368, -99.96506)",83.17703382018793,364789.0,83_0_yes,36.23493591092959,-99.87903497380684,100.0
67867,37.56812,-100.45804,Montezuma,KS,Kansas,True,,1752.0,3.0,20069,Gray,"{""20069"": 84.63, ""20119"": 15.37}",Gray|Meade,20069|20119,False,False,America/Chicago,"(37.56812, -100.45804)",97.5107025863906,364789.0,83_0_yes,36.23493591092959,-99.87903497380684,100.0
67869,37.24489,-100.57358,Plains,KS,Kansas,True,,1589.0,2.0,20119,Meade,"{""20119"": 83.52, ""20175"": 16.48}",Meade|Seward,20119|20175,False,False,America/Chicago,"(37.24489, -100.57358)",79.6754012056408,364789.0,83_0_yes,36.23493591092959,-99.87903497380684,100.0
67870,37.53255,-101.01829,Satanta,KS,Kansas,True,,1377.0,2.0,20081,Haskell,"{""20081"": 75.45, ""20175"": 13.4, ""20067"": 11.15}",Haskell|Seward|Grant,20081|20175|20067,False,False,America/Chicago,"(37.53255, -101.01829)",109.55290937805354,364789.0,83_0_yes,36.23493591092959,-99.87903497380684,100.0
67877,37.54887,-100.84342,Sublette,KS,Kansas,True,,2249.0,3.2,20081,Haskell,"{""20081"": 92.86, ""20175"": 7.14}",Haskell|Seward,20081|20175,False,False,America/Chicago,"(37.54887, -100.84342)",105.26783788139275,364789.0,83_0_yes,36.23493591092959,-99.87903497380684,100.0
67880,37.60489,-101.32384,Ulysses,KS,Kansas,True,,7444.0,4.3,20067,Grant,"{""20067"": 80.43, ""20093"": 18.06, ""20075"": 1.51}",Grant|Kearny|Hamilton,20067|20093|20075,False,False,America/Chicago,"(37.60489, -101.32384)",123.80652113773031,364789.0,83_0_yes,36.23493591092959,-99.87903497380684,100.0
67901,37.0943,-100.89864,Liberal,KS,Kansas,True,,21282.0,26.5,20175,Seward,"{""20175"": 93.65, ""20189"": 6.35}",Seward|Stevens,20175|20189,False,False,America/Chicago,"(37.0943, -100.89864)",81.96760798646017,364789.0,83_0_yes,36.23493591092959,-99.87903497380684,100.0
67951,37.1639,-101.33486,Hugoton,KS,Kansas,True,,4847.0,3.7,20189,Stevens,"{""20189"": 100}",Stevens,20189,False,False,America/Chicago,"(37.1639, -101.33486)",103.07085061652322,364789.0,83_0_yes,36.23493591092959,-99.87903497380684,100.0
67952,37.29886,-101.13934,Moscow,KS,Kansas,True,,556.0,1.1,20189,Stevens,"{""20189"": 73.04, ""20175"": 26.96}",Stevens|Seward,20189|20175,False,False,America/Chicago,"(37.29886, -101.13934)",101.33762735040337,364789.0,83_0_yes,36.23493591092959,-99.87903497380684,100.0
67954,37.17999,-101.61179,Rolla,KS,Kansas,True,,817.0,1.2,20129,Morton,"{""20129"": 79.08, ""20189"": 20.92}",Morton|Stevens,20129|20189,False,False,America/Chicago,"(37.17999, -101.61179)",116.08278898360908,364789.0,83_0_yes,36.23493591092959,-99.87903497380684,100.0
73005,35.05439,-98.23762,Anadarko,OK,Oklahoma,True,,9368.0,21.6,40015,Caddo,"{""40015"": 100}",Caddo,40015,False,False,America/Chicago,"(35.05439, -98.23762)",123.07070595970085,364789.0,83_0_yes,36.23493591092959,-99.87903497380684,100.0
73006,34.90587,-98.40583,Apache,OK,Oklahoma,True,,3037.0,6.7,40015,Caddo,"{""40015"": 80.36, ""40031"": 19.64}",Caddo|Comanche,40015|40031,False,False,America/Chicago,"(34.90587, -98.40583)",123.63988321816852,364789.0,83_0_yes,36.23493591092959,-99.87903497380684,100.0
73009,35.28544,-98.37016,Binger,OK,Oklahoma,True,,1125.0,5.7,40015,Caddo,"{""40015"": 100}",Caddo,40015,False,False,America/Chicago,"(35.28544, -98.37016)",107.05238667873573,364789.0,83_0_yes,36.23493591092959,-99.87903497380684,100.0
73014,35.58152,-98.1409,Calumet,OK,Oklahoma,True,,1623.0,4.0,40017,Canadian,"{""40017"": 100}",Canadian,40017,False,False,America/Chicago,"(35.58152, -98.1409)",107.23487388456797,364789.0,83_0_yes,36.23493591092959,-99.87903497380684,100.0
73015,35.07648,-98.59016,Carnegie,OK,Oklahoma,True,,2930.0,5.4,40015,Caddo,"{""40015"": 74.18, ""40075"": 14.56, ""40149"": 11.26}",Caddo|Kiowa|Washita,40015|40075|40149,False,False,America/Chicago,"(35.07648, -98.59016)",107.89757278030356,364789.0,83_0_yes,36.23493591092959,-99.87903497380684,100.0
73017,34.92651,-98.09546,Cement,OK,Oklahoma,True,,1376.0,6.6,40015,Caddo,"{""40015"": 48.26, ""40051"": 47.64, ""40031"": 4.09}",Caddo|Grady|Comanche,40015|40051|40031,False,False,America/Chicago,"(34.92651, -98.09546)",134.96861310287542,364789.0,83_0_yes,36.23493591092959,-99.87903497380684,100.0
73021,35.33802,-98.67007,Colony,OK,Oklahoma,True,,177.0,1.0,40149,Washita,"{""40149"": 78.28, ""40015"": 21.72}",Washita|Caddo,40149|40015,False,False,America/Chicago,"(35.33802, -98.67007)",91.82400635850152,364789.0,83_0_yes,36.23493591092959,-99.87903497380684,100.0
73024,35.36608,-98.81508,Corn,OK,Oklahoma,True,,717.0,5.8,40149,Washita,"{""40149"": 100}",Washita,40149,False,False,America/Chicago,"(35.36608, -98.81508)",84.60812009605036,364789.0,83_0_yes,36.23493591092959,-99.87903497380684,100.0
73029,34.89999,-98.21016,Cyril,OK,Oklahoma,True,,1672.0,15.1,40015,Caddo,"{""40015"": 100}",Caddo,40015,False,False,America/Chicago,"(34.89999, -98.21016)",131.54400196344494,364789.0,83_0_yes,36.23493591092959,-99.87903497380684,100.0
73033,35.30709,-98.55502,Eakly,OK,Oklahoma,True,,523.0,21.1,40015,Caddo,"{""40015"": 100}",Caddo,40015,False,False,America/Chicago,"(35.30709, -98.55502)",98.07455063821182,364789.0,83_0_yes,36.23493591092959,-99.87903497380684,100.0
73038,35.1214,-98.44306,Fort Cobb,OK,Oklahoma,True,,1930.0,5.5,40015,Caddo,"{""40015"": 100}",Caddo,40015,False,False,America/Chicago,"(35.1214, -98.44306)",111.41914155590794,364789.0,83_0_yes,36.23493591092959,-99.87903497380684,100.0
73040,35.64442,-98.37861,Geary,OK,Oklahoma,True,,1456.0,2.3,40011,Blaine,"{""40011"": 68.88, ""40017"": 31.12}",Blaine|Canadian,40011|40017,False,False,America/Chicago,"(35.64442, -98.37861)",93.3241722658913,364789.0,83_0_yes,36.23493591092959,-99.87903497380684,100.0
73041,35.03594,-98.88064,Gotebo,OK,Oklahoma,True,,354.0,1.1,40075,Kiowa,"{""40075"": 79.72, ""40149"": 20.28}",Kiowa|Washita,40075|40149,False,False,America/Chicago,"(35.03594, -98.88064)",100.02935130598608,364789.0,83_0_yes,36.23493591092959,-99.87903497380684,100.0
73042,35.23019,-98.25151,Gracemont,OK,Oklahoma,True,,1030.0,3.5,40015,Caddo,"{""40015"": 100}",Caddo,40015,False,False,America/Chicago,"(35.23019, -98.25151)",114.67816592977043,364789.0,83_0_yes,36.23493591092959,-99.87903497380684,100.0
73043,35.73609,-98.3939,Greenfield,OK,Oklahoma,True,,189.0,4.7,40011,Blaine,"{""40011"": 100}",Blaine,40011,False,False,America/Chicago,"(35.73609, -98.3939)",89.89919443276459,364789.0,83_0_yes,36.23493591092959,-99.87903497380684,100.0
73047,35.45658,-98.31553,Hinton,OK,Oklahoma,True,,5018.0,13.6,40015,Caddo,"{""40015"": 55.93, ""40017"": 44.07}",Caddo|Canadian,40015|40017,False,False,America/Chicago,"(35.45658, -98.31553)",102.76054194015215,364789.0,83_0_yes,36.23493591092959,-99.87903497380684,100.0
73048,35.48929,-98.55378,Hydro,OK,Oklahoma,True,,2820.0,5.7,40015,Caddo,"{""40015"": 71.55, ""40011"": 21.49, ""40039"": 6.96}",Caddo|Blaine|Custer,40015|40011|40039,False,False,America/Chicago,"(35.48929, -98.55378)",90.33707015596308,364789.0,83_0_yes,36.23493591092959,-99.87903497380684,100.0
73053,35.36248,-98.41841,Lookeba,OK,Oklahoma,True,,708.0,3.6,40015,Caddo,"{""40015"": 100}",Caddo,40015,False,False,America/Chicago,"(35.36248, -98.41841)",101.65304561996537,364789.0,83_0_yes,36.23493591092959,-99.87903497380684,100.0
73062,35.02929,-98.73478,Mountain View,OK,Oklahoma,True,,1178.0,2.0,40075,Kiowa,"{""40075"": 75.24, ""40149"": 24.76}",Kiowa|Washita,40075|40149,False,False,America/Chicago,"(35.02929, -98.73478)",105.20435573420171,364789.0,83_0_yes,36.23493591092959,-99.87903497380684,100.0
73096,35.51305,-98.7295,Weatherford,OK,Oklahoma,True,,13846.0,27.7,40039,Custer,"{""40039"": 69.38, ""40149"": 29.59, ""40011"": 1.03}",Custer|Washita|Blaine,40039|40149|40011,False,False,America/Chicago,"(35.51305, -98.7295)",81.42269685209814,364789.0,83_0_yes,36.23493591092959,-99.87903497380684,100.0
73526,34.79244,-99.26704,Blair,OK,Oklahoma,True,,2298.0,11.1,40065,Jackson,"{""40065"": 85.2, ""40055"": 14.8}",Jackson|Greer,40065|40055,False,False,America/Chicago,"(34.79244, -99.26704)",105.44193696228895,364789.0,83_0_yes,36.23493591092959,-99.87903497380684,100.0
73541,34.78716,-98.1788,Fletcher,OK,Oklahoma,True,,3329.0,14.9,40031,Comanche,"{""40031"": 100}",Comanche,40031,False,False,America/Chicago,"(34.78716, -98.1788)",138.3801382543717,364789.0,83_0_yes,36.23493591092959,-99.87903497380684,100.0
73547,34.98651,-99.40507,Granite,OK,Oklahoma,True,,1916.0,6.3,40055,Greer,"{""40055"": 100}",Greer,40055,False,False,America/Chicago,"(34.98651, -99.40507)",90.2728981733469,364789.0,83_0_yes,36.23493591092959,-99.87903497380684,100.0
73554,34.85562,-99.60118,Mangum,OK,Oklahoma,True,,3401.0,3.7,40055,Greer,"{""40055"": 85.55, ""40057"": 13.42, ""40065"": 1.03}",Greer|Harmon|Jackson,40055|40057|40065,False,False,America/Chicago,"(34.85562, -99.60118)",96.57316397507547,364789.0,83_0_yes,36.23493591092959,-99.87903497380684,100.0
73564,34.84444,-99.00729,Roosevelt,OK,Oklahoma,True,,407.0,0.9,40075,Kiowa,"{""40075"": 100}",Kiowa,40075,False,False,America/Chicago,"(34.84444, -99.00729)",107.851948233032,364789.0,83_0_yes,36.23493591092959,-99.87903497380684,100.0
73571,34.9325,-99.92476,Vinson,OK,Oklahoma,True,,127.0,0.5,40057,Harmon,"{""40057"": 100}",Harmon,40057,False,False,America/Chicago,"(34.9325, -99.92476)",90.02641813944034,364789.0,83_0_yes,36.23493591092959,-99.87903497380684,100.0
73601,35.49859,-98.94694,Clinton,OK,Oklahoma,True,,10265.0,28.7,40039,Custer,"{""40039"": 73.56, ""40149"": 26.44}",Custer|Washita,40039|40149,False,False,America/Chicago,"(35.49859, -98.94694)",72.88417369964294,364789.0,83_0_yes,36.23493591092959,-99.87903497380684,100.0
73620,35.61387,-99.02278,Arapaho,OK,Oklahoma,True,,1576.0,5.8,40039,Custer,"{""40039"": 100}",Custer,40039,False,False,America/Chicago,"(35.61387, -99.02278)",64.31610059524256,364789.0,83_0_yes,36.23493591092959,-99.87903497380684,100.0
73622,35.39518,-98.99791,Bessie,OK,Oklahoma,True,,323.0,2.7,40149,Washita,"{""40149"": 100}",Washita,40149,False,False,America/Chicago,"(35.39518, -98.99791)",76.18131788883885,364789.0,83_0_yes,36.23493591092959,-99.87903497380684,100.0
73624,35.35969,-99.1719,Burns Flat,OK,Oklahoma,True,,2087.0,160.0,40149,Washita,"{""40149"": 100}",Washita,40149,False,False,America/Chicago,"(35.35969, -99.1719)",72.30085173144697,364789.0,83_0_yes,36.23493591092959,-99.87903497380684,100.0
73625,35.6964,-99.19698,Butler,OK,Oklahoma,True,,589.0,1.9,40039,Custer,"{""40039"": 100}",Custer,40039,False,False,America/Chicago,"(35.6964, -99.19698)",53.28512265986337,364789.0,83_0_yes,36.23493591092959,-99.87903497380684,100.0
73626,35.43965,-99.27941,Canute,OK,Oklahoma,True,,1047.0,3.5,40149,Washita,"{""40149"": 54.78, ""40039"": 45.22}",Washita|Custer,40149|40039,False,False,America/Chicago,"(35.43965, -99.27941)",64.40040315962759,364789.0,83_0_yes,36.23493591092959,-99.87903497380684,100.0
73627,35.20169,-99.45218,Carter,OK,Oklahoma,True,,479.0,1.8,40009,Beckham,"{""40009"": 98.05, ""40149"": 1.95}",Beckham|Washita,40009|40149,False,False,America/Chicago,"(35.20169, -99.45218)",75.29895837407929,364789.0,83_0_yes,36.23493591092959,-99.87903497380684,100.0
73628,35.62668,-99.68783,Cheyenne,OK,Oklahoma,True,,1789.0,1.8,40129,Roger Mills,"{""40129"": 100}",Roger Mills,40129,False,False,America/Chicago,"(35.62668, -99.68783)",43.366512824093924,364789.0,83_0_yes,36.23493591092959,-99.87903497380684,100.0
73632,35.27036,-98.90853,Cordell,OK,Oklahoma,True,,3063.0,5.3,40149,Washita,"{""40149"": 100}",Washita,40149,False,False,America/Chicago,"(35.27036, -98.90853)",86.03987662466804,364789.0,83_0_yes,36.23493591092959,-99.87903497380684,100.0
73638,35.86532,-99.79059,Crawford,OK,Oklahoma,True,,96.0,0.3,40129,Roger Mills,"{""40129"": 100}",Roger Mills,40129,False,False,America/Chicago,"(35.86532, -99.79059)",26.011563211497343,364789.0,83_0_yes,36.23493591092959,-99.87903497380684,100.0
73639,35.72666,-98.95578,Custer City,OK,Oklahoma,True,,537.0,1.1,40039,Custer,"{""40039"": 100}",Custer,40039,False,False,America/Chicago,"(35.72666, -98.95578)",62.43328600477995,364789.0,83_0_yes,36.23493591092959,-99.87903497380684,100.0
73641,35.26875,-99.20252,Dill City,OK,Oklahoma,True,,452.0,2.6,40149,Washita,"{""40149"": 100}",Washita,40149,False,False,America/Chicago,"(35.26875, -99.20252)",76.78168802631602,364789.0,83_0_yes,36.23493591092959,-99.87903497380684,100.0
73642,35.81909,-99.90887,Durham,OK,Oklahoma,True,,96.0,0.4,40129,Roger Mills,"{""40129"": 100}",Roger Mills,40129,False,False,America/Chicago,"(35.81909, -99.90887)",28.78054107403235,364789.0,83_0_yes,36.23493591092959,-99.87903497380684,100.0
73644,35.40327,-99.42718,Elk City,OK,Oklahoma,True,,14097.0,29.4,40009,Beckham,"{""40009"": 80.29, ""40149"": 14.81, ""40129"": 2.79, ""40039"": 2.11}",Beckham|Washita|Roger Mills|Custer,40009|40149|40129|40039,False,False,America/Chicago,"(35.40327, -99.42718)",62.79171217624965,364789.0,83_0_yes,36.23493591092959,-99.87903497380684,100.0
73645,35.16954,-99.87038,Erick,OK,Oklahoma,True,,1158.0,1.7,40009,Beckham,"{""40009"": 100}",Beckham,40009,False,False,America/Chicago,"(35.16954, -99.87038)",73.61344770916236,364789.0,83_0_yes,36.23493591092959,-99.87903497380684,100.0
73646,35.82624,-98.61928,Fay,OK,Oklahoma,True,,394.0,1.3,40011,Blaine,"{""40011"": 61.3, ""40043"": 29.31, ""40039"": 9.39}",Blaine|Dewey|Custer,40011|40043|40039,False,False,America/Chicago,"(35.82624, -98.61928)",75.84223769450709,364789.0,83_0_yes,36.23493591092959,-99.87903497380684,100.0
73647,35.44786,-99.16124,Foss,OK,Oklahoma,True,,546.0,1.5,40149,Washita,"{""40149"": 59.77, ""40039"": 40.23}",Washita|Custer,40149|40039,False,False,America/Chicago,"(35.44786, -99.16124)",67.6286819305306,364789.0,83_0_yes,36.23493591092959,-99.87903497380684,100.0
73650,35.64173,-99.41729,Hammon,OK,Oklahoma,True,,1017.0,1.9,40129,Roger Mills,"{""40129"": 69.36, ""40039"": 30.64}",Roger Mills|Custer,40129|40039,False,False,America/Chicago,"(35.64173, -99.41729)",48.44698625311914,364789.0,83_0_yes,36.23493591092959,-99.87903497380684,100.0
73651,35.02479,-99.06957,Hobart,OK,Oklahoma,True,,4239.0,9.3,40075,Kiowa,"{""40075"": 100}",Kiowa,40075,False,False,America/Chicago,"(35.02479, -99.06957)",95.17058201844507,364789.0,83_0_yes,36.23493591092959,-99.87903497380684,100.0
73654,35.85908,-99.37483,Leedey,OK,Oklahoma,True,,933.0,1.1,40129,Roger Mills,"{""40129"": 49.45, ""40043"": 36.18, ""40039"": 14.37}",Roger Mills|Dewey|Custer,40129|40043|40039,False,False,America/Chicago,"(35.85908, -99.37483)",38.311551316545085,364789.0,83_0_yes,36.23493591092959,-99.87903497380684,100.0
73655,34.98189,-99.25267,Lone Wolf,OK,Oklahoma,True,,814.0,1.8,40075,Kiowa,"{""40075"": 97.26, ""40149"": 2.74}",Kiowa|Washita,40075|40149,False,False,America/Chicago,"(34.98189, -99.25267)",93.45320256402822,364789.0,83_0_yes,36.23493591092959,-99.87903497380684,100.0
73658,35.94776,-98.71784,Oakwood,OK,Oklahoma,True,,240.0,1.0,40043,Dewey,"{""40043"": 95.2, ""40011"": 4.8}",Dewey|Blaine,40043|40011,False,False,America/Chicago,"(35.94776, -98.71784)",67.80072354815134,364789.0,83_0_yes,36.23493591092959,-99.87903497380684,100.0
73659,35.87337,-98.94582,Putnam,OK,Oklahoma,True,,138.0,0.4,40043,Dewey,"{""40043"": 100}",Dewey,40043,False,False,America/Chicago,"(35.87337, -98.94582)",57.8053320575899,364789.0,83_0_yes,36.23493591092959,-99.87903497380684,100.0
73660,35.62561,-99.91688,Reydon,OK,Oklahoma,True,,295.0,0.9,40129,Roger Mills,"{""40129"": 100}",Roger Mills,40129,False,False,America/Chicago,"(35.62561, -99.91688)",42.15361786534131,364789.0,83_0_yes,36.23493591092959,-99.87903497380684,100.0
73661,35.17033,-99.0176,Rocky,OK,Oklahoma,True,,535.0,2.7,40149,Washita,"{""40149"": 100}",Washita,40149,False,False,America/Chicago,"(35.17033, -99.0176)",88.01467290834906,364789.0,83_0_yes,36.23493591092959,-99.87903497380684,100.0
73662,35.31533,-99.66273,Sayre,OK,Oklahoma,True,,6509.0,7.5,40009,Beckham,"{""40009"": 90.21, ""40129"": 9.79}",Beckham|Roger Mills,40009|40129,False,False,America/Chicago,"(35.31533, -99.66273)",64.6852715082762,364789.0,83_0_yes,36.23493591092959,-99.87903497380684,100.0
73663,36.10622,-98.90291,Seiling,OK,Oklahoma,True,,1606.0,4.4,40043,Dewey,"{""40043"": 94.55, ""40093"": 3.27, ""40153"": 2.18}",Dewey|Major|Woodward,40043|40093|40153,False,False,America/Chicago,"(36.10622, -98.90291)",55.1662468814809,364789.0,83_0_yes,36.23493591092959,-99.87903497380684,100.0
73664,35.17475,-99.2369,Sentinel,OK,Oklahoma,True,,1254.0,4.9,40149,Washita,"{""40149"": 100}",Washita,40149,False,False,America/Chicago,"(35.17475, -99.2369)",81.63171689391835,364789.0,83_0_yes,36.23493591092959,-99.87903497380684,100.0
73666,35.42036,-99.92412,Sweetwater,OK,Oklahoma,True,,240.0,0.7,40129,Roger Mills,"{""40129"": 53.34, ""40009"": 46.66}",Roger Mills|Beckham,40129|40009,False,False,America/Chicago,"(35.42036, -99.92412)",56.33847300305235,364789.0,83_0_yes,36.23493591092959,-99.87903497380684,100.0
73667,36.00523,-99.03062,Taloga,OK,Oklahoma,True,,538.0,1.3,40043,Dewey,"{""40043"": 100}",Dewey,40043,False,False,America/Chicago,"(36.00523, -99.03062)",49.94096410549781,364789.0,83_0_yes,36.23493591092959,-99.87903497380684,100.0
73669,35.75095,-98.74281,Thomas,OK,Oklahoma,True,,1721.0,4.6,40039,Custer,"{""40039"": 75.89, ""40043"": 18.47, ""40011"": 5.64}",Custer|Dewey|Blaine,40039|40043|40011,False,False,America/Chicago,"(35.75095, -98.74281)",71.7822505420308,364789.0,83_0_yes,36.23493591092959,-99.87903497380684,100.0
73673,35.04649,-99.63762,Willow,OK,Oklahoma,True,,404.0,0.7,40055,Greer,"{""40055"": 90.98, ""40009"": 9.02}",Greer|Beckham,40055|40009,False,False,America/Chicago,"(35.04649, -99.63762)",83.22509682859769,364789.0,83_0_yes,36.23493591092959,-99.87903497380684,100.0
73716,36.48417,-98.55316,Aline,OK,Oklahoma,True,,561.0,1.3,40151,Woods,"{""40151"": 57.46, ""40003"": 34.39, ""40093"": 8.15}",Woods|Alfalfa|Major,40151|40003|40093,False,False,America/Chicago,"(36.48417, -98.55316)",75.7565039342396,364789.0,83_0_yes,36.23493591092959,-99.87903497380684,100.0
73717,36.84161,-98.77807,Alva,OK,Oklahoma,True,,6896.0,3.9,40151,Woods,"{""40151"": 94.51, ""40003"": 5.49}",Woods|Alfalfa,40151|40003,False,False,America/Chicago,"(36.84161, -98.77807)",74.11081343030554,364789.0,83_0_yes,36.23493591092959,-99.87903497380684,100.0
73718,36.20799,-98.16898,Ames,OK,Oklahoma,True,,490.0,2.2,40093,Major,"{""40093"": 76.27, ""40073"": 16.75, ""40047"": 6.98}",Major|Kingfisher|Garfield,40093|40073|40047,False,False,America/Chicago,"(36.20799, -98.16898)",95.33601748964846,364789.0,83_0_yes,36.23493591092959,-99.87903497380684,100.0
73719,36.96026,-98.26746,Amorita,OK,Oklahoma,True,,92.0,0.8,40003,Alfalfa,"{""40003"": 100}",Alfalfa,40003,False,False,America/Chicago,"(36.96026, -98.26746)",102.48258079596712,364789.0,83_0_yes,36.23493591092959,-99.87903497380684,100.0
73722,36.90196,-98.36445,Burlington,OK,Oklahoma,True,,363.0,0.9,40003,Alfalfa,"{""40003"": 100}",Alfalfa,40003,False,False,America/Chicago,"(36.90196, -98.36445)",95.8521226258944,364789.0,83_0_yes,36.23493591092959,-99.87903497380684,100.0
73724,36.03757,-98.67235,Canton,OK,Oklahoma,True,,1050.0,3.0,40043,Dewey,"{""40043"": 56.48, ""40011"": 43.52}",Dewey|Blaine,40043|40011,False,False,America/Chicago,"(36.03757, -98.67235)",68.70072663420831,364789.0,83_0_yes,36.23493591092959,-99.87903497380684,100.0
73726,36.58022,-98.50405,Carmen,OK,Oklahoma,True,,416.0,1.7,40003,Alfalfa,"{""40003"": 60.11, ""40151"": 39.89}",Alfalfa|Woods,40003|40151,False,False,America/Chicago,"(36.58022, -98.50405)",80.09396671575723,364789.0,83_0_yes,36.23493591092959,-99.87903497380684,100.0
73728,36.73508,-98.39376,Cherokee,OK,Oklahoma,True,,2082.0,3.6,40003,Alfalfa,"{""40003"": 100}",Alfalfa,40003,False,False,America/Chicago,"(36.73508, -98.39376)",89.45281613638002,364789.0,83_0_yes,36.23493591092959,-99.87903497380684,100.0
73729,36.39723,-98.45256,Cleo Springs,OK,Oklahoma,True,,624.0,3.3,40093,Major,"{""40093"": 84.25, ""40151"": 15.75}",Major|Woods,40093|40151,False,False,America/Chicago,"(36.39723, -98.45256)",80.20291254770892,364789.0,83_0_yes,36.23493591092959,-99.87903497380684,100.0
73731,36.64397,-98.59915,Dacoma,OK,Oklahoma,True,,111.0,1.2,40151,Woods,"{""40151"": 100}",Woods,40151,False,False,America/Chicago,"(36.64397, -98.59915)",76.54905320372708,364789.0,83_0_yes,36.23493591092959,-99.87903497380684,100.0
73737,36.29133,-98.58517,Fairview,OK,Oklahoma,True,,3656.0,5.4,40093,Major,"{""40093"": 100}",Major,40093,False,False,America/Chicago,"(36.29133, -98.58517)",72.18675100114358,364789.0,83_0_yes,36.23493591092959,-99.87903497380684,100.0
73739,36.51999,-98.13697,Goltry,OK,Oklahoma,True,,365.0,2.8,40003,Alfalfa,"{""40003"": 76.94, ""40047"": 23.06}",Alfalfa|Garfield,40003|40047,False,False,America/Chicago,"(36.51999, -98.13697)",98.88890953774695,364789.0,83_0_yes,36.23493591092959,-99.87903497380684,100.0
73741,36.55071,-98.26619,Helena,OK,Oklahoma,True,,1540.0,6.6,40003,Alfalfa,"{""40003"": 100}",Alfalfa,40003,False,False,America/Chicago,"(36.55071, -98.26619)",92.31709922974326,364789.0,83_0_yes,36.23493591092959,-99.87903497380684,100.0
73744,35.94912,-98.29643,Hitchcock,OK,Oklahoma,True,,108.0,0.4,40011,Blaine,"{""40011"": 95.28, ""40073"": 4.72}",Blaine|Kingfisher,40011|40073,False,False,America/Chicago,"(35.94912, -98.29643)",90.53940596679583,364789.0,83_0_yes,36.23493591092959,-99.87903497380684,100.0
73746,36.6882,-98.66202,Hopeton,OK,Oklahoma,True,,42.0,32.9,40151,Woods,"{""40151"": 100}",Woods,40151,False,False,America/Chicago,"(36.6882, -98.66202)",74.52661715002893,364789.0,83_0_yes,36.23493591092959,-99.87903497380684,100.0
73747,36.23358,-98.33964,Isabella,OK,Oklahoma,True,,295.0,2.3,40093,Major,"{""40093"": 100}",Major,40093,False,False,America/Chicago,"(36.23358, -98.33964)",85.79153709061137,364789.0,83_0_yes,36.23493591092959,-99.87903497380684,100.0
73749,36.70566,-98.16283,Jet,OK,Oklahoma,True,,498.0,2.1,40003,Alfalfa,"{""40003"": 100}",Alfalfa,40003,False,False,America/Chicago,"(36.70566, -98.16283)",100.74882289494191,364789.0,83_0_yes,36.23493591092959,-99.87903497380684,100.0
73754,36.39016,-98.09455,Lahoma,OK,Oklahoma,True,,981.0,7.8,40047,Garfield,"{""40047"": 61.87, ""40093"": 36.07, ""40003"": 2.06}",Garfield|Major|Alfalfa,40047|40093|40003,False,False,America/Chicago,"(36.39016, -98.09455)",99.92760078099002,364789.0,83_0_yes,36.23493591092959,-99.87903497380684,100.0
73755,36.13717,-98.5889,Longdale,OK,Oklahoma,True,,627.0,2.9,40011,Blaine,"{""40011"": 57.82, ""40093"": 26.31, ""40043"": 15.87}",Blaine|Major|Dewey,40011|40093|40043,False,False,America/Chicago,"(36.13717, -98.5889)",72.26099242342224,364789.0,83_0_yes,36.23493591092959,-99.87903497380684,100.0
73756,35.97507,-98.11439,Loyal,OK,Oklahoma,True,,360.0,1.9,40073,Kingfisher,"{""40073"": 100}",Kingfisher,40073,False,False,America/Chicago,"(35.97507, -98.11439)",100.12959033912162,364789.0,83_0_yes,36.23493591092959,-99.87903497380684,100.0
73760,36.38658,-98.1693,Meno,OK,Oklahoma,True,,358.0,2.7,40093,Major,"{""40093"": 95.25, ""40003"": 4.75}",Major|Alfalfa,40093|40003,False,False,America/Chicago,"(36.38658, -98.1693)",95.76591569457345,364789.0,83_0_yes,36.23493591092959,-99.87903497380684,100.0
73763,36.10302,-98.3201,Okeene,OK,Oklahoma,True,,1586.0,3.2,40011,Blaine,"{""40011"": 74.7, ""40073"": 13.52, ""40093"": 11.78}",Blaine|Kingfisher|Major,40011|40073|40093,False,False,America/Chicago,"(36.10302, -98.3201)",87.42926813803884,364789.0,83_0_yes,36.23493591092959,-99.87903497380684,100.0
73764,35.85738,-98.20307,Omega,OK,Oklahoma,True,,245.0,2.1,40073,Kingfisher,"{""40073"": 58.36, ""40011"": 41.64}",Kingfisher|Blaine,40073|40011,False,False,America/Chicago,"(35.85738, -98.20307)",97.19248948366746,364789.0,83_0_yes,36.23493591092959,-99.87903497380684,100.0
73768,36.36265,-98.27907,Ringwood,OK,Oklahoma,True,,1633.0,5.6,40093,Major,"{""40093"": 98.19, ""40003"": 1.81}",Major|Alfalfa,40093|40003,False,False,America/Chicago,"(36.36265, -98.27907)",89.52923815496285,364789.0,83_0_yes,36.23493591092959,-99.87903497380684,100.0
73772,35.86327,-98.42369,Watonga,OK,Oklahoma,True,,4057.0,6.5,40011,Blaine,"{""40011"": 100}",Blaine,40011,False,False,America/Chicago,"(35.86327, -98.42369)",85.25798564874025,364789.0,83_0_yes,36.23493591092959,-99.87903497380684,100.0
73801,36.4733,-99.4307,Woodward,OK,Oklahoma,True,,15285.0,12.9,40153,Woodward,"{""40153"": 78.37, ""40059"": 21.63}",Woodward|Harper,40153|40059,False,False,America/Chicago,"(36.4733, -99.4307)",29.893732977039278,364789.0,83_0_yes,36.23493591092959,-99.87903497380684,100.0
73832,36.05298,-99.65687,Arnett,OK,Oklahoma,True,,975.0,0.7,40045,Ellis,"{""40045"": 92.5, ""40153"": 7.5}",Ellis|Woodward,40045|40153,False,False,America/Chicago,"(36.05298, -99.65687)",17.655306991047656,364789.0,83_0_yes,36.23493591092959,-99.87903497380684,100.0
73834,36.84807,-99.57156,Buffalo,OK,Oklahoma,True,,1769.0,1.5,40059,Harper,"{""40059"": 100}",Harper,40059,False,False,America/Chicago,"(36.84807, -99.57156)",45.67264601726701,364789.0,83_0_yes,36.23493591092959,-99.87903497380684,100.0
73835,35.97327,-99.21279,Camargo,OK,Oklahoma,True,,233.0,0.6,40043,Dewey,"{""40043"": 100}",Dewey,40043,False,False,America/Chicago,"(35.97327, -99.21279)",41.35366107591033,364789.0,83_0_yes,36.23493591092959,-99.87903497380684,100.0
73838,36.24575,-98.87579,Chester,OK,Oklahoma,True,,348.0,0.8,40093,Major,"{""40093"": 82.74, ""40153"": 17.26}",Major|Woodward,40093|40153,False,False,America/Chicago,"(36.24575, -98.87579)",55.91247542245899,364789.0,83_0_yes,36.23493591092959,-99.87903497380684,100.0
73840,36.39436,-99.64581,Fargo,OK,Oklahoma,True,,632.0,1.7,40045,Ellis,"{""40045"": 74.38, ""40153"": 25.62}",Ellis|Woodward,40045|40153,False,False,America/Chicago,"(36.39436, -99.64581)",17.02737641470448,364789.0,83_0_yes,36.23493591092959,-99.87903497380684,100.0
73841,36.54799,-99.61924,Fort Supply,OK,Oklahoma,True,,1311.0,12.3,40045,Ellis,"{""40045"": 59.18, ""40153"": 40.82}",Ellis|Woodward,40045|40153,False,False,America/Chicago,"(36.54799, -99.61924)",26.012368868859365,364789.0,83_0_yes,36.23493591092959,-99.87903497380684,100.0
73842,36.8212,-99.21452,Freedom,OK,Oklahoma,True,,606.0,0.6,40151,Woods,"{""40151"": 66.9, ""40153"": 24.59, ""40059"": 8.51}",Woods|Woodward|Harper,40151|40153|40059,False,False,America/Chicago,"(36.8212, -99.21452)",54.79041966518802,364789.0,83_0_yes,36.23493591092959,-99.87903497380684,100.0
73843,36.39805,-99.83566,Gage,OK,Oklahoma,True,,732.0,0.9,40045,Ellis,"{""40045"": 93.77, ""40007"": 6.23}",Ellis|Beaver,40045|40007,False,False,America/Chicago,"(36.39805, -99.83566)",11.525910414580403,364789.0,83_0_yes,36.23493591092959,-99.87903497380684,100.0
73844,36.89715,-100.16763,Gate,OK,Oklahoma,True,,269.0,0.3,40007,Beaver,"{""40007"": 89.39, ""40059"": 10.61}",Beaver|Harper,40007|40059,False,False,America/Chicago,"(36.89715, -100.16763)",48.47645549989515,364789.0,83_0_yes,36.23493591092959,-99.87903497380684,100.0
73848,36.64843,-100.023,Laverne,OK,Oklahoma,True,,1946.0,1.4,40007,Beaver,"{""40007"": 56.65, ""40059"": 43.35}",Beaver|Harper,40007|40059,False,False,America/Chicago,"(36.64843, -100.023)",29.66918194672539,364789.0,83_0_yes,36.23493591092959,-99.87903497380684,100.0
73851,36.57298,-99.78406,May,OK,Oklahoma,True,,134.0,0.6,40045,Ellis,"{""40045"": 69.19, ""40059"": 30.81}",Ellis|Harper,40045|40059,False,False,America/Chicago,"(36.57298, -99.78406)",23.946324573499208,364789.0,83_0_yes,36.23493591092959,-99.87903497380684,100.0
73852,36.4873,-99.10798,Mooreland,OK,Oklahoma,True,,2085.0,1.9,40153,Woodward,"{""40153"": 98.37, ""40093"": 1.63}",Woodward|Major,40153|40093,False,False,America/Chicago,"(36.4873, -99.10798)",46.309871092407924,364789.0,83_0_yes,36.23493591092959,-99.87903497380684,100.0
73853,36.24333,-99.15664,Mutual,OK,Oklahoma,True,,437.0,1.2,40153,Woodward,"{""40153"": 98.71, ""40043"": 1.29}",Woodward|Dewey,40153|40043,False,False,America/Chicago,"(36.24333, -99.15664)",40.26154005455712,364789.0,83_0_yes,36.23493591092959,-99.87903497380684,100.0
73855,36.88481,-99.85877,Rosston,OK,Oklahoma,True,,116.0,0.3,40059,Harper,"{""40059"": 100}",Harper,40059,False,False,America/Chicago,"(36.88481, -99.85877)",44.91610504377321,364789.0,83_0_yes,36.23493591092959,-99.87903497380684,100.0
73857,36.27223,-99.33235,Sharon,OK,Oklahoma,True,,855.0,4.8,40153,Woodward,"{""40153"": 100}",Woodward,40153,False,False,America/Chicago,"(36.27223, -99.33235)",30.56865424039669,364789.0,83_0_yes,36.23493591092959,-99.87903497380684,100.0
73858,36.17037,-99.92442,Shattuck,OK,Oklahoma,True,,1766.0,3.0,40045,Ellis,"{""40045"": 100}",Ellis,40045,False,False,America/Chicago,"(36.17037, -99.92442)",5.128750407252557,364789.0,83_0_yes,36.23493591092959,-99.87903497380684,100.0
73859,36.13309,-99.2797,Vici,OK,Oklahoma,True,,1311.0,3.3,40043,Dewey,"{""40043"": 64.15, ""40153"": 24.37, ""40045"": 11.48}",Dewey|Woodward|Ellis,40043|40153|40045,False,False,America/Chicago,"(36.13309, -99.2797)",34.15580699789051,364789.0,83_0_yes,36.23493591092959,-99.87903497380684,100.0
73860,36.53573,-98.86265,Waynoka,OK,Oklahoma,True,,1271.0,1.5,40151,Woods,"{""40151"": 61.49, ""40093"": 38.51}",Woods|Major,40151|40093,False,False,America/Chicago,"(36.53573, -98.86265)",60.233356849600995,364789.0,83_0_yes,36.23493591092959,-99.87903497380684,100.0
73901,36.75458,-101.07517,Adams,OK,Oklahoma,True,,306.0,234.2,40139,Texas,"{""40139"": 100}",Texas,40139,False,False,America/Chicago,"(36.75458, -101.07517)",75.51913324262316,364789.0,83_0_yes,36.23493591092959,-99.87903497380684,100.0
73931,36.60097,-100.80329,Balko,OK,Oklahoma,True,,559.0,1.0,40007,Beaver,"{""40007"": 100}",Beaver,40007,False,False,America/Chicago,"(36.60097, -100.80329)",57.27438681011094,364789.0,83_0_yes,36.23493591092959,-99.87903497380684,100.0
73932,36.7,-100.51914,Beaver,OK,Oklahoma,True,,2074.0,1.5,40007,Beaver,"{""40007"": 100}",Beaver,40007,False,False,America/Chicago,"(36.7, -100.51914)",47.932452549645426,364789.0,83_0_yes,36.23493591092959,-99.87903497380684,100.0
73938,36.92585,-100.58497,Forgan,OK,Oklahoma,True,,819.0,1.5,40007,Beaver,"{""40007"": 100}",Beaver,40007,False,False,America/Chicago,"(36.92585, -100.58497)",61.74897630702791,364789.0,83_0_yes,36.23493591092959,-99.87903497380684,100.0
73942,36.74452,-101.49555,Guymon,OK,Oklahoma,True,,12980.0,8.3,40139,Texas,"{""40139"": 100}",Texas,40139,False,False,America/Chicago,"(36.74452, -101.49555)",96.44947850636537,364789.0,83_0_yes,36.23493591092959,-99.87903497380684,100.0
73944,36.58511,-101.10339,Hardesty,OK,Oklahoma,True,,463.0,0.9,40139,Texas,"{""40139"": 100}",Texas,40139,False,False,America/Chicago,"(36.58511, -101.10339)",72.25179427591233,364789.0,83_0_yes,36.23493591092959,-99.87903497380684,100.0
73945,36.8321,-101.22474,Hooker,OK,Oklahoma,True,,2369.0,2.3,40139,Texas,"{""40139"": 100}",Texas,40139,False,False,America/Chicago,"(36.8321, -101.22474)",85.34468784843293,364789.0,83_0_yes,36.23493591092959,-99.87903497380684,100.0
73950,36.85193,-100.88621,Turpin,OK,Oklahoma,True,,1471.0,2.5,40007,Beaver,"{""40007"": 80.07, ""40139"": 19.93}",Beaver|Texas,40007|40139,False,False,America/Chicago,"(36.85193, -100.88621)",70.30625824269063,364789.0,83_0_yes,36.23493591092959,-99.87903497380684,100.0
73951,36.95004,-101.05463,Tyrone,OK,Oklahoma,True,,1403.0,6.5,40139,Texas,"{""40139"": 100}",Texas,40139,False,False,America/Chicago,"(36.95004, -101.05463)",81.81786244890695,364789.0,83_0_yes,36.23493591092959,-99.87903497380684,100.0
79003,35.63873,-100.0881,Allison,TX,Texas,True,,202.0,1.6,48211,Hemphill,"{""48211"": 74.6, ""48483"": 25.4}",Hemphill|Wheeler,48211|48483,False,False,America/Chicago,"(35.63873, -100.0881)",42.821980853109686,364789.0,83_0_yes,36.23493591092959,-99.87903497380684,100.0
79005,36.3874,-100.50627,Booker,TX,Texas,True,,1610.0,3.1,48295,Lipscomb,"{""48295"": 73.96, ""48357"": 26.04}",Lipscomb|Ochiltree,48295|48357,False,False,America/Chicago,"(36.3874, -100.50627)",36.47632584352659,364789.0,83_0_yes,36.23493591092959,-99.87903497380684,100.0
79007,35.66635,-101.41444,Borger,TX,Texas,True,,13936.0,121.1,48233,Hutchinson,"{""48233"": 100}",Hutchinson,48233,False,False,America/Chicago,"(35.66635, -101.41444)",94.43681584122912,364789.0,83_0_yes,36.23493591092959,-99.87903497380684,100.0
79011,35.63111,-100.20866,Briscoe,TX,Texas,True,,202.0,0.6,48483,Wheeler,"{""48483"": 50.57, ""48211"": 49.43}",Wheeler|Hemphill,48483|48211,False,False,America/Chicago,"(35.63111, -100.20866)",45.61415454546559,364789.0,83_0_yes,36.23493591092959,-99.87903497380684,100.0
79014,35.91912,-100.32123,Canadian,TX,Texas,True,,3844.0,1.6,48211,Hemphill,"{""48211"": 78.21, ""48295"": 18.73, ""48393"": 3.06}",Hemphill|Lipscomb|Roberts,48211|48295|48393,False,False,America/Chicago,"(35.91912, -100.32123)",32.95319865033183,364789.0,83_0_yes,36.23493591092959,-99.87903497380684,100.0
79019,34.98099,-101.39288,Claude,TX,Texas,True,,1890.0,1.3,48011,Armstrong,"{""48011"": 97.05, ""48381"": 2.95}",Armstrong|Randall,48011|48381,False,False,America/Chicago,"(34.98099, -101.39288)",121.396788944719,364789.0,83_0_yes,36.23493591092959,-99.87903497380684,100.0
79024,36.43877,-100.35188,Darrouzett,TX,Texas,True,,393.0,2.9,48295,Lipscomb,"{""48295"": 100}",Lipscomb,48295,False,False,America/Chicago,"(36.43877, -100.35188)",29.84897517489983,364789.0,83_0_yes,36.23493591092959,-99.87903497380684,100.0
79033,36.30684,-100.97661,Farnsworth,TX,Texas,True,,49.0,5.7,48357,Ochiltree,"{""48357"": 100}",Ochiltree,48357,False,False,America/Chicago,"(36.30684, -100.97661)",61.34172282779495,364789.0,83_0_yes,36.23493591092959,-99.87903497380684,100.0
79034,36.37524,-100.16581,Follett,TX,Texas,True,,501.0,0.7,48295,Lipscomb,"{""48295"": 100}",Lipscomb,48295,False,False,America/Chicago,"(36.37524, -100.16581)",18.680113669741864,364789.0,83_0_yes,36.23493591092959,-99.87903497380684,100.0
79036,35.59727,-101.54826,Fritch,TX,Texas,True,,5245.0,25.5,48065,Carson,"{""48065"": 64.27, ""48233"": 28.01, ""48375"": 4.48, ""48341"": 3.24}",Carson|Hutchinson|Potter|Moore,48065|48233|48375|48341,False,False,America/Chicago,"(35.59727, -101.54826)",103.27254876466758,364789.0,83_0_yes,36.23493591092959,-99.87903497380684,100.0
79039,35.25237,-101.12206,Groom,TX,Texas,True,,844.0,1.4,48065,Carson,"{""48065"": 52.37, ""48179"": 35.2, ""48011"": 7.36, ""48129"": 5.07}",Carson|Gray|Armstrong|Donley,48065|48179|48011|48129,False,False,America/Chicago,"(35.25237, -101.12206)",97.30188134575253,364789.0,83_0_yes,36.23493591092959,-99.87903497380684,100.0
79040,36.30113,-101.57841,Gruver,TX,Texas,True,,2085.0,1.3,48195,Hansford,"{""48195"": 62.99, ""48421"": 37.01}",Hansford|Sherman,48195|48421,False,False,America/Chicago,"(36.30113, -101.57841)",94.77653383032978,364789.0,83_0_yes,36.23493591092959,-99.87903497380684,100.0
79046,36.14237,-100.10709,Higgins,TX,Texas,True,,757.0,1.6,48295,Lipscomb,"{""48295"": 87.17, ""48211"": 12.83}",Lipscomb|Hemphill,48295|48211,False,False,America/Chicago,"(36.14237, -100.10709)",14.234882676316184,364789.0,83_0_yes,36.23493591092959,-99.87903497380684,100.0
79054,35.42894,-100.78086,Lefors,TX,Texas,True,,584.0,4.0,48179,Gray,"{""48179"": 100}",Gray,48179,False,False,America/Chicago,"(35.42894, -100.78086)",75.1872861288731,364789.0,83_0_yes,36.23493591092959,-99.87903497380684,100.0
79056,36.21724,-100.22139,Lipscomb,TX,Texas,True,,60.0,0.6,48295,Lipscomb,"{""48295"": 100}",Lipscomb,48295,False,False,America/Chicago,"(36.21724, -100.22139)",19.12098407692478,364789.0,83_0_yes,36.23493591092959,-99.87903497380684,100.0
79057,35.20638,-100.62157,Mclean,TX,Texas,True,,1320.0,1.3,48179,Gray,"{""48179"": 44.27, ""48129"": 35.62, ""48483"": 13.86, ""48087"": 6.25}",Gray|Donley|Wheeler|Collingsworth,48179|48129|48483|48087,False,False,America/Chicago,"(35.20638, -100.62157)",82.37262103271723,364789.0,83_0_yes,36.23493591092959,-99.87903497380684,100.0
79059,35.79825,-100.73531,Miami,TX,Texas,True,,652.0,0.6,48393,Roberts,"{""48393"": 89.06, ""48179"": 10.94}",Roberts|Gray,48393|48179,False,False,America/Chicago,"(35.79825, -100.73531)",56.57117041232934,364789.0,83_0_yes,36.23493591092959,-99.87903497380684,100.0
79061,35.51987,-100.45706,Mobeetie,TX,Texas,True,,182.0,0.4,48483,Wheeler,"{""48483"": 90.95, ""48179"": 9.05}",Wheeler|Gray,48483|48179,False,False,America/Chicago,"(35.51987, -100.45706)",59.06054768121165,364789.0,83_0_yes,36.23493591092959,-99.87903497380684,100.0
79062,35.99616,-101.52733,Morse,TX,Texas,True,,267.0,1.0,48233,Hutchinson,"{""48233"": 82.66, ""48195"": 17.34}",Hutchinson|Hansford,48233|48195,False,False,America/Chicago,"(35.99616, -101.52733)",93.46705821352096,364789.0,83_0_yes,36.23493591092959,-99.87903497380684,100.0
79065,35.52363,-100.90378,Pampa,TX,Texas,True,,20148.0,15.4,48179,Gray,"{""48179"": 77.71, ""48393"": 22.29}",Gray|Roberts,48179|48393,False,False,America/Chicago,"(35.52363, -100.90378)",75.54065038406804,364789.0,83_0_yes,36.23493591092959,-99.87903497380684,100.0
79068,35.33633,-101.45226,Panhandle,TX,Texas,True,,3506.0,3.4,48065,Carson,"{""48065"": 99.11, ""48375"": 0.89}",Carson|Potter,48065|48375,False,False,America/Chicago,"(35.33633, -101.45226)",107.8411052011081,364789.0,83_0_yes,36.23493591092959,-99.87903497380684,100.0
79070,36.25346,-100.80731,Perryton,TX,Texas,True,,9652.0,4.3,48357,Ochiltree,"{""48357"": 90.18, ""48393"": 8.51, ""48295"": 1.31}",Ochiltree|Roberts|Lipscomb,48357|48393|48295,False,False,America/Chicago,"(36.25346, -100.80731)",51.7429720674021,364789.0,83_0_yes,36.23493591092959,-99.87903497380684,100.0
79078,35.69856,-101.55,Sanford,TX,Texas,True,,175.0,3.1,48233,Hutchinson,"{""48233"": 100}",Hutchinson,48233,False,False,America/Chicago,"(35.69856, -101.55)",100.52153913836791,364789.0,83_0_yes,36.23493591092959,-99.87903497380684,100.0
79079,35.20719,-100.24884,Shamrock,TX,Texas,True,,2570.0,1.7,48483,Wheeler,"{""48483"": 58.77, ""48087"": 41.23}",Wheeler|Collingsworth,48483|48087,False,False,America/Chicago,"(35.20719, -100.24884)",73.9782230325885,364789.0,83_0_yes,36.23493591092959,-99.87903497380684,100.0
79080,35.70341,-101.21116,Skellytown,TX,Texas,True,,453.0,0.9,48233,Hutchinson,"{""48233"": 86.06, ""48065"": 13.94}",Hutchinson|Carson,48233|48065,False,False,America/Chicago,"(35.70341, -101.21116)",83.05163456745625,364789.0,83_0_yes,36.23493591092959,-99.87903497380684,100.0
79081,36.21559,-101.21054,Spearman,TX,Texas,True,,3546.0,2.0,48195,Hansford,"{""48195"": 75.03, ""48233"": 11.97, ""48357"": 8.58, ""48393"": 4.42}",Hansford|Hutchinson|Ochiltree|Roberts,48195|48233|48357|48393,False,False,America/Chicago,"(36.21559, -101.21054)",74.22641188138635,364789.0,83_0_yes,36.23493591092959,-99.87903497380684,100.0
79083,35.87359,-101.51422,Stinnett,TX,Texas,True,,2108.0,2.4,48233,Hutchinson,"{""48233"": 71.62, ""48341"": 28.38}",Hutchinson|Moore,48233|48341,False,False,America/Chicago,"(35.87359, -101.51422)",94.68950396575889,364789.0,83_0_yes,36.23493591092959,-99.87903497380684,100.0
79093,36.26637,-101.02997,Waka,TX,Texas,True,,101.0,1.8,48357,Ochiltree,"{""48357"": 100}",Ochiltree,48357,False,False,America/Chicago,"(36.26637, -101.02997)",64.16596941021645,364789.0,83_0_yes,36.23493591092959,-99.87903497380684,100.0
79094,34.84546,-101.52493,Wayside,TX,Texas,True,,12.0,0.0,48011,Armstrong,"{""48011"": 100}",Armstrong,48011,False,False,America/Chicago,"(34.84546, -101.52493)",133.33497811913344,364789.0,83_0_yes,36.23493591092959,-99.87903497380684,100.0
79095,34.88485,-100.19561,Wellington,TX,Texas,True,,2677.0,2.6,48087,Collingsworth,"{""48087"": 96.54, ""48075"": 3.46}",Collingsworth|Childress,48087|48075,False,False,America/Chicago,"(34.88485, -100.19561)",94.96384850069049,364789.0,83_0_yes,36.23493591092959,-99.87903497380684,100.0
79096,35.45133,-100.1984,Wheeler,TX,Texas,True,,2175.0,3.2,48483,Wheeler,"{""48483"": 100}",Wheeler,48483,False,False,America/Chicago,"(35.45133, -100.1984)",57.020148329391716,364789.0,83_0_yes,36.23493591092959,-99.87903497380684,100.0
79097,35.43104,-101.17405,White Deer,TX,Texas,True,,1001.0,3.0,48065,Carson,"{""48065"": 94.86, ""48179"": 5.14}",Carson|Gray,48065|48179,False,False,America/Chicago,"(35.43104, -101.17405)",91.36239192751538,364789.0,83_0_yes,36.23493591092959,-99.87903497380684,100.0
79226,34.91965,-100.99229,Clarendon,TX,Texas,True,,2767.0,1.3,48129,Donley,"{""48129"": 60.37, ""48011"": 23.91, ""48045"": 13.71, ""48191"": 2.01}",Donley|Armstrong|Briscoe|Hall,48129|48011|48045|48191,False,False,America/Chicago,"(34.91965, -100.99229)",110.32702828492106,364789.0,83_0_yes,36.23493591092959,-99.87903497380684,100.0
79237,34.85566,-100.66588,Hedley,TX,Texas,True,,454.0,0.9,48129,Donley,"{""48129"": 100}",Donley,48129,False,False,America/Chicago,"(34.85566, -100.66588)",105.06365076201448,364789.0,83_0_yes,36.23493591092959,-99.87903497380684,100.0
79240,34.8836,-100.76797,Lelia Lake,TX,Texas,True,,97.0,4.4,48129,Donley,"{""48129"": 100}",Donley,48129,False,False,America/Chicago,"(34.8836, -100.76797)",105.89580836885014,364789.0,83_0_yes,36.23493591092959,-99.87903497380684,100.0
79251,34.96174,-100.45441,Quail,TX,Texas,True,,29.0,0.2,48087,Collingsworth,"{""48087"": 100}",Collingsworth,48087,False,False,America/Chicago,"(34.96174, -100.45441)",93.71996274571012,364789.0,83_0_yes,36.23493591092959,-99.87903497380684,100.0
