zip,lat,lng,city,state_id,state_name,zcta,parent_zcta,population,density,county_fips,county_name,county_weights,county_names_all,county_fips_all,imprecise,military,timezone,Coord,distance_miles,market_total_population,market_id,market_center_lat,market_center_lng,radius_miles
06333,41.38602,-72.24527,East Lyme,CT,Connecticut,True,,7021.0,115.7,9011,New London,"{""09011"": 100}",New London,09011,False,False,America/New_York,"(41.38602, -72.24527)",126.50616120740399,30474609.0,88_0_no,40.140743378953886,-74.0175675954469,100.0
06334,41.54431,-72.17424,Bozrah,CT,Connecticut,True,,2509.0,50.1,9011,New London,"{""09011"": 100}",New London,09011,False,False,America/New_York,"(41.54431, -72.17424)",136.69727292228205,30474609.0,88_0_no,40.140743378953886,-74.0175675954469,100.0
06336,41.57934,-72.19505,Gilman,CT,Connecticut,True,,159.0,100.0,9011,New London,"{""09011"": 100}",New London,09011,False,False,America/New_York,"(41.57934, -72.19505)",137.6524304426831,30474609.0,88_0_no,40.140743378953886,-74.0175675954469,100.0
06353,41.45612,-72.13928,Montville,CT,Connecticut,True,,176.0,256.5,9011,New London,"{""09011"": 100}",New London,09011,False,False,America/New_York,"(41.45612, -72.13928)",133.8276675307621,30474609.0,88_0_no,40.140743378953886,-74.0175675954469,100.0
06357,41.32711,-72.21478,Niantic,CT,Connecticut,True,,11597.0,422.9,9011,New London,"{""09011"": 100}",New London,09011,False,False,America/New_York,"(41.32711, -72.21478)",125.00567098690163,30474609.0,88_0_no,40.140743378953886,-74.0175675954469,100.0
06370,41.46541,-72.18659,Oakdale,CT,Connecticut,True,,7195.0,115.8,9011,New London,"{""09011"": 100}",New London,09011,False,False,America/New_York,"(41.46541, -72.18659)",132.45996821518344,30474609.0,88_0_no,40.140743378953886,-74.0175675954469,100.0
06371,41.36361,-72.32582,Old Lyme,CT,Connecticut,True,,9642.0,68.9,9011,New London,"{""09011"": 100}",New London,09011,False,False,America/New_York,"(41.36361, -72.32582)",122.38635145477126,30474609.0,88_0_no,40.140743378953886,-74.0175675954469,100.0
06376,41.29461,-72.2528,South Lyme,CT,Connecticut,True,,154.0,2202.4,9011,New London,"{""09011"": 100}",New London,09011,False,False,America/New_York,"(41.29461, -72.2528)",122.0484382950825,30474609.0,88_0_no,40.140743378953886,-74.0175675954469,100.0
06385,41.35735,-72.15581,Waterford,CT,Connecticut,True,,15302.0,237.8,9011,New London,"{""09011"": 100}",New London,09011,False,False,America/New_York,"(41.35735, -72.15581)",128.69023008308247,30474609.0,88_0_no,40.140743378953886,-74.0175675954469,100.0
06401,41.34424,-73.06896,Ansonia,CT,Connecticut,True,,18630.0,1193.7,9009,New Haven,"{""09009"": 100}",New Haven,09009,False,False,America/New_York,"(41.34424, -73.06896)",96.8512856160535,30474609.0,88_0_no,40.140743378953886,-74.0175675954469,100.0
06403,41.43902,-73.05679,Beacon Falls,CT,Connecticut,True,,6185.0,246.9,9009,New Haven,"{""09009"": 100}",New Haven,09009,False,False,America/New_York,"(41.43902, -73.05679)",102.82103416357211,30474609.0,88_0_no,40.140743378953886,-74.0175675954469,100.0
06405,41.28405,-72.79809,Branford,CT,Connecticut,True,,27699.0,494.6,9009,New Haven,"{""09009"": 100}",New Haven,09009,False,False,America/New_York,"(41.28405, -72.79809)",101.58092139945546,30474609.0,88_0_no,40.140743378953886,-74.0175675954469,100.0
06409,41.35169,-72.42056,Centerbrook,CT,Connecticut,True,,729.0,241.3,9007,Middlesex,"{""09007"": 100}",Middlesex,09007,False,False,America/New_York,"(41.35169, -72.42056)",118.26984558870893,30474609.0,88_0_no,40.140743378953886,-74.0175675954469,100.0
06410,41.51183,-72.90441,Cheshire,CT,Connecticut,True,,29064.0,348.0,9009,New Haven,"{""09009"": 100}",New Haven,09009,False,False,America/New_York,"(41.51183, -72.90441)",111.17953361319998,30474609.0,88_0_no,40.140743378953886,-74.0175675954469,100.0
06412,41.40594,-72.48319,Chester,CT,Connecticut,True,,4219.0,101.5,9007,Middlesex,"{""09007"": 100}",Middlesex,09007,False,False,America/New_York,"(41.40594, -72.48319)",118.68621242877533,30474609.0,88_0_no,40.140743378953886,-74.0175675954469,100.0
06413,41.29801,-72.53003,Clinton,CT,Connecticut,True,,12914.0,307.8,9007,Middlesex,"{""09007"": 100}",Middlesex,09007,False,False,America/New_York,"(41.29801, -72.53003)",111.62776909339394,30474609.0,88_0_no,40.140743378953886,-74.0175675954469,100.0
06414,41.57702,-72.55231,Cobalt,CT,Connecticut,True,,142.0,51.7,9007,Middlesex,"{""09007"": 100}",Middlesex,09007,False,False,America/New_York,"(41.57702, -72.55231)",125.33894171868057,30474609.0,88_0_no,40.140743378953886,-74.0175675954469,100.0
06415,41.55563,-72.34694,Colchester,CT,Connecticut,True,,16518.0,114.0,9011,New London,"{""09011"": 87.24, ""09007"": 12.76}",New London|Middlesex,09011|09007,False,False,America/New_York,"(41.55563, -72.34694)",131.0705448775594,30474609.0,88_0_no,40.140743378953886,-74.0175675954469,100.0
06417,41.36894,-72.46227,Deep River,CT,Connecticut,True,,4466.0,127.6,9007,Middlesex,"{""09007"": 100}",Middlesex,09007,False,False,America/New_York,"(41.36894, -72.46227)",117.58684987366273,30474609.0,88_0_no,40.140743378953886,-74.0175675954469,100.0
06418,41.32647,-73.08324,Derby,CT,Connecticut,True,,12499.0,955.9,9009,New Haven,"{""09009"": 100}",New Haven,09009,False,False,America/New_York,"(41.32647, -73.08324)",95.41730345563083,30474609.0,88_0_no,40.140743378953886,-74.0175675954469,100.0
06419,41.37923,-72.57847,Killingworth,CT,Connecticut,True,,6390.0,69.8,9007,Middlesex,"{""09007"": 100}",Middlesex,09007,False,False,America/New_York,"(41.37923, -72.57847)",113.99102962979461,30474609.0,88_0_no,40.140743378953886,-74.0175675954469,100.0
06420,41.48492,-72.26733,Salem,CT,Connecticut,True,,4098.0,53.5,9011,New London,"{""09011"": 97.94, ""09007"": 2.06}",New London|Middlesex,09011|09007,False,False,America/New_York,"(41.48492, -72.26733)",130.38771093104768,30474609.0,88_0_no,40.140743378953886,-74.0175675954469,100.0
06422,41.46221,-72.68285,Durham,CT,Connecticut,True,,7196.0,117.4,9007,Middlesex,"{""09007"": 100}",Middlesex,09007,False,False,America/New_York,"(41.46221, -72.68285)",114.930404307298,30474609.0,88_0_no,40.140743378953886,-74.0175675954469,100.0
06423,41.46654,-72.39054,East Haddam,CT,Connecticut,True,,5439.0,57.4,9007,Middlesex,"{""09007"": 100}",Middlesex,09007,False,False,America/New_York,"(41.46654, -72.39054)",125.02423074589791,30474609.0,88_0_no,40.140743378953886,-74.0175675954469,100.0
06424,41.5588,-72.50452,East Hampton,CT,Connecticut,True,,12674.0,124.8,9007,Middlesex,"{""09007"": 100}",Middlesex,09007,False,False,America/New_York,"(41.5588, -72.50452)",125.90441913852125,30474609.0,88_0_no,40.140743378953886,-74.0175675954469,100.0
06426,41.35346,-72.39791,Essex,CT,Connecticut,True,,3508.0,240.6,9007,Middlesex,"{""09007"": 100}",Middlesex,09007,False,False,America/New_York,"(41.35346, -72.39791)",119.19581297493005,30474609.0,88_0_no,40.140743378953886,-74.0175675954469,100.0
06437,41.33444,-72.70051,Guilford,CT,Connecticut,True,,22164.0,181.6,9009,New Haven,"{""09009"": 100}",New Haven,09009,False,False,America/New_York,"(41.33444, -72.70051)",107.49894098975888,30474609.0,88_0_no,40.140743378953886,-74.0175675954469,100.0
06438,41.45516,-72.50701,Haddam,CT,Connecticut,True,,2597.0,71.9,9007,Middlesex,"{""09007"": 100}",Middlesex,09007,False,False,America/New_York,"(41.45516, -72.50701)",120.37158310994617,30474609.0,88_0_no,40.140743378953886,-74.0175675954469,100.0
06441,41.46674,-72.58038,Higganum,CT,Connecticut,True,,5417.0,86.4,9007,Middlesex,"{""09007"": 100}",Middlesex,09007,False,False,America/New_York,"(41.46674, -72.58038)",118.50192339336911,30474609.0,88_0_no,40.140743378953886,-74.0175675954469,100.0
06442,41.34261,-72.44429,Ivoryton,CT,Connecticut,True,,2374.0,254.2,9007,Middlesex,"{""09007"": 100}",Middlesex,09007,False,False,America/New_York,"(41.34261, -72.44429)",116.95299930873779,30474609.0,88_0_no,40.140743378953886,-74.0175675954469,100.0
06443,41.33976,-72.62783,Madison,CT,Connecticut,True,,18065.0,192.9,9009,New Haven,"{""09009"": 100}",New Haven,09009,False,False,America/New_York,"(41.33976, -72.62783)",110.25185637206309,30474609.0,88_0_no,40.140743378953886,-74.0175675954469,100.0
06444,41.5634,-72.93038,Marion,CT,Connecticut,True,,261.0,99.0,9003,Hartford,"{""09003"": 99.74, ""09009"": 0.26}",Hartford|New Haven,09003|09009,False,False,America/New_York,"(41.5634, -72.93038)",113.5339535429073,30474609.0,88_0_no,40.140743378953886,-74.0175675954469,100.0
06450,41.53332,-72.77399,Meriden,CT,Connecticut,True,,35343.0,980.2,9009,New Haven,"{""09009"": 100}",New Haven,09009,False,False,America/New_York,"(41.53332, -72.77399)",116.11651949243397,30474609.0,88_0_no,40.140743378953886,-74.0175675954469,100.0
06451,41.54203,-72.82364,Meriden,CT,Connecticut,True,,24153.0,948.9,9009,New Haven,"{""09009"": 99.83, ""09003"": 0.17}",New Haven|Hartford,09009|09003,False,False,America/New_York,"(41.54203, -72.82364)",115.18705077894685,30474609.0,88_0_no,40.140743378953886,-74.0175675954469,100.0
06455,41.51468,-72.71732,Middlefield,CT,Connecticut,True,,2977.0,107.0,9007,Middlesex,"{""09007"": 100}",Middlesex,09007,False,False,America/New_York,"(41.51468, -72.71732)",116.75630561415876,30474609.0,88_0_no,40.140743378953886,-74.0175675954469,100.0
06456,41.541,-72.5483,Middle Haddam,CT,Connecticut,True,,211.0,61.4,9007,Middlesex,"{""09007"": 100}",Middlesex,09007,False,False,America/New_York,"(41.541, -72.5483)",123.52115032071084,30474609.0,88_0_no,40.140743378953886,-74.0175675954469,100.0
06457,41.54759,-72.65484,Middletown,CT,Connecticut,True,,46406.0,440.4,9007,Middlesex,"{""09007"": 100}",Middlesex,09007,False,False,America/New_York,"(41.54759, -72.65484)",120.50335670622977,30474609.0,88_0_no,40.140743378953886,-74.0175675954469,100.0
06460,41.21505,-73.05129,Milford,CT,Connecticut,True,,39185.0,1217.1,9009,New Haven,"{""09009"": 100}",New Haven,09009,False,False,America/New_York,"(41.21505, -73.05129)",89.85043362094171,30474609.0,88_0_no,40.140743378953886,-74.0175675954469,100.0
06461,41.23937,-73.0752,Milford,CT,Connecticut,True,,15318.0,608.1,9009,New Haven,"{""09009"": 100}",New Haven,09009,False,False,America/New_York,"(41.23937, -73.0752)",90.54939354538351,30474609.0,88_0_no,40.140743378953886,-74.0175675954469,100.0
06467,41.56548,-72.90022,Milldale,CT,Connecticut,True,,544.0,895.8,9003,Hartford,"{""09003"": 100}",Hartford,09003,False,False,America/New_York,"(41.56548, -72.90022)",114.45388936214675,30474609.0,88_0_no,40.140743378953886,-74.0175675954469,100.0
06468,41.33791,-73.22499,Monroe,CT,Connecticut,True,,19492.0,288.7,9001,Fairfield,"{""09001"": 100}",Fairfield,09001,False,False,America/New_York,"(41.33791, -73.22499)",92.53860648716588,30474609.0,88_0_no,40.140743378953886,-74.0175675954469,100.0
06469,41.50757,-72.44924,Moodus,CT,Connecticut,True,,2915.0,112.0,9007,Middlesex,"{""09007"": 100}",Middlesex,09007,False,False,America/New_York,"(41.50757, -72.44924)",125.06514812364881,30474609.0,88_0_no,40.140743378953886,-74.0175675954469,100.0
06470,41.3943,-73.31918,Newtown,CT,Connecticut,True,,16359.0,169.7,9001,Fairfield,"{""09001"": 100}",Fairfield,09001,False,False,America/New_York,"(41.3943, -73.31918)",94.00612099371108,30474609.0,88_0_no,40.140743378953886,-74.0175675954469,100.0
06471,41.33454,-72.77372,North Branford,CT,Connecticut,True,,7261.0,316.2,9009,New Haven,"{""09009"": 100}",New Haven,09009,False,False,America/New_York,"(41.33454, -72.77372)",105.08748999869928,30474609.0,88_0_no,40.140743378953886,-74.0175675954469,100.0
06472,41.38416,-72.77911,Northford,CT,Connecticut,True,,7111.0,171.0,9009,New Haven,"{""09009"": 100}",New Haven,09009,False,False,America/New_York,"(41.38416, -72.77911)",107.61443740604388,30474609.0,88_0_no,40.140743378953886,-74.0175675954469,100.0
06473,41.38069,-72.85598,North Haven,CT,Connecticut,True,,24050.0,428.9,9009,New Haven,"{""09009"": 100}",New Haven,09009,False,False,America/New_York,"(41.38069, -72.85598)",105.04632651692093,30474609.0,88_0_no,40.140743378953886,-74.0175675954469,100.0
06475,41.30174,-72.38569,Old Saybrook,CT,Connecticut,True,,10072.0,258.2,9007,Middlesex,"{""09007"": 100}",Middlesex,09007,False,False,America/New_York,"(41.30174, -72.38569)",117.20135234199596,30474609.0,88_0_no,40.140743378953886,-74.0175675954469,100.0
06477,41.2827,-73.0272,Orange,CT,Connecticut,True,,13928.0,313.0,9009,New Haven,"{""09009"": 100}",New Haven,09009,False,False,America/New_York,"(41.2827, -73.0272)",94.42188075760221,30474609.0,88_0_no,40.140743378953886,-74.0175675954469,100.0
06478,41.43133,-73.13499,Oxford,CT,Connecticut,True,,13141.0,155.0,9009,New Haven,"{""09009"": 100}",New Haven,09009,False,False,America/New_York,"(41.43133, -73.13499)",100.41400569535695,30474609.0,88_0_no,40.140743378953886,-74.0175675954469,100.0
06479,41.57799,-72.90398,Plantsville,CT,Connecticut,True,,9897.0,563.2,9003,Hartford,"{""09003"": 100}",Hartford,09003,False,False,America/New_York,"(41.57799, -72.90398)",115.09586808592147,30474609.0,88_0_no,40.140743378953886,-74.0175675954469,100.0
06481,41.53435,-72.70067,Rockfall,CT,Connecticut,True,,1398.0,282.6,9007,Middlesex,"{""09007"": 100}",Middlesex,09007,False,False,America/New_York,"(41.53435, -72.70067)",118.36203559609153,30474609.0,88_0_no,40.140743378953886,-74.0175675954469,100.0
06482,41.4067,-73.24474,Sandy Hook,CT,Connecticut,True,,11465.0,218.7,9001,Fairfield,"{""09001"": 100}",Fairfield,09001,False,False,America/New_York,"(41.4067, -73.24474)",96.36305598678315,30474609.0,88_0_no,40.140743378953886,-74.0175675954469,100.0
06483,41.381,-73.08726,Seymour,CT,Connecticut,True,,16469.0,438.0,9009,New Haven,"{""09009"": 100}",New Haven,09009,False,False,America/New_York,"(41.381, -73.08726)",98.5569944597424,30474609.0,88_0_no,40.140743378953886,-74.0175675954469,100.0
06484,41.30601,-73.13828,Shelton,CT,Connecticut,True,,41162.0,518.8,9001,Fairfield,"{""09001"": 100}",Fairfield,09001,False,False,America/New_York,"(41.30601, -73.13828)",92.74645790278836,30474609.0,88_0_no,40.140743378953886,-74.0175675954469,100.0
06488,41.47451,-73.23288,Southbury,CT,Connecticut,True,,19619.0,194.1,9009,New Haven,"{""09009"": 100}",New Haven,09009,False,False,America/New_York,"(41.47451, -73.23288)",100.87733592756545,30474609.0,88_0_no,40.140743378953886,-74.0175675954469,100.0
06492,41.45927,-72.80473,Wallingford,CT,Connecticut,True,,44428.0,431.2,9009,New Haven,"{""09009"": 100}",New Haven,09009,False,False,America/New_York,"(41.45927, -72.80473)",111.00859811687421,30474609.0,88_0_no,40.140743378953886,-74.0175675954469,100.0
06498,41.30688,-72.46652,Westbrook,CT,Connecticut,True,,6897.0,168.8,9007,Middlesex,"{""09007"": 100}",Middlesex,09007,False,False,America/New_York,"(41.30688, -72.46652)",114.40006822395596,30474609.0,88_0_no,40.140743378953886,-74.0175675954469,100.0
06510,41.3062,-72.92652,New Haven,CT,Connecticut,True,,2778.0,3983.9,9009,New Haven,"{""09009"": 100}",New Haven,09009,False,False,America/New_York,"(41.3062, -72.92652)",98.73149525492775,30474609.0,88_0_no,40.140743378953886,-74.0175675954469,100.0
06511,41.31663,-72.92587,New Haven,CT,Connecticut,True,,53859.0,3577.6,9009,New Haven,"{""09009"": 100}",New Haven,09009,False,False,America/New_York,"(41.31663, -72.92587)",99.3370969973587,30474609.0,88_0_no,40.140743378953886,-74.0175675954469,100.0
06512,41.28111,-72.8719,East Haven,CT,Connecticut,True,,28682.0,1049.3,9009,New Haven,"{""09009"": 100}",New Haven,09009,False,False,America/New_York,"(41.28111, -72.8719)",99.03551387124277,30474609.0,88_0_no,40.140743378953886,-74.0175675954469,100.0
06513,41.31953,-72.86856,New Haven,CT,Connecticut,True,,39403.0,2106.7,9009,New Haven,"{""09009"": 100}",New Haven,09009,False,False,America/New_York,"(41.31953, -72.86856)",101.25364346632121,30474609.0,88_0_no,40.140743378953886,-74.0175675954469,100.0
06514,41.3729,-72.94159,Hamden,CT,Connecticut,True,,27159.0,943.6,9009,New Haven,"{""09009"": 100}",New Haven,09009,False,False,America/New_York,"(41.3729, -72.94159)",102.07153877405075,30474609.0,88_0_no,40.140743378953886,-74.0175675954469,100.0
06515,41.32794,-72.96954,New Haven,CT,Connecticut,True,,18382.0,1557.0,9009,New Haven,"{""09009"": 100}",New Haven,09009,False,False,America/New_York,"(41.32794, -72.96954)",98.68532156364702,30474609.0,88_0_no,40.140743378953886,-74.0175675954469,100.0
06516,41.27393,-72.96718,West Haven,CT,Connecticut,True,,54666.0,1963.4,9009,New Haven,"{""09009"": 100}",New Haven,09009,False,False,America/New_York,"(41.27393, -72.96718)",95.68995490282254,30474609.0,88_0_no,40.140743378953886,-74.0175675954469,100.0
06517,41.34834,-72.90494,Hamden,CT,Connecticut,True,,14086.0,1087.0,9009,New Haven,"{""09009"": 100}",New Haven,09009,False,False,America/New_York,"(41.34834, -72.90494)",101.75214799346016,30474609.0,88_0_no,40.140743378953886,-74.0175675954469,100.0
06518,41.42744,-72.91339,Hamden,CT,Connecticut,True,,19357.0,453.0,9009,New Haven,"{""09009"": 100}",New Haven,09009,False,False,America/New_York,"(41.42744, -72.91339)",106.01902239038415,30474609.0,88_0_no,40.140743378953886,-74.0175675954469,100.0
06519,41.29597,-72.93764,New Haven,CT,Connecticut,True,,15675.0,3420.7,9009,New Haven,"{""09009"": 100}",New Haven,09009,False,False,America/New_York,"(41.29597, -72.93764)",97.82068108745364,30474609.0,88_0_no,40.140743378953886,-74.0175675954469,100.0
06524,41.42606,-72.99308,Bethany,CT,Connecticut,True,,5492.0,100.5,9009,New Haven,"{""09009"": 100}",New Haven,09009,False,False,America/New_York,"(41.42606, -72.99308)",103.72533471091832,30474609.0,88_0_no,40.140743378953886,-74.0175675954469,100.0
06525,41.35662,-73.01017,Woodbridge,CT,Connecticut,True,,8779.0,180.2,9009,New Haven,"{""09009"": 100}",New Haven,09009,False,False,America/New_York,"(41.35662, -73.01017)",99.18526371213406,30474609.0,88_0_no,40.140743378953886,-74.0175675954469,100.0
06604,41.17684,-73.20027,Bridgeport,CT,Connecticut,True,,26858.0,3286.8,9001,Fairfield,"{""09001"": 100}",Fairfield,09001,False,False,America/New_York,"(41.17684, -73.20027)",83.42484281286603,30474609.0,88_0_no,40.140743378953886,-74.0175675954469,100.0
06605,41.16348,-73.21763,Bridgeport,CT,Connecticut,True,,24541.0,4144.8,9001,Fairfield,"{""09001"": 100}",Fairfield,09001,False,False,America/New_York,"(41.16348, -73.21763)",82.16828409154098,30474609.0,88_0_no,40.140743378953886,-74.0175675954469,100.0
06606,41.21218,-73.20829,Bridgeport,CT,Connecticut,True,,47040.0,3438.3,9001,Fairfield,"{""09001"": 100}",Fairfield,09001,False,False,America/New_York,"(41.21218, -73.20829)",85.31392855765635,30474609.0,88_0_no,40.140743378953886,-74.0175675954469,100.0
06607,41.1736,-73.16696,Bridgeport,CT,Connecticut,True,,9456.0,3157.0,9001,Fairfield,"{""09001"": 100}",Fairfield,09001,False,False,America/New_York,"(41.1736, -73.16696)",84.14521996279333,30474609.0,88_0_no,40.140743378953886,-74.0175675954469,100.0
06608,41.18675,-73.1809,Bridgeport,CT,Connecticut,True,,14169.0,5322.1,9001,Fairfield,"{""09001"": 100}",Fairfield,09001,False,False,America/New_York,"(41.18675, -73.1809)",84.53357202834066,30474609.0,88_0_no,40.140743378953886,-74.0175675954469,100.0
06610,41.20457,-73.16933,Bridgeport,CT,Connecticut,True,,22914.0,2873.7,9001,Fairfield,"{""09001"": 100}",Fairfield,09001,False,False,America/New_York,"(41.20457, -73.16933)",85.8977236913212,30474609.0,88_0_no,40.140743378953886,-74.0175675954469,100.0
06611,41.26009,-73.20823,Trumbull,CT,Connecticut,True,,35907.0,594.1,9001,Fairfield,"{""09001"": 100}",Fairfield,09001,False,False,America/New_York,"(41.26009, -73.20823)",88.19577973140224,30474609.0,88_0_no,40.140743378953886,-74.0175675954469,100.0
06612,41.26493,-73.30006,Easton,CT,Connecticut,True,,7447.0,104.8,9001,Fairfield,"{""09001"": 100}",Fairfield,09001,False,False,America/New_York,"(41.26493, -73.30006)",86.28765046360168,30474609.0,88_0_no,40.140743378953886,-74.0175675954469,100.0
06614,41.22989,-73.12785,Stratford,CT,Connecticut,True,,33481.0,1167.1,9001,Fairfield,"{""09001"": 100}",Fairfield,09001,False,False,America/New_York,"(41.22989, -73.12785)",88.51990266303925,30474609.0,88_0_no,40.140743378953886,-74.0175675954469,100.0
06615,41.17082,-73.13477,Stratford,CT,Connecticut,True,,18501.0,1118.4,9001,Fairfield,"{""09001"": 100}",Fairfield,09001,False,False,America/New_York,"(41.17082, -73.13477)",84.89060775353327,30474609.0,88_0_no,40.140743378953886,-74.0175675954469,100.0
06702,41.55713,-73.04539,Waterbury,CT,Connecticut,True,,3043.0,1757.1,9009,New Haven,"{""09009"": 100}",New Haven,09009,False,False,America/New_York,"(41.55713, -73.04539)",110.26530012181263,30474609.0,88_0_no,40.140743378953886,-74.0175675954469,100.0
06704,41.58601,-73.03296,Waterbury,CT,Connecticut,True,,26209.0,1253.0,9009,New Haven,"{""09009"": 100}",New Haven,09009,False,False,America/New_York,"(41.58601, -73.03296)",112.3308908174353,30474609.0,88_0_no,40.140743378953886,-74.0175675954469,100.0
06705,41.549,-72.992,Waterbury,CT,Connecticut,True,,24910.0,1703.1,9009,New Haven,"{""09009"": 100}",New Haven,09009,False,False,America/New_York,"(41.549, -72.992)",111.08763563229698,30474609.0,88_0_no,40.140743378953886,-74.0175675954469,100.0
06706,41.53285,-73.02389,Waterbury,CT,Connecticut,True,,14198.0,1428.9,9009,New Haven,"{""09009"": 100}",New Haven,09009,False,False,America/New_York,"(41.53285, -73.02389)",109.31303212160643,30474609.0,88_0_no,40.140743378953886,-74.0175675954469,100.0
06708,41.54939,-73.06738,Waterbury,CT,Connecticut,True,,29727.0,1214.9,9009,New Haven,"{""09009"": 100}",New Haven,09009,False,False,America/New_York,"(41.54939, -73.06738)",109.26523966882479,30474609.0,88_0_no,40.140743378953886,-74.0175675954469,100.0
06710,41.56958,-73.04598,Waterbury,CT,Connecticut,True,,9740.0,3881.1,9009,New Haven,"{""09009"": 100}",New Haven,09009,False,False,America/New_York,"(41.56958, -73.04598)",111.01314463256907,30474609.0,88_0_no,40.140743378953886,-74.0175675954469,100.0
06712,41.49927,-72.97609,Prospect,CT,Connecticut,True,,9667.0,262.5,9009,New Haven,"{""09009"": 100}",New Haven,09009,False,False,America/New_York,"(41.49927, -72.97609)",108.5158823286378,30474609.0,88_0_no,40.140743378953886,-74.0175675954469,100.0
06752,41.52082,-73.35965,Bridgewater,CT,Connecticut,True,,1792.0,41.4,9005,Litchfield,"{""09005"": 100}",Litchfield,09005,False,False,America/New_York,"(41.52082, -73.35965)",101.36703079871603,30474609.0,88_0_no,40.140743378953886,-74.0175675954469,100.0
06762,41.5271,-73.1228,Middlebury,CT,Connecticut,True,,7734.0,168.2,9009,New Haven,"{""09009"": 100}",New Haven,09009,False,False,America/New_York,"(41.5271, -73.1228)",106.59709535412392,30474609.0,88_0_no,40.140743378953886,-74.0175675954469,100.0
06770,41.48913,-73.05181,Naugatuck,CT,Connecticut,True,,31396.0,740.1,9009,New Haven,"{""09009"": 100}",New Haven,09009,False,False,America/New_York,"(41.48913, -73.05181)",105.96978854024647,30474609.0,88_0_no,40.140743378953886,-74.0175675954469,100.0
06783,41.55424,-73.29998,Roxbury,CT,Connecticut,True,,2108.0,31.3,9005,Litchfield,"{""09005"": 100}",Litchfield,09005,False,False,America/New_York,"(41.55424, -73.29998)",104.61614530053095,30474609.0,88_0_no,40.140743378953886,-74.0175675954469,100.0
06784,41.58018,-73.49853,Sherman,CT,Connecticut,True,,3716.0,65.3,9001,Fairfield,"{""09001"": 99.72, ""09005"": 0.28}",Fairfield|Litchfield,09001|09005,False,False,America/New_York,"(41.58018, -73.49853)",103.08699106163766,30474609.0,88_0_no,40.140743378953886,-74.0175675954469,100.0
06798,41.56149,-73.20703,Woodbury,CT,Connecticut,True,,9529.0,101.2,9005,Litchfield,"{""09005"": 100}",Litchfield,09005,False,False,America/New_York,"(41.56149, -73.20703)",106.91294422855809,30474609.0,88_0_no,40.140743378953886,-74.0175675954469,100.0
06801,41.37468,-73.39275,Bethel,CT,Connecticut,True,,19798.0,451.9,9001,Fairfield,"{""09001"": 100}",Fairfield,09001,False,False,America/New_York,"(41.37468, -73.39275)",91.31236855573516,30474609.0,88_0_no,40.140743378953886,-74.0175675954469,100.0
06804,41.46731,-73.39232,Brookfield,CT,Connecticut,True,,17219.0,333.0,9001,Fairfield,"{""09001"": 100}",Fairfield,09001,False,False,America/New_York,"(41.46731, -73.39232)",97.31484226715044,30474609.0,88_0_no,40.140743378953886,-74.0175675954469,100.0
06807,41.0611,-73.59215,Cos Cob,CT,Connecticut,True,,7176.0,846.1,9001,Fairfield,"{""09001"": 100}",Fairfield,09001,False,False,America/New_York,"(41.0611, -73.59215)",67.39282286720942,30474609.0,88_0_no,40.140743378953886,-74.0175675954469,100.0
06810,41.37627,-73.45904,Danbury,CT,Connecticut,True,,52578.0,970.7,9001,Fairfield,"{""09001"": 100}",Fairfield,09001,False,False,America/New_York,"(41.37627, -73.45904)",90.23210505602758,30474609.0,88_0_no,40.140743378953886,-74.0175675954469,100.0
06811,41.42427,-73.4821,Danbury,CT,Connecticut,True,,31887.0,586.2,9001,Fairfield,"{""09001"": 100}",Fairfield,09001,False,False,America/New_York,"(41.42427, -73.4821)",93.00215692575794,30474609.0,88_0_no,40.140743378953886,-74.0175675954469,100.0
06812,41.48796,-73.48827,New Fairfield,CT,Connecticut,True,,13924.0,263.3,9001,Fairfield,"{""09001"": 100}",Fairfield,09001,False,False,America/New_York,"(41.48796, -73.48827)",97.11103418024149,30474609.0,88_0_no,40.140743378953886,-74.0175675954469,100.0
06820,41.07983,-73.48242,Darien,CT,Connecticut,True,,21752.0,663.7,9001,Fairfield,"{""09001"": 100}",Fairfield,09001,False,False,America/New_York,"(41.07983, -73.48242)",70.69571168172448,30474609.0,88_0_no,40.140743378953886,-74.0175675954469,100.0
06824,41.17571,-73.28111,Fairfield,CT,Connecticut,True,,36058.0,693.1,9001,Fairfield,"{""09001"": 100}",Fairfield,09001,False,False,America/New_York,"(41.17571, -73.28111)",81.26203804799658,30474609.0,88_0_no,40.140743378953886,-74.0175675954469,100.0
06825,41.19685,-73.24221,Fairfield,CT,Connecticut,True,,21264.0,1208.1,9001,Fairfield,"{""09001"": 100}",Fairfield,09001,False,False,America/New_York,"(41.19685, -73.24221)",83.51990231937708,30474609.0,88_0_no,40.140743378953886,-74.0175675954469,100.0
06830,41.048,-73.624,Greenwich,CT,Connecticut,True,,24557.0,700.4,9001,Fairfield,"{""09001"": 100}",Fairfield,09001,False,False,America/New_York,"(41.048, -73.624)",65.99848872648624,30474609.0,88_0_no,40.140743378953886,-74.0175675954469,100.0
06831,41.08782,-73.66078,Greenwich,CT,Connecticut,True,,15240.0,213.6,9001,Fairfield,"{""09001"": 100}",Fairfield,09001,False,False,America/New_York,"(41.08782, -73.66078)",68.05976578854872,30474609.0,88_0_no,40.140743378953886,-74.0175675954469,100.0
06840,41.15925,-73.49916,New Canaan,CT,Connecticut,True,,20249.0,352.4,9001,Fairfield,"{""09001"": 100}",Fairfield,09001,False,False,America/New_York,"(41.15925, -73.49916)",75.43662522802023,30474609.0,88_0_no,40.140743378953886,-74.0175675954469,100.0
06850,41.1263,-73.44316,Norwalk,CT,Connecticut,True,,19206.0,1093.5,9001,Fairfield,"{""09001"": 100}",Fairfield,09001,False,False,America/New_York,"(41.1263, -73.44316)",74.45840325427199,30474609.0,88_0_no,40.140743378953886,-74.0175675954469,100.0
06851,41.13948,-73.40387,Norwalk,CT,Connecticut,True,,27028.0,1357.7,9001,Fairfield,"{""09001"": 100}",Fairfield,09001,False,False,America/New_York,"(41.13948, -73.40387)",76.13822762986707,30474609.0,88_0_no,40.140743378953886,-74.0175675954469,100.0
06853,41.06962,-73.43775,Norwalk,CT,Connecticut,True,,3969.0,1270.5,9001,Fairfield,"{""09001"": 100}",Fairfield,09001,False,False,America/New_York,"(41.06962, -73.43775)",71.02110102552601,30474609.0,88_0_no,40.140743378953886,-74.0175675954469,100.0
06854,41.09148,-73.42972,Norwalk,CT,Connecticut,True,,29895.0,2400.2,9001,Fairfield,"{""09001"": 100}",Fairfield,09001,False,False,America/New_York,"(41.09148, -73.42972)",72.56468217454488,30474609.0,88_0_no,40.140743378953886,-74.0175675954469,100.0
06855,41.08922,-73.39615,Norwalk,CT,Connecticut,True,,8506.0,1329.7,9001,Fairfield,"{""09001"": 100}",Fairfield,09001,False,False,America/New_York,"(41.08922, -73.39615)",73.19042428694469,30474609.0,88_0_no,40.140743378953886,-74.0175675954469,100.0
06870,41.02881,-73.56964,Old Greenwich,CT,Connecticut,True,,7831.0,1333.5,9001,Fairfield,"{""09001"": 100}",Fairfield,09001,False,False,America/New_York,"(41.02881, -73.56964)",65.70687422560216,30474609.0,88_0_no,40.140743378953886,-74.0175675954469,100.0
06877,41.30642,-73.50216,Ridgefield,CT,Connecticut,True,,25065.0,279.8,9001,Fairfield,"{""09001"": 100}",Fairfield,09001,False,False,America/New_York,"(41.30642, -73.50216)",84.94165828421231,30474609.0,88_0_no,40.140743378953886,-74.0175675954469,100.0
06878,41.03191,-73.58283,Riverside,CT,Connecticut,True,,8214.0,1311.7,9001,Fairfield,"{""09001"": 100}",Fairfield,09001,False,False,America/New_York,"(41.03191, -73.58283)",65.66312851053597,30474609.0,88_0_no,40.140743378953886,-74.0175675954469,100.0
06880,41.14379,-73.34698,Westport,CT,Connecticut,True,,28413.0,548.1,9001,Fairfield,"{""09001"": 100}",Fairfield,09001,False,False,America/New_York,"(41.14379, -73.34698)",77.71071597971526,30474609.0,88_0_no,40.140743378953886,-74.0175675954469,100.0
06883,41.22842,-73.37256,Weston,CT,Connecticut,True,,10278.0,200.7,9001,Fairfield,"{""09001"": 100}",Fairfield,09001,False,False,America/New_York,"(41.22842, -73.37256)",82.39952324780012,30474609.0,88_0_no,40.140743378953886,-74.0175675954469,100.0
06890,41.14639,-73.28944,Southport,CT,Connecticut,True,,4540.0,605.4,9001,Fairfield,"{""09001"": 100}",Fairfield,09001,False,False,America/New_York,"(41.14639, -73.28944)",79.27815515527085,30474609.0,88_0_no,40.140743378953886,-74.0175675954469,100.0
06896,41.3051,-73.39139,Redding,CT,Connecticut,True,,9070.0,111.6,9001,Fairfield,"{""09001"": 100}",Fairfield,09001,False,False,America/New_York,"(41.3051, -73.39139)",86.87410888035005,30474609.0,88_0_no,40.140743378953886,-74.0175675954469,100.0
06897,41.20705,-73.44009,Wilton,CT,Connecticut,True,,18405.0,265.3,9001,Fairfield,"{""09001"": 100}",Fairfield,09001,False,False,America/New_York,"(41.20705, -73.44009)",79.64692039210256,30474609.0,88_0_no,40.140743378953886,-74.0175675954469,100.0
06901,41.05349,-73.53845,Stamford,CT,Connecticut,True,,7212.0,5474.1,9001,Fairfield,"{""09001"": 100}",Fairfield,09001,False,False,America/New_York,"(41.05349, -73.53845)",67.88914803057679,30474609.0,88_0_no,40.140743378953886,-74.0175675954469,100.0
06902,41.05949,-73.54751,Stamford,CT,Connecticut,True,,70199.0,2705.0,9001,Fairfield,"{""09001"": 100}",Fairfield,09001,False,False,America/New_York,"(41.05949, -73.54751)",68.10047166928233,30474609.0,88_0_no,40.140743378953886,-74.0175675954469,100.0
06903,41.13571,-73.57207,Stamford,CT,Connecticut,True,,14650.0,325.2,9001,Fairfield,"{""09001"": 100}",Fairfield,09001,False,False,America/New_York,"(41.13571, -73.57207)",72.60510919659365,30474609.0,88_0_no,40.140743378953886,-74.0175675954469,100.0
06905,41.08792,-73.54351,Stamford,CT,Connecticut,True,,19554.0,1488.7,9001,Fairfield,"{""09001"": 100}",Fairfield,09001,False,False,America/New_York,"(41.08792, -73.54351)",70.00748393475118,30474609.0,88_0_no,40.140743378953886,-74.0175675954469,100.0
06906,41.07244,-73.52217,Stamford,CT,Connecticut,True,,9894.0,2831.2,9001,Fairfield,"{""09001"": 100}",Fairfield,09001,False,False,America/New_York,"(41.07244, -73.52217)",69.42092341980214,30474609.0,88_0_no,40.140743378953886,-74.0175675954469,100.0
06907,41.1021,-73.52033,Stamford,CT,Connecticut,True,,8244.0,1626.2,9001,Fairfield,"{""09001"": 100}",Fairfield,09001,False,False,America/New_York,"(41.1021, -73.52033)",71.35845822073794,30474609.0,88_0_no,40.140743378953886,-74.0175675954469,100.0
07001,40.58342,-74.26992,Avenel,NJ,New Jersey,True,,17539.0,1814.0,34023,Middlesex,"{""34023"": 100}",Middlesex,34023,False,False,America/New_York,"(40.58342, -74.26992)",33.34680648361367,30474609.0,88_0_no,40.140743378953886,-74.0175675954469,100.0
07002,40.66681,-74.11582,Bayonne,NJ,New Jersey,True,,65112.0,4317.3,34017,Hudson,"{""34017"": 100}",Hudson,34017,False,False,America/New_York,"(40.66681, -74.11582)",36.713502744117115,30474609.0,88_0_no,40.140743378953886,-74.0175675954469,100.0
07003,40.80976,-74.18683,Bloomfield,NJ,New Jersey,True,,49389.0,3585.1,34013,Essex,"{""34013"": 100}",Essex,34013,False,False,America/New_York,"(40.80976, -74.18683)",47.072887553011505,30474609.0,88_0_no,40.140743378953886,-74.0175675954469,100.0
07004,40.88282,-74.30413,Fairfield,NJ,New Jersey,True,,7482.0,285.2,34013,Essex,"{""34013"": 100}",Essex,34013,False,False,America/New_York,"(40.88282, -74.30413)",53.43655381972312,30474609.0,88_0_no,40.140743378953886,-74.0175675954469,100.0
07005,40.92738,-74.41706,Boonton,NJ,New Jersey,True,,14644.0,308.9,34027,Morris,"{""34027"": 100}",Morris,34027,False,False,America/New_York,"(40.92738, -74.41706)",58.2592652188346,30474609.0,88_0_no,40.140743378953886,-74.0175675954469,100.0
07006,40.85221,-74.2817,Caldwell,NJ,New Jersey,True,,25578.0,1057.1,34013,Essex,"{""34013"": 100}",Essex,34013,False,False,America/New_York,"(40.85221, -74.2817)",51.079020643773,30474609.0,88_0_no,40.140743378953886,-74.0175675954469,100.0
07008,40.58489,-74.2284,Carteret,NJ,New Jersey,True,,23501.0,2063.6,34023,Middlesex,"{""34023"": 100}",Middlesex,34023,False,False,America/New_York,"(40.58489, -74.2284)",32.633225355676814,30474609.0,88_0_no,40.140743378953886,-74.0175675954469,100.0
07009,40.85651,-74.22871,Cedar Grove,NJ,New Jersey,True,,12593.0,1144.2,34013,Essex,"{""34013"": 99.71, ""34031"": 0.29}",Essex|Passaic,34013|34031,False,False,America/New_York,"(40.85651, -74.22871)",50.683656292553614,30474609.0,88_0_no,40.140743378953886,-74.0175675954469,100.0
07010,40.82217,-73.98792,Cliffside Park,NJ,New Jersey,True,,25410.0,10257.7,34003,Bergen,"{""34003"": 100}",Bergen,34003,False,False,America/New_York,"(40.82217, -73.98792)",47.10786788462743,30474609.0,88_0_no,40.140743378953886,-74.0175675954469,100.0
07011,40.8801,-74.14449,Clifton,NJ,New Jersey,True,,39371.0,4883.9,34031,Passaic,"{""34031"": 100}",Passaic,34031,False,False,America/New_York,"(40.8801, -74.14449)",51.51791663196907,30474609.0,88_0_no,40.140743378953886,-74.0175675954469,100.0
07012,40.84694,-74.1596,Clifton,NJ,New Jersey,True,,13496.0,2376.3,34031,Passaic,"{""34031"": 100}",Passaic,34031,False,False,America/New_York,"(40.84694, -74.1596)",49.36094153857137,30474609.0,88_0_no,40.140743378953886,-74.0175675954469,100.0
07013,40.86935,-74.17267,Clifton,NJ,New Jersey,True,,26942.0,2349.0,34031,Passaic,"{""34031"": 100}",Passaic,34031,False,False,America/New_York,"(40.86935, -74.17267)",50.99707253633913,30474609.0,88_0_no,40.140743378953886,-74.0175675954469,100.0
07014,40.83162,-74.13532,Clifton,NJ,New Jersey,True,,4616.0,1241.8,34031,Passaic,"{""34031"": 100}",Passaic,34031,False,False,America/New_York,"(40.83162, -74.13532)",48.13440740818314,30474609.0,88_0_no,40.140743378953886,-74.0175675954469,100.0
07016,40.65678,-74.30354,Cranford,NJ,New Jersey,True,,24036.0,1955.6,34039,Union,"{""34039"": 100}",Union,34039,False,False,America/New_York,"(40.65678, -74.30354)",38.69984924736372,30474609.0,88_0_no,40.140743378953886,-74.0175675954469,100.0
07017,40.77192,-74.20712,East Orange,NJ,New Jersey,True,,36313.0,6198.9,34013,Essex,"{""34013"": 100}",Essex,34013,False,False,America/New_York,"(40.77192, -74.20712)",44.73422476043996,30474609.0,88_0_no,40.140743378953886,-74.0175675954469,100.0
07018,40.75572,-74.21793,East Orange,NJ,New Jersey,True,,28680.0,6661.5,34013,Essex,"{""34013"": 100}",Essex,34013,False,False,America/New_York,"(40.75572, -74.21793)",43.77731599703811,30474609.0,88_0_no,40.140743378953886,-74.0175675954469,100.0
07020,40.82374,-73.97401,Edgewater,NJ,New Jersey,True,,12890.0,5125.2,34003,Bergen,"{""34003"": 100}",Bergen,34003,False,False,America/New_York,"(40.82374, -73.97401)",47.24605537473528,30474609.0,88_0_no,40.140743378953886,-74.0175675954469,100.0
07021,40.82708,-74.27981,Essex Fells,NJ,New Jersey,True,,2022.0,554.4,34013,Essex,"{""34013"": 100}",Essex,34013,False,False,America/New_York,"(40.82708, -74.27981)",49.38319418083987,30474609.0,88_0_no,40.140743378953886,-74.0175675954469,100.0
07022,40.81821,-74.0022,Fairview,NJ,New Jersey,True,,14218.0,6506.9,34003,Bergen,"{""34003"": 100}",Bergen,34003,False,False,America/New_York,"(40.81821, -74.0022)",46.8154519849948,30474609.0,88_0_no,40.140743378953886,-74.0175675954469,100.0
07023,40.64171,-74.38575,Fanwood,NJ,New Jersey,True,,7686.0,2215.2,34039,Union,"{""34039"": 100}",Union,34039,False,False,America/New_York,"(40.64171, -74.38575)",39.66721083115957,30474609.0,88_0_no,40.140743378953886,-74.0175675954469,100.0
07024,40.85088,-73.97128,Fort Lee,NJ,New Jersey,True,,37843.0,5815.1,34003,Bergen,"{""34003"": 100}",Bergen,34003,False,False,America/New_York,"(40.85088, -73.97128)",49.12600294478362,30474609.0,88_0_no,40.140743378953886,-74.0175675954469,100.0
07026,40.87914,-74.1085,Garfield,NJ,New Jersey,True,,31935.0,5840.8,34003,Bergen,"{""34003"": 100}",Bergen,34003,False,False,America/New_York,"(40.87914, -74.1085)",51.24147239101081,30474609.0,88_0_no,40.140743378953886,-74.0175675954469,100.0
07027,40.65132,-74.32313,Garwood,NJ,New Jersey,True,,4341.0,2577.0,34039,Union,"{""34039"": 100}",Union,34039,False,False,America/New_York,"(40.65132, -74.32313)",38.76884591217201,30474609.0,88_0_no,40.140743378953886,-74.0175675954469,100.0
07028,40.80421,-74.20428,Glen Ridge,NJ,New Jersey,True,,7716.0,2276.6,34013,Essex,"{""34013"": 100}",Essex,34013,False,False,America/New_York,"(40.80421, -74.20428)",46.879836603973956,30474609.0,88_0_no,40.140743378953886,-74.0175675954469,100.0
07029,40.74377,-74.15389,Harrison,NJ,New Jersey,True,,20990.0,6169.1,34017,Hudson,"{""34017"": 100}",Hudson,34017,False,False,America/New_York,"(40.74377, -74.15389)",42.27731148112586,30474609.0,88_0_no,40.140743378953886,-74.0175675954469,100.0
07030,40.7451,-74.02815,Hoboken,NJ,New Jersey,True,,53283.0,16467.1,34017,Hudson,"{""34017"": 100}",Hudson,34017,False,False,America/New_York,"(40.7451, -74.02815)",41.76077271921823,30474609.0,88_0_no,40.140743378953886,-74.0175675954469,100.0
07031,40.78745,-74.12731,North Arlington,NJ,New Jersey,True,,15681.0,2437.1,34003,Bergen,"{""34003"": 100}",Bergen,34003,False,False,America/New_York,"(40.78745, -74.12731)",45.05401507765452,30474609.0,88_0_no,40.140743378953886,-74.0175675954469,100.0
07032,40.75281,-74.12016,Kearny,NJ,New Jersey,True,,41147.0,1796.3,34017,Hudson,"{""34017"": 100}",Hudson,34017,False,False,America/New_York,"(40.75281, -74.12016)",42.63242402022267,30474609.0,88_0_no,40.140743378953886,-74.0175675954469,100.0
07033,40.67812,-74.28898,Kenilworth,NJ,New Jersey,True,,8182.0,1471.6,34039,Union,"{""34039"": 100}",Union,34039,False,False,America/New_York,"(40.67812, -74.28898)",39.780159063291194,30474609.0,88_0_no,40.140743378953886,-74.0175675954469,100.0
07034,40.87953,-74.37965,Lake Hiawatha,NJ,New Jersey,True,,9134.0,2776.1,34027,Morris,"{""34027"": 100}",Morris,34027,False,False,America/New_York,"(40.87953, -74.37965)",54.47373991788604,30474609.0,88_0_no,40.140743378953886,-74.0175675954469,100.0
07035,40.925,-74.30462,Lincoln Park,NJ,New Jersey,True,,10220.0,592.6,34027,Morris,"{""34027"": 100}",Morris,34027,False,False,America/New_York,"(40.925, -74.30462)",56.24450056692552,30474609.0,88_0_no,40.140743378953886,-74.0175675954469,100.0
07036,40.62526,-74.23917,Linden,NJ,New Jersey,True,,43908.0,1559.8,34039,Union,"{""34039"": 100}",Union,34039,False,False,America/New_York,"(40.62526, -74.23917)",35.45035735115764,30474609.0,88_0_no,40.140743378953886,-74.0175675954469,100.0
07039,40.78554,-74.32909,Livingston,NJ,New Jersey,True,,30059.0,842.7,34013,Essex,"{""34013"": 100}",Essex,34013,False,False,America/New_York,"(40.78554, -74.32909)",47.465528528275826,30474609.0,88_0_no,40.140743378953886,-74.0175675954469,100.0
07040,40.73302,-74.27117,Maplewood,NJ,New Jersey,True,,25029.0,2494.5,34013,Essex,"{""34013"": 100}",Essex,34013,False,False,America/New_York,"(40.73302, -74.27117)",43.0407108288134,30474609.0,88_0_no,40.140743378953886,-74.0175675954469,100.0
07041,40.72301,-74.30065,Millburn,NJ,New Jersey,True,,6862.0,1974.5,34013,Essex,"{""34013"": 100}",Essex,34013,False,False,America/New_York,"(40.72301, -74.30065)",42.897110292771984,30474609.0,88_0_no,40.140743378953886,-74.0175675954469,100.0
07042,40.81382,-74.21775,Montclair,NJ,New Jersey,True,,26526.0,2713.3,34013,Essex,"{""34013"": 100}",Essex,34013,False,False,America/New_York,"(40.81382, -74.21775)",47.68036009598903,30474609.0,88_0_no,40.140743378953886,-74.0175675954469,100.0
07043,40.84411,-74.20041,Montclair,NJ,New Jersey,True,,12544.0,1900.5,34013,Essex,"{""34013"": 96.19, ""34031"": 3.81}",Essex|Passaic,34013|34031,False,False,America/New_York,"(40.84411, -74.20041)",49.53852469245184,30474609.0,88_0_no,40.140743378953886,-74.0175675954469,100.0
07044,40.83228,-74.24308,Verona,NJ,New Jersey,True,,13632.0,1883.7,34013,Essex,"{""34013"": 100}",Essex,34013,False,False,America/New_York,"(40.83228, -74.24308)",49.22823890525382,30474609.0,88_0_no,40.140743378953886,-74.0175675954469,100.0
07045,40.90736,-74.3671,Montville,NJ,New Jersey,True,,9853.0,579.2,34027,Morris,"{""34027"": 100}",Morris,34027,False,False,America/New_York,"(40.90736, -74.3671)",56.05897046035982,30474609.0,88_0_no,40.140743378953886,-74.0175675954469,100.0
07046,40.89067,-74.44072,Mountain Lakes,NJ,New Jersey,True,,4278.0,621.2,34027,Morris,"{""34027"": 100}",Morris,34027,False,False,America/New_York,"(40.89067, -74.44072)",56.380862290217586,30474609.0,88_0_no,40.140743378953886,-74.0175675954469,100.0
07047,40.79376,-74.02416,North Bergen,NJ,New Jersey,True,,61181.0,4599.5,34017,Hudson,"{""34017"": 100}",Hudson,34017,False,False,America/New_York,"(40.79376, -74.02416)",45.12048165167196,30474609.0,88_0_no,40.140743378953886,-74.0175675954469,100.0
07050,40.76817,-74.2348,Orange,NJ,New Jersey,True,,30374.0,5315.1,34013,Essex,"{""34013"": 100}",Essex,34013,False,False,America/New_York,"(40.76817, -74.2348)",44.83020148940167,30474609.0,88_0_no,40.140743378953886,-74.0175675954469,100.0
07052,40.78928,-74.26281,West Orange,NJ,New Jersey,True,,47528.0,1527.1,34013,Essex,"{""34013"": 100}",Essex,34013,False,False,America/New_York,"(40.78928, -74.26281)",46.627104872733824,30474609.0,88_0_no,40.140743378953886,-74.0175675954469,100.0
07054,40.85527,-74.40239,Parsippany,NJ,New Jersey,True,,28943.0,808.0,34027,Morris,"{""34027"": 100}",Morris,34027,False,False,America/New_York,"(40.85527, -74.40239)",53.348751137973096,30474609.0,88_0_no,40.140743378953886,-74.0175675954469,100.0
07055,40.85746,-74.12821,Passaic,NJ,New Jersey,True,,69842.0,8618.7,34031,Passaic,"{""34031"": 100}",Passaic,34031,False,False,America/New_York,"(40.85746, -74.12821)",49.860417167155866,30474609.0,88_0_no,40.140743378953886,-74.0175675954469,100.0
07057,40.85355,-74.10691,Wallington,NJ,New Jersey,True,,11553.0,4487.2,34003,Bergen,"{""34003"": 100}",Bergen,34003,False,False,America/New_York,"(40.85355, -74.10691)",49.47343787603824,30474609.0,88_0_no,40.140743378953886,-74.0175675954469,100.0
07058,40.86701,-74.34283,Pine Brook,NJ,New Jersey,True,,5665.0,740.0,34027,Morris,"{""34027"": 100}",Morris,34027,False,False,America/New_York,"(40.86701, -74.34283)",53.00984312849595,30474609.0,88_0_no,40.140743378953886,-74.0175675954469,100.0
07059,40.63199,-74.51463,Warren,NJ,New Jersey,True,,15699.0,307.6,34035,Somerset,"{""34035"": 100}",Somerset,34035,False,False,America/New_York,"(40.63199, -74.51463)",42.8526627812337,30474609.0,88_0_no,40.140743378953886,-74.0175675954469,100.0
07060,40.61606,-74.42164,Plainfield,NJ,New Jersey,True,,46585.0,3598.2,34039,Union,"{""34039"": 62.42, ""34035"": 37.58}",Union|Somerset,34039|34035,False,False,America/New_York,"(40.61606, -74.42164)",39.12629650030918,30474609.0,88_0_no,40.140743378953886,-74.0175675954469,100.0
07062,40.63174,-74.40391,Plainfield,NJ,New Jersey,True,,12114.0,2432.5,34039,Union,"{""34039"": 87.8, ""34035"": 12.2}",Union|Somerset,34039|34035,False,False,America/New_York,"(40.63174, -74.40391)",39.55098493751056,30474609.0,88_0_no,40.140743378953886,-74.0175675954469,100.0
07063,40.60524,-74.44615,Plainfield,NJ,New Jersey,True,,13052.0,2822.5,34039,Union,"{""34039"": 61.11, ""34035"": 38.89}",Union|Somerset,34039|34035,False,False,America/New_York,"(40.60524, -74.44615)",39.22934701686086,30474609.0,88_0_no,40.140743378953886,-74.0175675954469,100.0
07064,40.56865,-74.2464,Port Reading,NJ,New Jersey,True,,3973.0,1163.2,34023,Middlesex,"{""34023"": 100}",Middlesex,34023,False,False,America/New_York,"(40.56865, -74.2464)",31.92629207557956,30474609.0,88_0_no,40.140743378953886,-74.0175675954469,100.0
07065,40.60765,-74.28066,Rahway,NJ,New Jersey,True,,29691.0,2942.3,34039,Union,"{""34039"": 100}",Union,34039,False,False,America/New_York,"(40.60765, -74.28066)",35.10693197882285,30474609.0,88_0_no,40.140743378953886,-74.0175675954469,100.0
07066,40.62061,-74.31335,Clark,NJ,New Jersey,True,,15835.0,1396.7,34039,Union,"{""34039"": 100}",Union,34039,False,False,America/New_York,"(40.62061, -74.31335)",36.628474010386505,30474609.0,88_0_no,40.140743378953886,-74.0175675954469,100.0
07067,40.59255,-74.31479,Colonia,NJ,New Jersey,True,,17793.0,1705.1,34023,Middlesex,"{""34023"": 100}",Middlesex,34023,False,False,America/New_York,"(40.59255, -74.31479)",34.91862151561073,30474609.0,88_0_no,40.140743378953886,-74.0175675954469,100.0
07068,40.82077,-74.30862,Roseland,NJ,New Jersey,True,,5841.0,623.4,34013,Essex,"{""34013"": 100}",Essex,34013,False,False,America/New_York,"(40.82077, -74.30862)",49.41237864952976,30474609.0,88_0_no,40.140743378953886,-74.0175675954469,100.0
07069,40.64249,-74.4396,Watchung,NJ,New Jersey,True,,6186.0,377.3,34035,Somerset,"{""34035"": 100}",Somerset,34035,False,False,America/New_York,"(40.64249, -74.4396)",41.17104642414916,30474609.0,88_0_no,40.140743378953886,-74.0175675954469,100.0
07070,40.82034,-74.10574,Rutherford,NJ,New Jersey,True,,18376.0,2551.2,34003,Bergen,"{""34003"": 100}",Bergen,34003,False,False,America/New_York,"(40.82034, -74.10574)",47.18373763580275,30474609.0,88_0_no,40.140743378953886,-74.0175675954469,100.0
07071,40.79646,-74.1099,Lyndhurst,NJ,New Jersey,True,,22453.0,1891.0,34003,Bergen,"{""34003"": 100}",Bergen,34003,False,False,America/New_York,"(40.79646, -74.1099)",45.56490647367756,30474609.0,88_0_no,40.140743378953886,-74.0175675954469,100.0
07072,40.82472,-74.06126,Carlstadt,NJ,New Jersey,True,,6158.0,602.3,34003,Bergen,"{""34003"": 100}",Bergen,34003,False,False,America/New_York,"(40.82472, -74.06126)",47.31402997871386,30474609.0,88_0_no,40.140743378953886,-74.0175675954469,100.0
07073,40.81792,-74.08539,East Rutherford,NJ,New Jersey,True,,9707.0,1010.1,34003,Bergen,"{""34003"": 100}",Bergen,34003,False,False,America/New_York,"(40.81792, -74.08539)",46.92401837467566,30474609.0,88_0_no,40.140743378953886,-74.0175675954469,100.0
07074,40.83877,-74.05705,Moonachie,NJ,New Jersey,True,,2714.0,957.4,34003,Bergen,"{""34003"": 100}",Bergen,34003,False,False,America/New_York,"(40.83877, -74.05705)",48.273647102646976,30474609.0,88_0_no,40.140743378953886,-74.0175675954469,100.0
07075,40.85076,-74.08779,Wood Ridge,NJ,New Jersey,True,,9016.0,3126.1,34003,Bergen,"{""34003"": 100}",Bergen,34003,False,False,America/New_York,"(40.85076, -74.08779)",49.196025401965436,30474609.0,88_0_no,40.140743378953886,-74.0175675954469,100.0
07076,40.63308,-74.37387,Scotch Plains,NJ,New Jersey,True,,24118.0,1035.2,34039,Union,"{""34039"": 100}",Union,34039,False,False,America/New_York,"(40.63308, -74.37387)",38.842960257740046,30474609.0,88_0_no,40.140743378953886,-74.0175675954469,100.0
07077,40.55415,-74.25489,Sewaren,NJ,New Jersey,True,,2708.0,677.9,34023,Middlesex,"{""34023"": 100}",Middlesex,34023,False,False,America/New_York,"(40.55415, -74.25489)",31.17782047364915,30474609.0,88_0_no,40.140743378953886,-74.0175675954469,100.0
07078,40.74196,-74.3277,Short Hills,NJ,New Jersey,True,,13305.0,642.8,34013,Essex,"{""34013"": 100}",Essex,34013,False,False,America/New_York,"(40.74196, -74.3277)",44.626600123190066,30474609.0,88_0_no,40.140743378953886,-74.0175675954469,100.0
07079,40.74908,-74.26022,South Orange,NJ,New Jersey,True,,16795.0,2274.1,34013,Essex,"{""34013"": 100}",Essex,34013,False,False,America/New_York,"(40.74908, -74.26022)",43.925912249298854,30474609.0,88_0_no,40.140743378953886,-74.0175675954469,100.0
07080,40.57483,-74.41542,South Plainfield,NJ,New Jersey,True,,23961.0,1125.3,34023,Middlesex,"{""34023"": 100}",Middlesex,34023,False,False,America/New_York,"(40.57483, -74.41542)",36.58309218932161,30474609.0,88_0_no,40.140743378953886,-74.0175675954469,100.0
07081,40.69949,-74.32542,Springfield,NJ,New Jersey,True,,17432.0,1300.1,34039,Union,"{""34039"": 100}",Union,34039,False,False,America/New_York,"(40.69949, -74.32542)",41.86435592356242,30474609.0,88_0_no,40.140743378953886,-74.0175675954469,100.0
07082,40.92643,-74.34524,Towaco,NJ,New Jersey,True,,5244.0,333.5,34027,Morris,"{""34027"": 100}",Morris,34027,False,False,America/New_York,"(40.92643, -74.34524)",56.94743325799232,30474609.0,88_0_no,40.140743378953886,-74.0175675954469,100.0
07083,40.69443,-74.2692,Union,NJ,New Jersey,True,,55465.0,2454.2,34039,Union,"{""34039"": 100}",Union,34039,False,False,America/New_York,"(40.69443, -74.2692)",40.48131102312021,30474609.0,88_0_no,40.140743378953886,-74.0175675954469,100.0
07086,40.76761,-74.01693,Weehawken,NJ,New Jersey,True,,14756.0,7173.8,34017,Hudson,"{""34017"": 100}",Hudson,34017,False,False,America/New_York,"(40.76761, -74.01693)",43.312371067535665,30474609.0,88_0_no,40.140743378953886,-74.0175675954469,100.0
07087,40.76723,-74.03243,Union City,NJ,New Jersey,True,,68121.0,20156.0,34017,Hudson,"{""34017"": 100}",Hudson,34017,False,False,America/New_York,"(40.76723, -74.03243)",43.293154562820405,30474609.0,88_0_no,40.140743378953886,-74.0175675954469,100.0
07088,40.71832,-74.28375,Vauxhall,NJ,New Jersey,True,,3395.0,4042.7,34039,Union,"{""34039"": 100}",Union,34039,False,False,America/New_York,"(40.71832, -74.28375)",42.29105046547778,30474609.0,88_0_no,40.140743378953886,-74.0175675954469,100.0
07090,40.65172,-74.34328,Westfield,NJ,New Jersey,True,,29668.0,1700.0,34039,Union,"{""34039"": 100}",Union,34039,False,False,America/New_York,"(40.65172, -74.34328)",39.24528702308035,30474609.0,88_0_no,40.140743378953886,-74.0175675954469,100.0
07092,40.68106,-74.36038,Mountainside,NJ,New Jersey,True,,6918.0,668.9,34039,Union,"{""34039"": 100}",Union,34039,False,False,America/New_York,"(40.68106, -74.36038)",41.460260546509105,30474609.0,88_0_no,40.140743378953886,-74.0175675954469,100.0
07093,40.78675,-74.00871,West New York,NJ,New Jersey,True,,64062.0,20832.8,34017,Hudson,"{""34017"": 100}",Hudson,34017,False,False,America/New_York,"(40.78675, -74.00871)",44.63723461836342,30474609.0,88_0_no,40.140743378953886,-74.0175675954469,100.0
07094,40.78109,-74.06588,Secaucus,NJ,New Jersey,True,,20667.0,1375.7,34017,Hudson,"{""34017"": 100}",Hudson,34017,False,False,America/New_York,"(40.78109, -74.06588)",44.31657133547769,30474609.0,88_0_no,40.140743378953886,-74.0175675954469,100.0
07095,40.55358,-74.28743,Woodbridge,NJ,New Jersey,True,,20297.0,1700.7,34023,Middlesex,"{""34023"": 100}",Middlesex,34023,False,False,America/New_York,"(40.55358, -74.28743)",31.868049525516643,30474609.0,88_0_no,40.140743378953886,-74.0175675954469,100.0
07102,40.73576,-74.17343,Newark,NJ,New Jersey,True,,13581.0,4637.3,34013,Essex,"{""34013"": 100}",Essex,34013,False,False,America/New_York,"(40.73576, -74.17343)",41.920800574497264,30474609.0,88_0_no,40.140743378953886,-74.0175675954469,100.0
07103,40.73886,-74.19529,Newark,NJ,New Jersey,True,,33548.0,6019.4,34013,Essex,"{""34013"": 100}",Essex,34013,False,False,America/New_York,"(40.73886, -74.19529)",42.36947193925785,30474609.0,88_0_no,40.140743378953886,-74.0175675954469,100.0
07104,40.76735,-74.16831,Newark,NJ,New Jersey,True,,51084.0,7791.7,34013,Essex,"{""34013"": 100}",Essex,34013,False,False,America/New_York,"(40.76735, -74.16831)",44.01377819339289,30474609.0,88_0_no,40.140743378953886,-74.0175675954469,100.0
07105,40.72266,-74.13874,Newark,NJ,New Jersey,True,,51097.0,4252.8,34013,Essex,"{""34013"": 100}",Essex,34013,False,False,America/New_York,"(40.72266, -74.13874)",40.708504648475234,30474609.0,88_0_no,40.140743378953886,-74.0175675954469,100.0
07106,40.74177,-74.23047,Newark,NJ,New Jersey,True,,33688.0,9181.2,34013,Essex,"{""34013"": 100}",Essex,34013,False,False,America/New_York,"(40.74177, -74.23047)",43.009597057697555,30474609.0,88_0_no,40.140743378953886,-74.0175675954469,100.0
07107,40.76181,-74.18653,Newark,NJ,New Jersey,True,,37943.0,8886.3,34013,Essex,"{""34013"": 100}",Essex,34013,False,False,America/New_York,"(40.76181, -74.18653)",43.8214800112449,30474609.0,88_0_no,40.140743378953886,-74.0175675954469,100.0
07108,40.72306,-74.20039,Newark,NJ,New Jersey,True,,24777.0,6935.6,34013,Essex,"{""34013"": 100}",Essex,34013,False,False,America/New_York,"(40.72306, -74.20039)",41.36715323028335,30474609.0,88_0_no,40.140743378953886,-74.0175675954469,100.0
07109,40.79502,-74.16161,Belleville,NJ,New Jersey,True,,36394.0,4255.3,34013,Essex,"{""34013"": 100}",Essex,34013,False,False,America/New_York,"(40.79502, -74.16161)",45.83586490800354,30474609.0,88_0_no,40.140743378953886,-74.0175675954469,100.0
07110,40.81926,-74.15715,Nutley,NJ,New Jersey,True,,28385.0,3248.3,34013,Essex,"{""34013"": 99.78, ""34031"": 0.22}",Essex|Passaic,34013|34031,False,False,America/New_York,"(40.81926, -74.15715)",47.45146925140629,30474609.0,88_0_no,40.140743378953886,-74.0175675954469,100.0
07111,40.72426,-74.23173,Irvington,NJ,New Jersey,True,,54220.0,7183.6,34013,Essex,"{""34013"": 100}",Essex,34013,False,False,America/New_York,"(40.72426, -74.23173)",41.86083419212284,30474609.0,88_0_no,40.140743378953886,-74.0175675954469,100.0
07112,40.71137,-74.21164,Newark,NJ,New Jersey,True,,24376.0,6925.8,34013,Essex,"{""34013"": 100}",Essex,34013,False,False,America/New_York,"(40.71137, -74.21164)",40.7264644488297,30474609.0,88_0_no,40.140743378953886,-74.0175675954469,100.0
07114,40.70018,-74.16618,Newark,NJ,New Jersey,True,,11947.0,584.4,34013,Essex,"{""34013"": 100}",Essex,34013,False,False,America/New_York,"(40.70018, -74.16618)",39.43591756464828,30474609.0,88_0_no,40.140743378953886,-74.0175675954469,100.0
07201,40.67237,-74.17643,Elizabeth,NJ,New Jersey,True,,27369.0,1641.5,34039,Union,"{""34039"": 100}",Union,34039,False,False,America/New_York,"(40.67237, -74.17643)",37.6707933657331,30474609.0,88_0_no,40.140743378953886,-74.0175675954469,100.0
07202,40.6531,-74.21677,Elizabeth,NJ,New Jersey,True,,41264.0,6887.0,34039,Union,"{""34039"": 100}",Union,34039,False,False,America/New_York,"(40.6531, -74.21677)",36.91967808786601,30474609.0,88_0_no,40.140743378953886,-74.0175675954469,100.0
07203,40.65269,-74.2599,Roselle,NJ,New Jersey,True,,21699.0,3178.9,34039,Union,"{""34039"": 100}",Union,34039,False,False,America/New_York,"(40.65269, -74.2599)",37.60033977308214,30474609.0,88_0_no,40.140743378953886,-74.0175675954469,100.0
07204,40.66532,-74.2666,Roselle Park,NJ,New Jersey,True,,13574.0,4278.3,34039,Union,"{""34039"": 100}",Union,34039,False,False,America/New_York,"(40.66532, -74.2666)",38.54043218254432,30474609.0,88_0_no,40.140743378953886,-74.0175675954469,100.0
07205,40.69612,-74.22857,Hillside,NJ,New Jersey,True,,21955.0,3065.2,34039,Union,"{""34039"": 100}",Union,34039,False,False,America/New_York,"(40.69612, -74.22857)",39.94582834190441,30474609.0,88_0_no,40.140743378953886,-74.0175675954469,100.0
07206,40.65238,-74.18385,Elizabethport,NJ,New Jersey,True,,27520.0,5978.7,34039,Union,"{""34039"": 100}",Union,34039,False,False,America/New_York,"(40.65238, -74.18385)",36.41744887658212,30474609.0,88_0_no,40.140743378953886,-74.0175675954469,100.0
07208,40.67434,-74.22498,Elizabeth,NJ,New Jersey,True,,32319.0,6963.4,34039,Union,"{""34039"": 100}",Union,34039,False,False,America/New_York,"(40.67434, -74.22498)",38.448992785873266,30474609.0,88_0_no,40.140743378953886,-74.0175675954469,100.0
07302,40.71894,-74.04462,Jersey City,NJ,New Jersey,True,,47339.0,12755.6,34017,Hudson,"{""34017"": 100}",Hudson,34017,False,False,America/New_York,"(40.71894, -74.04462)",39.974908864216815,30474609.0,88_0_no,40.140743378953886,-74.0175675954469,100.0
07304,40.71741,-74.07637,Jersey City,NJ,New Jersey,True,,43554.0,8182.2,34017,Hudson,"{""34017"": 100}",Hudson,34017,False,False,America/New_York,"(40.71741, -74.07637)",39.96371235288567,30474609.0,88_0_no,40.140743378953886,-74.0175675954469,100.0
07305,40.69839,-74.08158,Jersey City,NJ,New Jersey,True,,66595.0,4510.9,34017,Hudson,"{""34017"": 100}",Hudson,34017,False,False,America/New_York,"(40.69839, -74.08158)",38.67656000549953,30474609.0,88_0_no,40.140743378953886,-74.0175675954469,100.0
07306,40.73674,-74.07132,Jersey City,NJ,New Jersey,True,,51378.0,6641.7,34017,Hudson,"{""34017"": 100}",Hudson,34017,False,False,America/New_York,"(40.73674, -74.07132)",41.27634315886264,30474609.0,88_0_no,40.140743378953886,-74.0175675954469,100.0
07307,40.75192,-74.05429,Jersey City,NJ,New Jersey,True,,40012.0,8127.8,34017,Hudson,"{""34017"": 100}",Hudson,34017,False,False,America/New_York,"(40.75192, -74.05429)",42.272403571032726,30474609.0,88_0_no,40.140743378953886,-74.0175675954469,100.0
07310,40.72893,-74.03391,Jersey City,NJ,New Jersey,True,,13051.0,8244.6,34017,Hudson,"{""34017"": 100}",Hudson,34017,False,False,America/New_York,"(40.72893, -74.03391)",40.64891114812332,30474609.0,88_0_no,40.140743378953886,-74.0175675954469,100.0
07311,40.71878,-74.02933,Jersey City,NJ,New Jersey,True,,675.0,4855.9,34017,Hudson,"{""34017"": 100}",Hudson,34017,False,False,America/New_York,"(40.71878, -74.02933)",39.94331721480645,30474609.0,88_0_no,40.140743378953886,-74.0175675954469,100.0
07401,41.03321,-74.13328,Allendale,NJ,New Jersey,True,,6757.0,843.9,34003,Bergen,"{""34003"": 100}",Bergen,34003,False,False,America/New_York,"(41.03321, -74.13328)",61.961738014624444,30474609.0,88_0_no,40.140743378953886,-74.0175675954469,100.0
07403,41.02059,-74.33239,Bloomingdale,NJ,New Jersey,True,,8001.0,506.5,34031,Passaic,"{""34031"": 100}",Passaic,34031,False,False,America/New_York,"(41.02059, -74.33239)",62.99628215657628,30474609.0,88_0_no,40.140743378953886,-74.0175675954469,100.0
07405,40.98646,-74.38302,Butler,NJ,New Jersey,True,,17657.0,344.2,34027,Morris,"{""34027"": 100}",Morris,34027,False,False,America/New_York,"(40.98646, -74.38302)",61.50127948818446,30474609.0,88_0_no,40.140743378953886,-74.0175675954469,100.0
07407,40.90493,-74.12007,Elmwood Park,NJ,New Jersey,True,,20019.0,2924.6,34003,Bergen,"{""34003"": 100}",Bergen,34003,False,False,America/New_York,"(40.90493, -74.12007)",53.07399847085533,30474609.0,88_0_no,40.140743378953886,-74.0175675954469,100.0
07410,40.93587,-74.11771,Fair Lawn,NJ,New Jersey,True,,32986.0,2480.2,34003,Bergen,"{""34003"": 100}",Bergen,34003,False,False,America/New_York,"(40.93587, -74.11771)",55.18908259858063,30474609.0,88_0_no,40.140743378953886,-74.0175675954469,100.0
07416,41.10892,-74.58891,Franklin,NJ,New Jersey,True,,5491.0,174.3,34037,Sussex,"{""34037"": 100}",Sussex,34037,False,False,America/New_York,"(41.10892, -74.58891)",73.29756575736253,30474609.0,88_0_no,40.140743378953886,-74.0175675954469,100.0
07417,41.00859,-74.20836,Franklin Lakes,NJ,New Jersey,True,,11044.0,452.6,34003,Bergen,"{""34003"": 100}",Bergen,34003,False,False,America/New_York,"(41.00859, -74.20836)",60.792696442394266,30474609.0,88_0_no,40.140743378953886,-74.0175675954469,100.0
07418,41.2387,-74.4873,Glenwood,NJ,New Jersey,True,,2674.0,223.9,34037,Sussex,"{""34037"": 100}",Sussex,34037,False,False,America/New_York,"(41.2387, -74.4873)",79.75298429421267,30474609.0,88_0_no,40.140743378953886,-74.0175675954469,100.0
07419,41.15394,-74.57106,Hamburg,NJ,New Jersey,True,,8935.0,202.2,34037,Sussex,"{""34037"": 100}",Sussex,34037,False,False,America/New_York,"(41.15394, -74.57106)",75.77984922608991,30474609.0,88_0_no,40.140743378953886,-74.0175675954469,100.0
07420,41.02926,-74.30281,Haskell,NJ,New Jersey,True,,5470.0,877.9,34031,Passaic,"{""34031"": 100}",Passaic,34031,False,False,America/New_York,"(41.02926, -74.30281)",63.188759420215796,30474609.0,88_0_no,40.140743378953886,-74.0175675954469,100.0
07421,41.1624,-74.35586,Hewitt,NJ,New Jersey,True,,7824.0,133.8,34031,Passaic,"{""34031"": 92.26, ""34037"": 7.56, ""36071"": 0.18}",Passaic|Sussex|Orange,34031|34037|36071,False,False,America/New_York,"(41.1624, -74.35586)",72.78294370164762,30474609.0,88_0_no,40.140743378953886,-74.0175675954469,100.0
07422,41.17984,-74.44177,Highland Lakes,NJ,New Jersey,True,,5886.0,129.9,34037,Sussex,"{""34037"": 99.79, ""36071"": 0.21}",Sussex|Orange,34037|36071,False,False,America/New_York,"(41.17984, -74.44177)",75.15839304854147,30474609.0,88_0_no,40.140743378953886,-74.0175675954469,100.0
07423,41.00007,-74.09718,Ho Ho Kus,NJ,New Jersey,True,,4096.0,909.2,34003,Bergen,"{""34003"": 100}",Bergen,34003,False,False,America/New_York,"(41.00007, -74.09718)",59.52064787199801,30474609.0,88_0_no,40.140743378953886,-74.0175675954469,100.0
07424,40.88361,-74.2059,Little Falls,NJ,New Jersey,True,,27095.0,1829.3,34031,Passaic,"{""34031"": 100}",Passaic,34031,False,False,America/New_York,"(40.88361, -74.2059)",52.2718674934231,30474609.0,88_0_no,40.140743378953886,-74.0175675954469,100.0
07430,41.08157,-74.18562,Mahwah,NJ,New Jersey,True,,26225.0,398.6,34003,Bergen,"{""34003"": 100}",Bergen,34003,False,False,America/New_York,"(41.08157, -74.18562)",65.59979715507654,30474609.0,88_0_no,40.140743378953886,-74.0175675954469,100.0
07432,40.99516,-74.14109,Midland Park,NJ,New Jersey,True,,7230.0,1787.9,34003,Bergen,"{""34003"": 100}",Bergen,34003,False,False,America/New_York,"(40.99516, -74.14109)",59.38946831078823,30474609.0,88_0_no,40.140743378953886,-74.0175675954469,100.0
07435,41.0425,-74.44159,Newfoundland,NJ,New Jersey,True,,2898.0,88.8,34031,Passaic,"{""34031"": 60.55, ""34027"": 39.45}",Passaic|Morris,34031|34027,False,False,America/New_York,"(41.0425, -74.44159)",66.15796701409464,30474609.0,88_0_no,40.140743378953886,-74.0175675954469,100.0
07436,41.03135,-74.24081,Oakland,NJ,New Jersey,True,,12953.0,588.5,34003,Bergen,"{""34003"": 100}",Bergen,34003,False,False,America/New_York,"(41.03135, -74.24081)",62.63999819532082,30474609.0,88_0_no,40.140743378953886,-74.0175675954469,100.0
07438,41.0287,-74.52038,Oak Ridge,NJ,New Jersey,True,,11807.0,151.8,34027,Morris,"{""34027"": 84.82, ""34031"": 15.18}",Morris|Passaic,34027|34031,False,False,America/New_York,"(41.0287, -74.52038)",66.78417628888197,30474609.0,88_0_no,40.140743378953886,-74.0175675954469,100.0
07439,41.0769,-74.59734,Ogdensburg,NJ,New Jersey,True,,2174.0,380.9,34037,Sussex,"{""34037"": 100}",Sussex,34037,False,False,America/New_York,"(41.0769, -74.59734)",71.47424842416153,30474609.0,88_0_no,40.140743378953886,-74.0175675954469,100.0
07440,40.94668,-74.29421,Pequannock,NJ,New Jersey,True,,4560.0,1137.5,34027,Morris,"{""34027"": 100}",Morris,34027,False,False,America/New_York,"(40.94668, -74.29421)",57.54803072395326,30474609.0,88_0_no,40.140743378953886,-74.0175675954469,100.0
07442,41.0024,-74.28589,Pompton Lakes,NJ,New Jersey,True,,10998.0,1472.9,34031,Passaic,"{""34031"": 100}",Passaic,34031,False,False,America/New_York,"(41.0024, -74.28589)",61.177554535479594,30474609.0,88_0_no,40.140743378953886,-74.0175675954469,100.0
07444,40.96782,-74.30724,Pompton Plains,NJ,New Jersey,True,,10542.0,777.7,34027,Morris,"{""34027"": 100}",Morris,34027,False,False,America/New_York,"(40.96782, -74.30724)",59.13414837576656,30474609.0,88_0_no,40.140743378953886,-74.0175675954469,100.0
07446,41.05944,-74.14532,Ramsey,NJ,New Jersey,True,,14870.0,1044.0,34003,Bergen,"{""34003"": 100}",Bergen,34003,False,False,America/New_York,"(41.05944, -74.14532)",63.828692033906144,30474609.0,88_0_no,40.140743378953886,-74.0175675954469,100.0
07450,40.98219,-74.11275,Ridgewood,NJ,New Jersey,True,,25182.0,1690.6,34003,Bergen,"{""34003"": 100}",Bergen,34003,False,False,America/New_York,"(40.98219, -74.11275)",58.35269484856192,30474609.0,88_0_no,40.140743378953886,-74.0175675954469,100.0
07452,40.96008,-74.12498,Glen Rock,NJ,New Jersey,True,,11747.0,1677.7,34003,Bergen,"{""34003"": 100}",Bergen,34003,False,False,America/New_York,"(40.96008, -74.12498)",56.890920590639155,30474609.0,88_0_no,40.140743378953886,-74.0175675954469,100.0
07456,41.10647,-74.27487,Ringwood,NJ,New Jersey,True,,12183.0,183.8,34031,Passaic,"{""34031"": 100}",Passaic,34031,False,False,America/New_York,"(41.10647, -74.27487)",68.07593567299458,30474609.0,88_0_no,40.140743378953886,-74.0175675954469,100.0
07457,40.99212,-74.3125,Riverdale,NJ,New Jersey,True,,4179.0,796.3,34027,Morris,"{""34027"": 100}",Morris,34027,False,False,America/New_York,"(40.99212, -74.3125)",60.82716418377363,30474609.0,88_0_no,40.140743378953886,-74.0175675954469,100.0
07458,41.04583,-74.0971,Saddle River,NJ,New Jersey,True,,11439.0,434.3,34003,Bergen,"{""34003"": 100}",Bergen,34003,False,False,America/New_York,"(41.04583, -74.0971)",62.674580229041396,30474609.0,88_0_no,40.140743378953886,-74.0175675954469,100.0
07460,41.11341,-74.49006,Stockholm,NJ,New Jersey,True,,3521.0,47.6,34037,Sussex,"{""34037"": 65.85, ""34031"": 34.15}",Sussex|Passaic,34037|34031,False,False,America/New_York,"(41.11341, -74.49006)",71.62649783386577,30474609.0,88_0_no,40.140743378953886,-74.0175675954469,100.0
07461,41.24213,-74.60648,Sussex,NJ,New Jersey,True,,17884.0,83.2,34037,Sussex,"{""34037"": 100}",Sussex,34037,False,False,America/New_York,"(41.24213, -74.60648)",82.11435002061509,30474609.0,88_0_no,40.140743378953886,-74.0175675954469,100.0
07462,41.19873,-74.48911,Vernon,NJ,New Jersey,True,,6267.0,142.3,34037,Sussex,"{""34037"": 99.83, ""36071"": 0.17}",Sussex|Orange,34037|36071,False,False,America/New_York,"(41.19873, -74.48911)",77.16348247415313,30474609.0,88_0_no,40.140743378953886,-74.0175675954469,100.0
07463,41.01334,-74.12585,Waldwick,NJ,New Jersey,True,,10051.0,1896.5,34003,Bergen,"{""34003"": 100}",Bergen,34003,False,False,America/New_York,"(41.01334, -74.12585)",60.557869475022336,30474609.0,88_0_no,40.140743378953886,-74.0175675954469,100.0
07465,41.05015,-74.29849,Wanaque,NJ,New Jersey,True,,6374.0,294.3,34031,Passaic,"{""34031"": 100}",Passaic,34031,False,False,America/New_York,"(41.05015, -74.29849)",64.53927550941687,30474609.0,88_0_no,40.140743378953886,-74.0175675954469,100.0
07470,40.94805,-74.24504,Wayne,NJ,New Jersey,True,,53679.0,868.1,34031,Passaic,"{""34031"": 100}",Passaic,34031,False,False,America/New_York,"(40.94805, -74.24504)",57.043799309491526,30474609.0,88_0_no,40.140743378953886,-74.0175675954469,100.0
07480,41.08713,-74.3779,West Milford,NJ,New Jersey,True,,15377.0,179.6,34031,Passaic,"{""34031"": 100}",Passaic,34031,False,False,America/New_York,"(41.08713, -74.3779)",68.06534295109344,30474609.0,88_0_no,40.140743378953886,-74.0175675954469,100.0
07481,40.99891,-74.16757,Wyckoff,NJ,New Jersey,True,,16959.0,993.2,34003,Bergen,"{""34003"": 100}",Bergen,34003,False,False,America/New_York,"(40.99891, -74.16757)",59.81400901405299,30474609.0,88_0_no,40.140743378953886,-74.0175675954469,100.0
07501,40.9125,-74.17099,Paterson,NJ,New Jersey,True,,32484.0,6967.4,34031,Passaic,"{""34031"": 100}",Passaic,34031,False,False,America/New_York,"(40.9125, -74.17099)",53.92860405436317,30474609.0,88_0_no,40.140743378953886,-74.0175675954469,100.0
07502,40.91903,-74.19461,Paterson,NJ,New Jersey,True,,15762.0,7083.0,34031,Passaic,"{""34031"": 100}",Passaic,34031,False,False,America/New_York,"(40.91903, -74.19461)",54.57228427693091,30474609.0,88_0_no,40.140743378953886,-74.0175675954469,100.0
07503,40.89768,-74.15353,Paterson,NJ,New Jersey,True,,17535.0,4378.0,34031,Passaic,"{""34031"": 100}",Passaic,34031,False,False,America/New_York,"(40.89768, -74.15353)",52.784623752773285,30474609.0,88_0_no,40.140743378953886,-74.0175675954469,100.0
07504,40.912,-74.14121,Paterson,NJ,New Jersey,True,,11886.0,5515.3,34031,Passaic,"{""34031"": 100}",Passaic,34031,False,False,America/New_York,"(40.912, -74.14121)",53.68291263612223,30474609.0,88_0_no,40.140743378953886,-74.0175675954469,100.0
07505,40.91694,-74.17222,Paterson,NJ,New Jersey,True,,3303.0,5210.2,34031,Passaic,"{""34031"": 100}",Passaic,34031,False,False,America/New_York,"(40.91694, -74.17222)",54.24154895247651,30474609.0,88_0_no,40.140743378953886,-74.0175675954469,100.0
07506,40.95794,-74.15815,Hawthorne,NJ,New Jersey,True,,18762.0,2182.9,34031,Passaic,"{""34031"": 100}",Passaic,34031,False,False,America/New_York,"(40.95794, -74.15815)",56.943224199151004,30474609.0,88_0_no,40.140743378953886,-74.0175675954469,100.0
07508,40.95448,-74.18423,Haledon,NJ,New Jersey,True,,22562.0,1731.3,34031,Passaic,"{""34031"": 100}",Passaic,34031,False,False,America/New_York,"(40.95448, -74.18423)",56.90061782243223,30474609.0,88_0_no,40.140743378953886,-74.0175675954469,100.0
07512,40.90385,-74.22118,Totowa,NJ,New Jersey,True,,10810.0,1054.0,34031,Passaic,"{""34031"": 100}",Passaic,34031,False,False,America/New_York,"(40.90385, -74.22118)",53.79917152658908,30474609.0,88_0_no,40.140743378953886,-74.0175675954469,100.0
07513,40.90565,-74.14869,Paterson,NJ,New Jersey,True,,11417.0,7765.8,34031,Passaic,"{""34031"": 100}",Passaic,34031,False,False,America/New_York,"(40.90565, -74.14869)",53.2967899779947,30474609.0,88_0_no,40.140743378953886,-74.0175675954469,100.0
07514,40.92596,-74.14452,Paterson,NJ,New Jersey,True,,18507.0,7703.4,34031,Passaic,"{""34031"": 100}",Passaic,34031,False,False,America/New_York,"(40.92596, -74.14452)",54.66134416516736,30474609.0,88_0_no,40.140743378953886,-74.0175675954469,100.0
07522,40.92413,-74.17928,Paterson,NJ,New Jersey,True,,21301.0,9383.7,34031,Passaic,"{""34031"": 100}",Passaic,34031,False,False,America/New_York,"(40.92413, -74.17928)",54.78895180245042,30474609.0,88_0_no,40.140743378953886,-74.0175675954469,100.0
07524,40.93226,-74.15674,Paterson,NJ,New Jersey,True,,13289.0,6766.6,34031,Passaic,"{""34031"": 100}",Passaic,34031,False,False,America/New_York,"(40.93226, -74.15674)",55.1746866505635,30474609.0,88_0_no,40.140743378953886,-74.0175675954469,100.0
07601,40.8891,-74.04614,Hackensack,NJ,New Jersey,True,,44266.0,4071.4,34003,Bergen,"{""34003"": 100}",Bergen,34003,False,False,America/New_York,"(40.8891, -74.04614)",51.72829357805743,30474609.0,88_0_no,40.140743378953886,-74.0175675954469,100.0
07603,40.87507,-74.02934,Bogota,NJ,New Jersey,True,,8375.0,4285.0,34003,Bergen,"{""34003"": 100}",Bergen,34003,False,False,America/New_York,"(40.87507, -74.02934)",50.74090568482009,30474609.0,88_0_no,40.140743378953886,-74.0175675954469,100.0
07604,40.86166,-74.07413,Hasbrouck Heights,NJ,New Jersey,True,,12026.0,3017.3,34003,Bergen,"{""34003"": 100}",Bergen,34003,False,False,America/New_York,"(40.86166, -74.07413)",49.89915640359523,30474609.0,88_0_no,40.140743378953886,-74.0175675954469,100.0
07605,40.86362,-73.9899,Leonia,NJ,New Jersey,True,,9059.0,2320.4,34003,Bergen,"{""34003"": 100}",Bergen,34003,False,False,America/New_York,"(40.86362, -73.9899)",49.96716371998776,30474609.0,88_0_no,40.140743378953886,-74.0175675954469,100.0
07606,40.85783,-74.05177,South Hackensack,NJ,New Jersey,True,,2457.0,1294.5,34003,Bergen,"{""34003"": 100}",Bergen,34003,False,False,America/New_York,"(40.85783, -74.05177)",49.57854160917099,30474609.0,88_0_no,40.140743378953886,-74.0175675954469,100.0
07607,40.90249,-74.06337,Maywood,NJ,New Jersey,True,,9626.0,2888.5,34003,Bergen,"{""34003"": 100}",Bergen,34003,False,False,America/New_York,"(40.90249, -74.06337)",52.68662452471291,30474609.0,88_0_no,40.140743378953886,-74.0175675954469,100.0
07608,40.85297,-74.06045,Teterboro,NJ,New Jersey,True,,110.0,24.8,34003,Bergen,"{""34003"": 100}",Bergen,34003,False,False,America/New_York,"(40.85297, -74.06045)",49.26172288072714,30474609.0,88_0_no,40.140743378953886,-74.0175675954469,100.0
07620,40.96165,-73.91983,Alpine,NJ,New Jersey,True,,1459.0,88.0,34003,Bergen,"{""34003"": 99.18, ""36119"": 0.58, ""36087"": 0.24}",Bergen|Westchester|Rockland,34003|36119|36087,False,False,America/New_York,"(40.96165, -73.91983)",56.95085345606322,30474609.0,88_0_no,40.140743378953886,-74.0175675954469,100.0
07621,40.92357,-73.99824,Bergenfield,NJ,New Jersey,True,,27375.0,3636.6,34003,Bergen,"{""34003"": 100}",Bergen,34003,False,False,America/New_York,"(40.92357, -73.99824)",54.09768935301605,30474609.0,88_0_no,40.140743378953886,-74.0175675954469,100.0
07624,40.97329,-73.96044,Closter,NJ,New Jersey,True,,8551.0,1044.7,34003,Bergen,"{""34003"": 100}",Bergen,34003,False,False,America/New_York,"(40.97329, -73.96044)",57.60160542907621,30474609.0,88_0_no,40.140743378953886,-74.0175675954469,100.0
07626,40.94054,-73.9596,Cresskill,NJ,New Jersey,True,,8701.0,1627.1,34003,Bergen,"{""34003"": 100}",Bergen,34003,False,False,America/New_York,"(40.94054, -73.9596)",55.3444380129456,30474609.0,88_0_no,40.140743378953886,-74.0175675954469,100.0
07627,40.95504,-73.95678,Demarest,NJ,New Jersey,True,,4911.0,914.9,34003,Bergen,"{""34003"": 100}",Bergen,34003,False,False,America/New_York,"(40.95504, -73.95678)",56.35297585949746,30474609.0,88_0_no,40.140743378953886,-74.0175675954469,100.0
07628,40.94524,-73.99227,Dumont,NJ,New Jersey,True,,17598.0,3489.6,34003,Bergen,"{""34003"": 100}",Bergen,34003,False,False,America/New_York,"(40.94524, -73.99227)",55.60128893917602,30474609.0,88_0_no,40.140743378953886,-74.0175675954469,100.0
07630,40.97484,-74.024,Emerson,NJ,New Jersey,True,,7606.0,1316.4,34003,Bergen,"{""34003"": 100}",Bergen,34003,False,False,America/New_York,"(40.97484, -74.024)",57.63157643643832,30474609.0,88_0_no,40.140743378953886,-74.0175675954469,100.0
07631,40.89161,-73.97368,Englewood,NJ,New Jersey,True,,28390.0,2216.1,34003,Bergen,"{""34003"": 100}",Bergen,34003,False,False,America/New_York,"(40.89161, -73.97368)",51.9311308491465,30474609.0,88_0_no,40.140743378953886,-74.0175675954469,100.0
07632,40.88227,-73.94672,Englewood Cliffs,NJ,New Jersey,True,,5349.0,971.4,34003,Bergen,"{""34003"": 100}",Bergen,34003,False,False,America/New_York,"(40.88227, -73.94672)",51.36959314620303,30474609.0,88_0_no,40.140743378953886,-74.0175675954469,100.0
07640,40.9899,-73.98037,Harrington Park,NJ,New Jersey,True,,4735.0,990.6,34003,Bergen,"{""34003"": 100}",Bergen,34003,False,False,America/New_York,"(40.9899, -73.98037)",58.70360906352889,30474609.0,88_0_no,40.140743378953886,-74.0175675954469,100.0
07641,40.96224,-73.9976,Haworth,NJ,New Jersey,True,,3400.0,677.6,34003,Bergen,"{""34003"": 100}",Bergen,34003,False,False,America/New_York,"(40.96224, -73.9976)",56.769688896017676,30474609.0,88_0_no,40.140743378953886,-74.0175675954469,100.0
07642,41.00742,-74.04402,Hillsdale,NJ,New Jersey,True,,10287.0,1368.8,34003,Bergen,"{""34003"": 100}",Bergen,34003,False,False,America/New_York,"(41.00742, -74.04402)",59.89773977759867,30474609.0,88_0_no,40.140743378953886,-74.0175675954469,100.0
07643,40.84635,-74.03879,Little Ferry,NJ,New Jersey,True,,10761.0,2812.9,34003,Bergen,"{""34003"": 100}",Bergen,34003,False,False,America/New_York,"(40.84635, -74.03879)",48.76552459167291,30474609.0,88_0_no,40.140743378953886,-74.0175675954469,100.0
07644,40.87836,-74.08145,Lodi,NJ,New Jersey,True,,24389.0,4144.2,34003,Bergen,"{""34003"": 100}",Bergen,34003,False,False,America/New_York,"(40.87836, -74.08145)",51.074815526365136,30474609.0,88_0_no,40.140743378953886,-74.0175675954469,100.0
07645,41.05293,-74.04985,Montvale,NJ,New Jersey,True,,8538.0,819.4,34003,Bergen,"{""34003"": 99.67, ""36087"": 0.33}",Bergen|Rockland,34003|36087,False,False,America/New_York,"(41.05293, -74.04985)",63.04884243498428,30474609.0,88_0_no,40.140743378953886,-74.0175675954469,100.0
07646,40.93368,-74.01956,New Milford,NJ,New Jersey,True,,16477.0,2786.7,34003,Bergen,"{""34003"": 100}",Bergen,34003,False,False,America/New_York,"(40.93368, -74.01956)",54.786802074063644,30474609.0,88_0_no,40.140743378953886,-74.0175675954469,100.0
07647,41.00674,-73.94255,Northvale,NJ,New Jersey,True,,5561.0,946.8,34003,Bergen,"{""34003"": 98.92, ""36087"": 1.08}",Bergen|Rockland,34003|36087,False,False,America/New_York,"(41.00674, -73.94255)",59.96404406377441,30474609.0,88_0_no,40.140743378953886,-74.0175675954469,100.0
07648,40.99335,-73.95103,Norwood,NJ,New Jersey,True,,5789.0,802.6,34003,Bergen,"{""34003"": 100}",Bergen,34003,False,False,America/New_York,"(40.99335, -73.95103)",59.012927177159455,30474609.0,88_0_no,40.140743378953886,-74.0175675954469,100.0
07649,40.95622,-74.03141,Oradell,NJ,New Jersey,True,,8126.0,1301.1,34003,Bergen,"{""34003"": 100}",Bergen,34003,False,False,America/New_York,"(40.95622, -74.03141)",56.34875425268911,30474609.0,88_0_no,40.140743378953886,-74.0175675954469,100.0
07650,40.84716,-73.99664,Palisades Park,NJ,New Jersey,True,,20693.0,6448.7,34003,Bergen,"{""34003"": 100}",Bergen,34003,False,False,America/New_York,"(40.84716, -73.99664)",48.821124152276724,30474609.0,88_0_no,40.140743378953886,-74.0175675954469,100.0
07652,40.94553,-74.07122,Paramus,NJ,New Jersey,True,,26403.0,976.0,34003,Bergen,"{""34003"": 100}",Bergen,34003,False,False,America/New_York,"(40.94553, -74.07122)",55.67676670065494,30474609.0,88_0_no,40.140743378953886,-74.0175675954469,100.0
07656,41.03524,-74.04232,Park Ridge,NJ,New Jersey,True,,8751.0,1296.0,34003,Bergen,"{""34003"": 100}",Bergen,34003,False,False,America/New_York,"(41.03524, -74.04232)",61.81747365732398,30474609.0,88_0_no,40.140743378953886,-74.0175675954469,100.0
07657,40.83127,-74.01471,Ridgefield,NJ,New Jersey,True,,11209.0,1702.1,34003,Bergen,"{""34003"": 100}",Bergen,34003,False,False,America/New_York,"(40.83127, -74.01471)",47.71108145859888,30474609.0,88_0_no,40.140743378953886,-74.0175675954469,100.0
07660,40.85434,-74.02013,Ridgefield Park,NJ,New Jersey,True,,12928.0,2928.1,34003,Bergen,"{""34003"": 100}",Bergen,34003,False,False,America/New_York,"(40.85434, -74.02013)",49.305014127959666,30474609.0,88_0_no,40.140743378953886,-74.0175675954469,100.0
07661,40.92697,-74.03874,River Edge,NJ,New Jersey,True,,11510.0,2433.8,34003,Bergen,"{""34003"": 100}",Bergen,34003,False,False,America/New_York,"(40.92697, -74.03874)",54.334461211775825,30474609.0,88_0_no,40.140743378953886,-74.0175675954469,100.0
07662,40.90698,-74.07911,Rochelle Park,NJ,New Jersey,True,,5580.0,2174.8,34003,Bergen,"{""34003"": 100}",Bergen,34003,False,False,America/New_York,"(40.90698, -74.07911)",53.04047905846393,30474609.0,88_0_no,40.140743378953886,-74.0175675954469,100.0
07663,40.90328,-74.09545,Saddle Brook,NJ,New Jersey,True,,13762.0,1973.8,34003,Bergen,"{""34003"": 100}",Bergen,34003,False,False,America/New_York,"(40.90328, -74.09545)",52.84480893082678,30474609.0,88_0_no,40.140743378953886,-74.0175675954469,100.0
07666,40.88998,-74.01067,Teaneck,NJ,New Jersey,True,,40461.0,2586.2,34003,Bergen,"{""34003"": 100}",Bergen,34003,False,False,America/New_York,"(40.88998, -74.01067)",51.768587575478286,30474609.0,88_0_no,40.140743378953886,-74.0175675954469,100.0
07670,40.91758,-73.95323,Tenafly,NJ,New Jersey,True,,14550.0,1224.9,34003,Bergen,"{""34003"": 100}",Bergen,34003,False,False,America/New_York,"(40.91758, -73.95323)",53.780533495194234,30474609.0,88_0_no,40.140743378953886,-74.0175675954469,100.0
07675,41.00918,-74.00428,Westwood,NJ,New Jersey,True,,27022.0,1081.8,34003,Bergen,"{""34003"": 99.65, ""36087"": 0.35}",Bergen|Rockland,34003|36087,False,False,America/New_York,"(41.00918, -74.00428)",60.00730703868203,30474609.0,88_0_no,40.140743378953886,-74.0175675954469,100.0
07676,40.98843,-74.06359,Township Of Washington,NJ,New Jersey,True,,9136.0,1194.4,34003,Bergen,"{""34003"": 100}",Bergen,34003,False,False,America/New_York,"(40.98843, -74.06359)",58.619358225092554,30474609.0,88_0_no,40.140743378953886,-74.0175675954469,100.0
07677,41.0253,-74.06038,Woodcliff Lake,NJ,New Jersey,True,,5836.0,667.4,34003,Bergen,"{""34003"": 100}",Bergen,34003,False,False,America/New_York,"(41.0253, -74.06038)",61.15831371478693,30474609.0,88_0_no,40.140743378953886,-74.0175675954469,100.0
07701,40.36046,-74.07866,Red Bank,NJ,New Jersey,True,,23844.0,1005.7,34025,Monmouth,"{""34025"": 100}",Monmouth,34025,False,False,America/New_York,"(40.36046, -74.07866)",15.519047824720321,30474609.0,88_0_no,40.140743378953886,-74.0175675954469,100.0
07702,40.32489,-74.06002,Shrewsbury,NJ,New Jersey,True,,4082.0,729.5,34025,Monmouth,"{""34025"": 100}",Monmouth,34025,False,False,America/New_York,"(40.32489, -74.06002)",12.918868741236057,30474609.0,88_0_no,40.140743378953886,-74.0175675954469,100.0
07703,40.31411,-74.046,Fort Monmouth,NJ,New Jersey,True,,117.0,66.7,34025,Monmouth,"{""34025"": 100}",Monmouth,34025,False,False,America/New_York,"(40.31411, -74.046)",12.07202847315983,30474609.0,88_0_no,40.140743378953886,-74.0175675954469,100.0
07704,40.36176,-74.03926,Fair Haven,NJ,New Jersey,True,,5833.0,1403.8,34025,Monmouth,"{""34025"": 100}",Monmouth,34025,False,False,America/New_York,"(40.36176, -74.03926)",15.313578366474125,30474609.0,88_0_no,40.140743378953886,-74.0175675954469,100.0
07711,40.2379,-74.0076,Allenhurst,NJ,New Jersey,True,,1711.0,1021.1,34025,Monmouth,"{""34025"": 100}",Monmouth,34025,False,False,America/New_York,"(40.2379, -74.0076)",6.733467656082603,30474609.0,88_0_no,40.140743378953886,-74.0175675954469,100.0
07712,40.24805,-74.05531,Asbury Park,NJ,New Jersey,True,,38228.0,1207.2,34025,Monmouth,"{""34025"": 100}",Monmouth,34025,False,False,America/New_York,"(40.24805, -74.05531)",7.677106614367808,30474609.0,88_0_no,40.140743378953886,-74.0175675954469,100.0
07716,40.40237,-74.03533,Atlantic Highlands,NJ,New Jersey,True,,8306.0,728.0,34025,Monmouth,"{""34025"": 100}",Monmouth,34025,False,False,America/New_York,"(40.40237, -74.03533)",18.100914349442256,30474609.0,88_0_no,40.140743378953886,-74.0175675954469,100.0
07717,40.19129,-74.01657,Avon By The Sea,NJ,New Jersey,True,,1731.0,1570.5,34025,Monmouth,"{""34025"": 100}",Monmouth,34025,False,False,America/New_York,"(40.19129, -74.01657)",3.4928360473492095,30474609.0,88_0_no,40.140743378953886,-74.0175675954469,100.0
07718,40.42045,-74.08488,Belford,NJ,New Jersey,True,,7508.0,1400.1,34025,Monmouth,"{""34025"": 100}",Monmouth,34025,False,False,America/New_York,"(40.42045, -74.08488)",19.648883447804455,30474609.0,88_0_no,40.140743378953886,-74.0175675954469,100.0
07719,40.16864,-74.07271,Belmar,NJ,New Jersey,True,,21289.0,647.8,34025,Monmouth,"{""34025"": 100}",Monmouth,34025,False,False,America/New_York,"(40.16864, -74.07271)",3.4921100397729257,30474609.0,88_0_no,40.140743378953886,-74.0175675954469,100.0
07720,40.20176,-74.01276,Bradley Beach,NJ,New Jersey,True,,4175.0,2649.5,34025,Monmouth,"{""34025"": 100}",Monmouth,34025,False,False,America/New_York,"(40.20176, -74.01276)",4.223480821627307,30474609.0,88_0_no,40.140743378953886,-74.0175675954469,100.0
07721,40.43556,-74.23555,Cliffwood,NJ,New Jersey,True,,3337.0,1412.9,34025,Monmouth,"{""34025"": 88.95, ""34023"": 11.05}",Monmouth|Middlesex,34025|34023,False,False,America/New_York,"(40.43556, -74.23555)",23.386343048652456,30474609.0,88_0_no,40.140743378953886,-74.0175675954469,100.0
07722,40.28765,-74.16745,Colts Neck,NJ,New Jersey,True,,9992.0,111.7,34025,Monmouth,"{""34025"": 100}",Monmouth,34025,False,False,America/New_York,"(40.28765, -74.16745)",12.867268089317855,30474609.0,88_0_no,40.140743378953886,-74.0175675954469,100.0
07723,40.25016,-74.00081,Deal,NJ,New Jersey,True,,770.0,180.9,34025,Monmouth,"{""34025"": 100}",Monmouth,34025,False,False,America/New_York,"(40.25016, -74.00081)",7.6115246640377805,30474609.0,88_0_no,40.140743378953886,-74.0175675954469,100.0
07724,40.29801,-74.07517,Eatontown,NJ,New Jersey,True,,21162.0,673.9,34025,Monmouth,"{""34025"": 100}",Monmouth,34025,False,False,America/New_York,"(40.29801, -74.07517)",11.283057010076389,30474609.0,88_0_no,40.140743378953886,-74.0175675954469,100.0
07726,40.28318,-74.34232,Englishtown,NJ,New Jersey,True,,43500.0,507.7,34025,Monmouth,"{""34025"": 98.67, ""34023"": 1.33}",Monmouth|Middlesex,34025|34023,False,False,America/New_York,"(40.28318, -74.34232)",19.760287146846828,30474609.0,88_0_no,40.140743378953886,-74.0175675954469,100.0
07727,40.20352,-74.15863,Farmingdale,NJ,New Jersey,True,,6061.0,91.8,34025,Monmouth,"{""34025"": 100}",Monmouth,34025,False,False,America/New_York,"(40.20352, -74.15863)",8.618410134060461,30474609.0,88_0_no,40.140743378953886,-74.0175675954469,100.0
07728,40.22522,-74.28447,Freehold,NJ,New Jersey,True,,55598.0,432.7,34025,Monmouth,"{""34025"": 100}",Monmouth,34025,False,False,America/New_York,"(40.22522, -74.28447)",15.25002998579231,30474609.0,88_0_no,40.140743378953886,-74.0175675954469,100.0
07730,40.42611,-74.17422,Hazlet,NJ,New Jersey,True,,16664.0,1238.2,34025,Monmouth,"{""34025"": 100}",Monmouth,34025,False,False,America/New_York,"(40.42611, -74.17422)",21.37601313837527,30474609.0,88_0_no,40.140743378953886,-74.0175675954469,100.0
07731,40.15014,-74.20316,Howell,NJ,New Jersey,True,,38783.0,471.2,34025,Monmouth,"{""34025"": 100}",Monmouth,34025,False,False,America/New_York,"(40.15014, -74.20316)",9.82367259331263,30474609.0,88_0_no,40.140743378953886,-74.0175675954469,100.0
07732,40.43115,-73.99192,Highlands,NJ,New Jersey,True,,4814.0,492.7,34025,Monmouth,"{""34025"": 100}",Monmouth,34025,False,False,America/New_York,"(40.43115, -73.99192)",20.110669506958967,30474609.0,88_0_no,40.140743378953886,-74.0175675954469,100.0
07733,40.37683,-74.17259,Holmdel,NJ,New Jersey,True,,16530.0,359.1,34025,Monmouth,"{""34025"": 100}",Monmouth,34025,False,False,America/New_York,"(40.37683, -74.17259)",18.245421610056102,30474609.0,88_0_no,40.140743378953886,-74.0175675954469,100.0
07734,40.44309,-74.13517,Keansburg,NJ,New Jersey,True,,13125.0,2984.7,34025,Monmouth,"{""34025"": 100}",Monmouth,34025,False,False,America/New_York,"(40.44309, -74.13517)",21.790177283858103,30474609.0,88_0_no,40.140743378953886,-74.0175675954469,100.0
07735,40.44108,-74.2028,Keyport,NJ,New Jersey,True,,18530.0,1473.6,34025,Monmouth,"{""34025"": 84.12, ""34023"": 15.88}",Monmouth|Middlesex,34025|34023,False,False,America/New_York,"(40.44108, -74.2028)",22.932850766179378,30474609.0,88_0_no,40.140743378953886,-74.0175675954469,100.0
07737,40.40953,-74.06444,Leonardo,NJ,New Jersey,True,,4186.0,616.0,34025,Monmouth,"{""34025"": 100}",Monmouth,34025,False,False,America/New_York,"(40.40953, -74.06444)",18.735035359783094,30474609.0,88_0_no,40.140743378953886,-74.0175675954469,100.0
07738,40.33918,-74.12841,Lincroft,NJ,New Jersey,True,,6501.0,445.8,34025,Monmouth,"{""34025"": 100}",Monmouth,34025,False,False,America/New_York,"(40.33918, -74.12841)",14.904989864931734,30474609.0,88_0_no,40.140743378953886,-74.0175675954469,100.0
07739,40.33569,-74.03452,Little Silver,NJ,New Jersey,True,,5817.0,831.5,34025,Monmouth,"{""34025"": 100}",Monmouth,34025,False,False,America/New_York,"(40.33569, -74.03452)",13.499172751516193,30474609.0,88_0_no,40.140743378953886,-74.0175675954469,100.0
07740,40.29581,-73.9919,Long Branch,NJ,New Jersey,True,,30557.0,2235.9,34025,Monmouth,"{""34025"": 100}",Monmouth,34025,False,False,America/New_York,"(40.29581, -73.9919)",10.799325141869984,30474609.0,88_0_no,40.140743378953886,-74.0175675954469,100.0
07746,40.31675,-74.25029,Marlboro,NJ,New Jersey,True,,18164.0,566.7,34025,Monmouth,"{""34025"": 100}",Monmouth,34025,False,False,America/New_York,"(40.31675, -74.25029)",17.279899740903605,30474609.0,88_0_no,40.140743378953886,-74.0175675954469,100.0
07747,40.41312,-74.2521,Matawan,NJ,New Jersey,True,,31402.0,947.9,34023,Middlesex,"{""34023"": 53.76, ""34025"": 46.24}",Middlesex|Monmouth,34023|34025,False,False,America/New_York,"(40.41312, -74.2521)",22.51696068019089,30474609.0,88_0_no,40.140743378953886,-74.0175675954469,100.0
07748,40.39524,-74.11573,Middletown,NJ,New Jersey,True,,26773.0,795.2,34025,Monmouth,"{""34025"": 100}",Monmouth,34025,False,False,America/New_York,"(40.39524, -74.11573)",18.329773376681242,30474609.0,88_0_no,40.140743378953886,-74.0175675954469,100.0
07750,40.33639,-73.98632,Monmouth Beach,NJ,New Jersey,True,,3226.0,1195.4,34025,Monmouth,"{""34025"": 100}",Monmouth,34025,False,False,America/New_York,"(40.33639, -73.98632)",13.617991091527943,30474609.0,88_0_no,40.140743378953886,-74.0175675954469,100.0
07751,40.36191,-74.25821,Morganville,NJ,New Jersey,True,,19851.0,460.6,34025,Monmouth,"{""34025"": 100}",Monmouth,34025,False,False,America/New_York,"(40.36191, -74.25821)",19.86317843478581,30474609.0,88_0_no,40.140743378953886,-74.0175675954469,100.0
07753,40.21184,-74.07421,Neptune,NJ,New Jersey,True,,36583.0,885.3,34025,Monmouth,"{""34025"": 100}",Monmouth,34025,False,False,America/New_York,"(40.21184, -74.07421)",5.750858173631678,30474609.0,88_0_no,40.140743378953886,-74.0175675954469,100.0
07755,40.26351,-74.02344,Oakhurst,NJ,New Jersey,True,,6178.0,813.1,34025,Monmouth,"{""34025"": 100}",Monmouth,34025,False,False,America/New_York,"(40.26351, -74.02344)",8.488024595834812,30474609.0,88_0_no,40.140743378953886,-74.0175675954469,100.0
07756,40.21184,-74.00832,Ocean Grove,NJ,New Jersey,True,,3151.0,3253.9,34025,Monmouth,"{""34025"": 100}",Monmouth,34025,False,False,America/New_York,"(40.21184, -74.00832)",4.936508058466221,30474609.0,88_0_no,40.140743378953886,-74.0175675954469,100.0
07757,40.31583,-74.01855,Oceanport,NJ,New Jersey,True,,5598.0,758.4,34025,Monmouth,"{""34025"": 100}",Monmouth,34025,False,False,America/New_York,"(40.31583, -74.01855)",12.097444266867294,30474609.0,88_0_no,40.140743378953886,-74.0175675954469,100.0
07758,40.431,-74.103,Port Monmouth,NJ,New Jersey,True,,4363.0,1052.5,34025,Monmouth,"{""34025"": 100}",Monmouth,34025,False,False,America/New_York,"(40.431, -74.103)",20.554105763797253,30474609.0,88_0_no,40.140743378953886,-74.0175675954469,100.0
07760,40.37053,-74.00495,Rumson,NJ,New Jersey,True,,8348.0,380.7,34025,Monmouth,"{""34025"": 100}",Monmouth,34025,False,False,America/New_York,"(40.37053, -74.00495)",15.890677551403368,30474609.0,88_0_no,40.140743378953886,-74.0175675954469,100.0
07762,40.15294,-74.0359,Spring Lake,NJ,New Jersey,True,,8156.0,1116.2,34025,Monmouth,"{""34025"": 100}",Monmouth,34025,False,False,America/New_York,"(40.15294, -74.0359)",1.2835895963541268,30474609.0,88_0_no,40.140743378953886,-74.0175675954469,100.0
07764,40.28832,-74.01854,West Long Branch,NJ,New Jersey,True,,7911.0,1069.5,34025,Monmouth,"{""34025"": 100}",Monmouth,34025,False,False,America/New_York,"(40.28832, -74.01854)",10.196702387201276,30474609.0,88_0_no,40.140743378953886,-74.0175675954469,100.0
07801,40.93167,-74.54643,Dover,NJ,New Jersey,True,,25174.0,750.4,34027,Morris,"{""34027"": 100}",Morris,34027,False,False,America/New_York,"(40.93167, -74.54643)",61.29900137807384,30474609.0,88_0_no,40.140743378953886,-74.0175675954469,100.0
07803,40.87819,-74.60003,Mine Hill,NJ,New Jersey,True,,3511.0,461.3,34027,Morris,"{""34027"": 100}",Morris,34027,False,False,America/New_York,"(40.87819, -74.60003)",59.43360321207171,30474609.0,88_0_no,40.140743378953886,-74.0175675954469,100.0
07820,40.93104,-74.80424,Allamuchy,NJ,New Jersey,True,,7.0,1.8,34041,Warren,"{""34041"": 100}",Warren,34041,False,False,America/New_York,"(40.93104, -74.80424)",68.46865287893054,30474609.0,88_0_no,40.140743378953886,-74.0175675954469,100.0
07821,40.96461,-74.74807,Andover,NJ,New Jersey,True,,8933.0,80.6,34037,Sussex,"{""34037"": 83.89, ""34041"": 16.11}",Sussex|Warren,34037|34041,False,False,America/New_York,"(40.96461, -74.74807)",68.63620305172968,30474609.0,88_0_no,40.140743378953886,-74.0175675954469,100.0
07822,41.1409,-74.70373,Augusta,NJ,New Jersey,True,,1002.0,52.4,34037,Sussex,"{""34037"": 100}",Sussex,34037,False,False,America/New_York,"(41.1409, -74.70373)",77.90668249352079,30474609.0,88_0_no,40.140743378953886,-74.0175675954469,100.0
07823,40.82589,-75.03781,Belvidere,NJ,New Jersey,True,,7981.0,122.9,34041,Warren,"{""34041"": 100}",Warren,34041,False,False,America/New_York,"(40.82589, -75.03781)",71.52283088678655,30474609.0,88_0_no,40.140743378953886,-74.0175675954469,100.0
07825,40.98308,-74.9623,Blairstown,NJ,New Jersey,True,,9686.0,44.0,34041,Warren,"{""34041"": 97.83, ""34037"": 2.17}",Warren|Sussex,34041|34037,False,False,America/New_York,"(40.98308, -74.9623)",76.4603431951129,30474609.0,88_0_no,40.140743378953886,-74.0175675954469,100.0
07826,41.17633,-74.79042,Branchville,NJ,New Jersey,True,,5827.0,38.6,34037,Sussex,"{""34037"": 100}",Sussex,34037,False,False,America/New_York,"(41.17633, -74.79042)",82.22244376598819,30474609.0,88_0_no,40.140743378953886,-74.0175675954469,100.0
07827,41.28918,-74.74351,Montague,NJ,New Jersey,True,,3979.0,28.9,34037,Sussex,"{""34037"": 100}",Sussex,34037,False,False,America/New_York,"(41.28918, -74.74351)",87.9859155847624,30474609.0,88_0_no,40.140743378953886,-74.0175675954469,100.0
07828,40.88559,-74.75237,Budd Lake,NJ,New Jersey,True,,15580.0,424.6,34027,Morris,"{""34027"": 100}",Morris,34027,False,False,America/New_York,"(40.88559, -74.75237)",64.3295568363301,30474609.0,88_0_no,40.140743378953886,-74.0175675954469,100.0
07830,40.72099,-74.80033,Califon,NJ,New Jersey,True,,7412.0,110.0,34019,Hunterdon,"{""34019"": 81.91, ""34027"": 18.09}",Hunterdon|Morris,34019|34027,False,False,America/New_York,"(40.72099, -74.80033)",57.46345422149961,30474609.0,88_0_no,40.140743378953886,-74.0175675954469,100.0
07832,40.94755,-75.06385,Columbia,NJ,New Jersey,True,,3223.0,29.6,34041,Warren,"{""34041"": 100}",Warren,34041,False,False,America/New_York,"(40.94755, -75.06385)",78.26309220966631,30474609.0,88_0_no,40.140743378953886,-74.0175675954469,100.0
07833,40.89422,-75.06979,Delaware,NJ,New Jersey,True,,111.0,139.1,34041,Warren,"{""34041"": 100}",Warren,34041,False,False,America/New_York,"(40.89422, -75.06979)",75.92553347244873,30474609.0,88_0_no,40.140743378953886,-74.0175675954469,100.0
07834,40.88752,-74.48689,Denville,NJ,New Jersey,True,,17717.0,589.1,34027,Morris,"{""34027"": 100}",Morris,34027,False,False,America/New_York,"(40.88752, -74.48689)",57.18396822040597,30474609.0,88_0_no,40.140743378953886,-74.0175675954469,100.0
07836,40.84767,-74.70163,Flanders,NJ,New Jersey,True,,11253.0,300.2,34027,Morris,"{""34027"": 100}",Morris,34027,False,False,America/New_York,"(40.84767, -74.70163)",60.6430638372784,30474609.0,88_0_no,40.140743378953886,-74.0175675954469,100.0
07838,40.88925,-74.91042,Great Meadows,NJ,New Jersey,True,,3069.0,45.8,34041,Warren,"{""34041"": 100}",Warren,34041,False,False,America/New_York,"(40.88925, -74.91042)",69.81436363601031,30474609.0,88_0_no,40.140743378953886,-74.0175675954469,100.0
07840,40.86034,-74.83192,Hackettstown,NJ,New Jersey,True,,30347.0,313.9,34041,Warren,"{""34041"": 76.38, ""34027"": 23.62}",Warren|Morris,34041|34027,False,False,America/New_York,"(40.86034, -74.83192)",65.59329572176192,30474609.0,88_0_no,40.140743378953886,-74.0175675954469,100.0
07842,40.94477,-74.50065,Hibernia,NJ,New Jersey,True,,69.0,105.8,34027,Morris,"{""34027"": 100}",Morris,34027,False,False,America/New_York,"(40.94477, -74.50065)",61.069246608248484,30474609.0,88_0_no,40.140743378953886,-74.0175675954469,100.0
07843,40.93989,-74.65928,Hopatcong,NJ,New Jersey,True,,11389.0,1131.0,34037,Sussex,"{""34037"": 100}",Sussex,34037,False,False,America/New_York,"(40.93989, -74.65928)",64.68423089006036,30474609.0,88_0_no,40.140743378953886,-74.0175675954469,100.0
07846,40.96694,-74.87671,Johnsonburg,NJ,New Jersey,True,,43.0,202.7,34041,Warren,"{""34041"": 100}",Warren,34041,False,False,America/New_York,"(40.96694, -74.87671)",72.75132394183602,30474609.0,88_0_no,40.140743378953886,-74.0175675954469,100.0
07847,40.8856,-74.6237,Kenvil,NJ,New Jersey,True,,2083.0,332.2,34027,Morris,"{""34027"": 100}",Morris,34027,False,False,America/New_York,"(40.8856, -74.6237)",60.51702290885621,30474609.0,88_0_no,40.140743378953886,-74.0175675954469,100.0
07848,41.10339,-74.68312,Lafayette,NJ,New Jersey,True,,4631.0,78.0,34037,Sussex,"{""34037"": 100}",Sussex,34037,False,False,America/New_York,"(41.10339, -74.68312)",75.11388171169028,30474609.0,88_0_no,40.140743378953886,-74.0175675954469,100.0
07849,40.96861,-74.61066,Lake Hopatcong,NJ,New Jersey,True,,8865.0,511.2,34027,Morris,"{""34027"": 99.62, ""34037"": 0.38}",Morris|Sussex,34027|34037,False,False,America/New_York,"(40.96861, -74.61066)",65.12443703296454,30474609.0,88_0_no,40.140743378953886,-74.0175675954469,100.0
07850,40.90716,-74.66158,Landing,NJ,New Jersey,True,,7092.0,983.7,34027,Morris,"{""34027"": 100}",Morris,34027,False,False,America/New_York,"(40.90716, -74.66158)",62.83428034104277,30474609.0,88_0_no,40.140743378953886,-74.0175675954469,100.0
07851,41.19883,-74.85923,Layton,NJ,New Jersey,True,,185.0,6.2,34037,Sussex,"{""34037"": 100}",Sussex,34037,False,False,America/New_York,"(41.19883, -74.85923)",85.38110510271437,30474609.0,88_0_no,40.140743378953886,-74.0175675954469,100.0
07852,40.88374,-74.66531,Ledgewood,NJ,New Jersey,True,,4130.0,441.2,34027,Morris,"{""34027"": 100}",Morris,34027,False,False,America/New_York,"(40.88374, -74.66531)",61.58802408510493,30474609.0,88_0_no,40.140743378953886,-74.0175675954469,100.0
07853,40.78785,-74.78315,Long Valley,NJ,New Jersey,True,,13037.0,154.8,34027,Morris,"{""34027"": 100}",Morris,34027,False,False,America/New_York,"(40.78785, -74.78315)",60.15480700053486,30474609.0,88_0_no,40.140743378953886,-74.0175675954469,100.0
07856,40.9189,-74.6336,Mount Arlington,NJ,New Jersey,True,,4198.0,472.1,34027,Morris,"{""34027"": 100}",Morris,34027,False,False,America/New_York,"(40.9189, -74.6336)",62.74778295405571,30474609.0,88_0_no,40.140743378953886,-74.0175675954469,100.0
07857,40.89733,-74.69998,Netcong,NJ,New Jersey,True,,3167.0,1170.8,34027,Morris,"{""34027"": 100}",Morris,34027,False,False,America/New_York,"(40.89733, -74.69998)",63.38261104089256,30474609.0,88_0_no,40.140743378953886,-74.0175675954469,100.0
07860,41.0595,-74.81159,Newton,NJ,New Jersey,True,,25355.0,97.7,34037,Sussex,"{""34037"": 94.11, ""34041"": 5.89}",Sussex|Warren,34037|34041,False,False,America/New_York,"(41.0595, -74.81159)",75.92569488174895,30474609.0,88_0_no,40.140743378953886,-74.0175675954469,100.0
07863,40.81515,-74.96562,Oxford,NJ,New Jersey,True,,3767.0,73.1,34041,Warren,"{""34041"": 100}",Warren,34041,False,False,America/New_York,"(40.81515, -74.96562)",68.2188766970893,30474609.0,88_0_no,40.140743378953886,-74.0175675954469,100.0
07865,40.78722,-74.89845,Port Murray,NJ,New Jersey,True,,2227.0,52.0,34041,Warren,"{""34041"": 64.47, ""34019"": 21.24, ""34027"": 14.29}",Warren|Hunterdon|Morris,34041|34019|34027,False,False,America/New_York,"(40.78722, -74.89845)",64.33724279157178,30474609.0,88_0_no,40.140743378953886,-74.0175675954469,100.0
07866,40.9531,-74.48639,Rockaway,NJ,New Jersey,True,,22651.0,380.1,34027,Morris,"{""34027"": 100}",Morris,34027,False,False,America/New_York,"(40.9531, -74.48639)",61.28813397306547,30474609.0,88_0_no,40.140743378953886,-74.0175675954469,100.0
07869,40.84528,-74.5807,Randolph,NJ,New Jersey,True,,25391.0,488.6,34027,Morris,"{""34027"": 100}",Morris,34027,False,False,America/New_York,"(40.84528, -74.5807)",56.9660560455253,30474609.0,88_0_no,40.140743378953886,-74.0175675954469,100.0
07870,40.80535,-74.82303,Schooleys Mountain,NJ,New Jersey,True,,23.0,9.6,34027,Morris,"{""34027"": 100}",Morris,34027,False,False,America/New_York,"(40.80535, -74.82303)",62.45667421982818,30474609.0,88_0_no,40.140743378953886,-74.0175675954469,100.0
07871,41.04666,-74.62793,Sparta,NJ,New Jersey,True,,20022.0,202.6,34037,Sussex,"{""34037"": 100}",Sussex,34037,False,False,America/New_York,"(41.04666, -74.62793)",70.30839095216515,30474609.0,88_0_no,40.140743378953886,-74.0175675954469,100.0
07874,40.9285,-74.70994,Stanhope,NJ,New Jersey,True,,8020.0,366.0,34037,Sussex,"{""34037"": 96.87, ""34041"": 3.13}",Sussex|Warren,34037|34041,False,False,America/New_York,"(40.9285, -74.70994)",65.45464763329151,30474609.0,88_0_no,40.140743378953886,-74.0175675954469,100.0
07876,40.85302,-74.65627,Succasunna,NJ,New Jersey,True,,9383.0,631.6,34027,Morris,"{""34027"": 100}",Morris,34027,False,False,America/New_York,"(40.85302, -74.65627)",59.56588396901703,30474609.0,88_0_no,40.140743378953886,-74.0175675954469,100.0
