zip,lat,lng,city,state_id,state_name,zcta,parent_zcta,population,density,county_fips,county_name,county_weights,county_names_all,county_fips_all,imprecise,military,timezone,Coord,distance_miles,market_total_population,market_id,market_center_lat,market_center_lng,radius_miles
83302,42.10012,-114.82857,Rogerson,ID,Idaho,True,,243.0,0.3,16083,Twin Falls,"{""16083"": 74.28, ""16073"": 25.72}",Twin Falls|Owyhee,16083|16073,False,False,America/Boise,"(42.10012, -114.82857)",100.54272337104884,71864.0,99_0_no,40.82676869354288,-115.76854173597762,100.0
83346,42.19491,-113.9046,Oakley,ID,Idaho,True,,1981.0,2.5,16031,Cassia,"{""16031"": 100}",Cassia,16031,False,False,America/Boise,"(42.19491, -113.9046)",135.03505964216612,71864.0,99_0_no,40.82676869354288,-115.76854173597762,100.0
84034,39.99427,-113.9575,Ibapah,UT,Utah,True,,206.0,0.2,49045,Tooele,"{""49045"": 69.79, ""49023"": 21.01, ""32033"": 9.2}",Tooele|Juab|White Pine,49045|49023|32033,False,False,America/Denver,"(39.99427, -113.9575)",111.29013006351816,71864.0,99_0_no,40.82676869354288,-115.76854173597762,100.0
89301,39.52872,-114.76615,Ely,NV,Nevada,True,,7962.0,1.4,32033,White Pine,"{""32033"": 100}",White Pine,32033,False,False,America/Los_Angeles,"(39.52872, -114.76615)",104.13202435471035,71864.0,99_0_no,40.82676869354288,-115.76854173597762,100.0
89310,39.47836,-117.13758,Austin,NV,Nevada,True,,225.0,0.0,32015,Lander,"{""32015"": 94.43, ""32023"": 5.57}",Lander|Nye,32015|32023,False,False,America/Los_Angeles,"(39.47836, -117.13758)",117.92473673737955,71864.0,99_0_no,40.82676869354288,-115.76854173597762,100.0
89316,39.67956,-116.01497,Eureka,NV,Nevada,True,,1228.0,0.3,32011,Eureka,"{""32011"": 76.38, ""32033"": 23.62}",Eureka|White Pine,32011|32033,False,False,America/Los_Angeles,"(39.67956, -116.01497)",80.32256586324208,71864.0,99_0_no,40.82676869354288,-115.76854173597762,100.0
89318,39.43783,-114.8188,McGill,NV,Nevada,True,,858.0,9.1,32033,White Pine,"{""32033"": 100}",White Pine,32033,False,False,America/Los_Angeles,"(39.43783, -114.8188)",108.28800734389058,71864.0,99_0_no,40.82676869354288,-115.76854173597762,100.0
89414,41.04934,-117.22765,Golconda,NV,Nevada,True,,90.0,0.1,32013,Humboldt,"{""32013"": 73.77, ""32007"": 26.23}",Humboldt|Elko,32013|32007,False,False,America/Los_Angeles,"(41.04934, -117.22765)",77.69344862350461,71864.0,99_0_no,40.82676869354288,-115.76854173597762,100.0
89426,41.45402,-117.59307,Paradise Valley,NV,Nevada,True,,268.0,0.6,32013,Humboldt,"{""32013"": 100}",Humboldt,32013,False,False,America/Los_Angeles,"(41.45402, -117.59307)",104.35923124616538,71864.0,99_0_no,40.82676869354288,-115.76854173597762,100.0
89438,40.79671,-117.12004,Valmy,NV,Nevada,True,,85.0,13.3,32013,Humboldt,"{""32013"": 100}",Humboldt,32013,False,False,America/Los_Angeles,"(40.79671, -117.12004)",70.70522580948246,71864.0,99_0_no,40.82676869354288,-115.76854173597762,100.0
89801,41.18096,-115.76076,Elko,NV,Nevada,True,,26473.0,8.4,32007,Elko,"{""32007"": 100}",Elko,32007,False,False,America/Los_Angeles,"(41.18096, -115.76076)",24.475651875061438,71864.0,99_0_no,40.82676869354288,-115.76854173597762,100.0
89815,40.56652,-115.59504,Spring Creek,NV,Nevada,True,,15292.0,8.4,32007,Elko,"{""32007"": 100}",Elko,32007,False,False,America/Los_Angeles,"(40.56652, -115.59504)",20.14795026905599,71864.0,99_0_no,40.82676869354288,-115.76854173597762,100.0
89820,40.43192,-116.97134,Battle Mountain,NV,Nevada,True,,5403.0,1.0,32015,Lander,"{""32015"": 97.95, ""32011"": 2.05}",Lander|Eureka,32015|32011,False,False,America/Los_Angeles,"(40.43192, -116.97134)",68.71845403088064,71864.0,99_0_no,40.82676869354288,-115.76854173597762,100.0
89821,40.55585,-116.41218,Crescent Valley,NV,Nevada,True,,483.0,0.4,32011,Eureka,"{""32011"": 100}",Eureka,32011,False,False,America/Los_Angeles,"(40.55585, -116.41218)",38.56661344402311,71864.0,99_0_no,40.82676869354288,-115.76854173597762,100.0
89822,40.49237,-116.189,Carlin,NV,Nevada,True,,2013.0,3.2,32011,Eureka,"{""32011"": 93.15, ""32007"": 6.85}",Eureka|Elko,32011|32007,False,False,America/Los_Angeles,"(40.49237, -116.189)",31.929465170385583,71864.0,99_0_no,40.82676869354288,-115.76854173597762,100.0
89823,40.96431,-115.22821,Deeth,NV,Nevada,True,,363.0,0.6,32007,Elko,"{""32007"": 100}",Elko,32007,False,False,America/Los_Angeles,"(40.96431, -115.22821)",29.777529536707387,71864.0,99_0_no,40.82676869354288,-115.76854173597762,100.0
89825,41.90422,-114.71103,Jackpot,NV,Nevada,True,,1101.0,6.7,32007,Elko,"{""32007"": 100}",Elko,32007,False,False,America/Los_Angeles,"(41.90422, -114.71103)",92.4599929357385,71864.0,99_0_no,40.82676869354288,-115.76854173597762,100.0
89828,40.77384,-115.36403,Lamoille,NV,Nevada,True,,175.0,0.4,32007,Elko,"{""32007"": 100}",Elko,32007,False,False,America/Los_Angeles,"(40.77384, -115.36403)",21.470943702865547,71864.0,99_0_no,40.82676869354288,-115.76854173597762,100.0
89830,41.32794,-114.22677,Montello,NV,Nevada,True,,99.0,0.2,32007,Elko,"{""32007"": 100}",Elko,32007,False,False,America/Los_Angeles,"(41.32794, -114.22677)",87.44814491631396,71864.0,99_0_no,40.82676869354288,-115.76854173597762,100.0
89831,41.75992,-116.03935,Mountain City,NV,Nevada,True,,11.0,0.0,32007,Elko,"{""32007"": 100}",Elko,32007,False,False,America/Los_Angeles,"(41.75992, -116.03935)",65.98938965851481,71864.0,99_0_no,40.82676869354288,-115.76854173597762,100.0
89832,41.98001,-116.19537,Owyhee,NV,Nevada,True,,1079.0,2.4,32007,Elko,"{""32007"": 66.92, ""16073"": 33.08}",Elko|Owyhee,32007|16073,False,False,America/Los_Angeles,"(41.98001, -116.19537)",82.69449007889396,71864.0,99_0_no,40.82676869354288,-115.76854173597762,100.0
89833,40.4692,-115.34201,Ruby Valley,NV,Nevada,True,,143.0,0.1,32007,Elko,"{""32007"": 100}",Elko,32007,False,False,America/Los_Angeles,"(40.4692, -115.34201)",33.32169016280927,71864.0,99_0_no,40.82676869354288,-115.76854173597762,100.0
89834,41.42358,-116.24843,Tuscarora,NV,Nevada,True,,166.0,0.1,32007,Elko,"{""32007"": 100}",Elko,32007,False,False,America/Los_Angeles,"(41.42358, -116.24843)",48.20982085364488,71864.0,99_0_no,40.82676869354288,-115.76854173597762,100.0
89835,41.2848,-114.87765,Wells,NV,Nevada,True,,1544.0,0.3,32007,Elko,"{""32007"": 100}",Elko,32007,False,False,America/Los_Angeles,"(41.2848, -114.87765)",56.17807427271695,71864.0,99_0_no,40.82676869354288,-115.76854173597762,100.0
89883,40.84711,-114.18217,West Wendover,NV,Nevada,True,,4373.0,5.8,32007,Elko,"{""32007"": 100}",Elko,32007,False,False,America/Los_Angeles,"(40.84711, -114.18217)",82.93718178097353,71864.0,99_0_no,40.82676869354288,-115.76854173597762,100.0
