zip,lat,lng,city,state_id,state_name,zcta,parent_zcta,population,density,county_fips,county_name,county_weights,county_names_all,county_fips_all,imprecise,military,timezone,Coord,distance_miles,market_total_population,market_id,market_center_lat,market_center_lng,radius_miles
36539,31.3475,-88.39358,Fruitdale,AL,Alabama,True,,605.0,3.6,1129,Washington,"{""01129"": 100}",Washington,01129,False,False,America/Chicago,"(31.3475, -88.39358)",65.52629051113031,533802.0,197_0_yes,32.019016484485874,-89.18056103864105,50.0
36558,31.61606,-88.33034,Millry,AL,Alabama,True,,3755.0,6.1,1129,Washington,"{""01129"": 89.44, ""01023"": 10.56}",Washington|Choctaw,01129|01023,False,False,America/Chicago,"(31.61606, -88.33034)",57.15635140162172,533802.0,197_0_yes,32.019016484485874,-89.18056103864105,50.0
36907,32.43895,-88.34797,Cuba,AL,Alabama,True,,1531.0,4.9,1119,Sumter,"{""01119"": 100}",Sumter,01119,False,False,America/Chicago,"(32.43895, -88.34797)",56.65605691808207,533802.0,197_0_yes,32.019016484485874,-89.18056103864105,50.0
36913,31.96069,-88.44667,Melvin,AL,Alabama,True,,50.0,2.0,1023,Choctaw,"{""01023"": 100}",Choctaw,01023,False,False,America/Chicago,"(31.96069, -88.44667)",43.19508445231633,533802.0,197_0_yes,32.019016484485874,-89.18056103864105,50.0
36915,31.95894,-88.36019,Needham,AL,Alabama,True,,645.0,6.5,1023,Choctaw,"{""01023"": 100}",Choctaw,01023,False,False,America/Chicago,"(31.95894, -88.36019)",48.25378833326698,533802.0,197_0_yes,32.019016484485874,-89.18056103864105,50.0
39042,32.2135,-89.88966,Brandon,MS,Mississippi,True,,36793.0,66.3,28121,Rankin,"{""28121"": 98.73, ""28129"": 1.27}",Rankin|Smith,28121|28129,False,False,America/Chicago,"(32.2135, -89.88966)",43.617910665412225,533802.0,197_0_yes,32.019016484485874,-89.18056103864105,50.0
39044,32.02869,-89.97161,Braxton,MS,Mississippi,True,,3604.0,9.9,28127,Simpson,"{""28127"": 59.26, ""28121"": 40.74}",Simpson|Rankin,28127|28121,False,False,America/Chicago,"(32.02869, -89.97161)",46.34380627669137,533802.0,197_0_yes,32.019016484485874,-89.18056103864105,50.0
39046,32.62834,-89.99634,Canton,MS,Mississippi,True,,27693.0,34.3,28089,Madison,"{""28089"": 99.85, ""28163"": 0.15}",Madison|Yazoo,28089|28163,False,False,America/Chicago,"(32.62834, -89.99634)",63.569299477729565,533802.0,197_0_yes,32.019016484485874,-89.18056103864105,50.0
39047,32.43356,-89.95011,Brandon,MS,Mississippi,True,,40496.0,161.3,28121,Rankin,"{""28121"": 100}",Rankin,28121,False,False,America/Chicago,"(32.43356, -89.95011)",53.324722052864594,533802.0,197_0_yes,32.019016484485874,-89.18056103864105,50.0
39057,32.49268,-89.28381,Conehatta,MS,Mississippi,True,,2403.0,14.8,28101,Newton,"{""28101"": 87.51, ""28123"": 12.49}",Newton|Scott,28101|28123,False,False,America/Chicago,"(32.49268, -89.28381)",33.278429131128725,533802.0,197_0_yes,32.019016484485874,-89.18056103864105,50.0
39062,31.98479,-89.89815,D Lo,MS,Mississippi,True,,600.0,163.3,28127,Simpson,"{""28127"": 100}",Simpson,28127,False,False,America/Chicago,"(31.98479, -89.89815)",42.11229657150059,533802.0,197_0_yes,32.019016484485874,-89.18056103864105,50.0
39074,32.3872,-89.47398,Forest,MS,Mississippi,True,,14951.0,20.8,28123,Scott,"{""28123"": 83.23, ""28129"": 16.77}",Scott|Smith,28123|28129,False,False,America/Chicago,"(32.3872, -89.47398)",30.682603056135346,533802.0,197_0_yes,32.019016484485874,-89.18056103864105,50.0
39092,32.31489,-89.36833,Lake,MS,Mississippi,True,,3059.0,11.7,28123,Scott,"{""28123"": 79.84, ""28101"": 14.18, ""28129"": 5.98}",Scott|Newton|Smith,28123|28101|28129,False,False,America/Chicago,"(32.31489, -89.36833)",23.206030149101583,533802.0,197_0_yes,32.019016484485874,-89.18056103864105,50.0
39094,32.57497,-89.67591,Lena,MS,Mississippi,True,,3714.0,8.4,28079,Leake,"{""28079"": 43.08, ""28123"": 37.9, ""28121"": 19.01}",Leake|Scott|Rankin,28079|28123|28121,False,False,America/Chicago,"(32.57497, -89.67591)",48.08832160841136,533802.0,197_0_yes,32.019016484485874,-89.18056103864105,50.0
39111,31.89536,-89.71816,Magee,MS,Mississippi,True,,8929.0,24.4,28127,Simpson,"{""28127"": 78.99, ""28129"": 21.01}",Simpson|Smith,28127|28129,False,False,America/Chicago,"(31.89536, -89.71816)",32.652622364155704,533802.0,197_0_yes,32.019016484485874,-89.18056103864105,50.0
39114,31.95331,-89.83257,Mendenhall,MS,Mississippi,True,,10362.0,21.0,28127,Simpson,"{""28127"": 88.2, ""28121"": 11.8}",Simpson|Rankin,28127|28121,False,False,America/Chicago,"(31.95331, -89.83257)",38.4786253040057,533802.0,197_0_yes,32.019016484485874,-89.18056103864105,50.0
39116,31.89165,-89.54925,Mize,MS,Mississippi,True,,3126.0,14.1,28129,Smith,"{""28129"": 100}",Smith,28129,False,False,America/Chicago,"(31.89165, -89.54925)",23.33652683850719,533802.0,197_0_yes,32.019016484485874,-89.18056103864105,50.0
39117,32.31096,-89.66413,Morton,MS,Mississippi,True,,10354.0,15.9,28123,Scott,"{""28123"": 70.37, ""28129"": 25.81, ""28121"": 3.82}",Scott|Smith|Rankin,28123|28129|28121,False,False,America/Chicago,"(32.31096, -89.66413)",34.739458937064725,533802.0,197_0_yes,32.019016484485874,-89.18056103864105,50.0
39119,31.75236,-89.67509,Mount Olive,MS,Mississippi,True,,4733.0,12.4,28031,Covington,"{""28031"": 55.97, ""28129"": 15.85, ""28065"": 15.68, ""28127"": 12.5}",Covington|Smith|Jefferson Davis|Simpson,28031|28129|28065|28127,False,False,America/Chicago,"(31.75236, -89.67509)",34.368405001511604,533802.0,197_0_yes,32.019016484485874,-89.18056103864105,50.0
39140,31.75211,-90.00512,Newhebron,MS,Mississippi,True,,2364.0,9.4,28065,Jefferson Davis,"{""28065"": 36.45, ""28127"": 32.01, ""28077"": 31.54}",Jefferson Davis|Simpson|Lawrence,28065|28127|28077,False,False,America/Chicago,"(31.75211, -90.00512)",51.77059678395173,533802.0,197_0_yes,32.019016484485874,-89.18056103864105,50.0
39145,32.33862,-89.79819,Pelahatchie,MS,Mississippi,True,,5293.0,15.8,28121,Rankin,"{""28121"": 97.99, ""28123"": 2.01}",Rankin|Scott,28121|28123,False,False,America/Chicago,"(32.33862, -89.79819)",42.33442031687616,533802.0,197_0_yes,32.019016484485874,-89.18056103864105,50.0
39149,31.83354,-90.00985,Pinola,MS,Mississippi,True,,1211.0,5.9,28127,Simpson,"{""28127"": 100}",Simpson,28127,False,False,America/Chicago,"(31.83354, -90.00985)",50.29086991708966,533802.0,197_0_yes,32.019016484485874,-89.18056103864105,50.0
39152,32.2011,-89.57779,Pulaski,MS,Mississippi,True,,1059.0,5.7,28129,Smith,"{""28129"": 65.01, ""28123"": 34.99}",Smith|Scott,28129|28123,False,False,America/Chicago,"(32.2011, -89.57779)",26.433294211528516,533802.0,197_0_yes,32.019016484485874,-89.18056103864105,50.0
39153,32.05133,-89.50159,Raleigh,MS,Mississippi,True,,2935.0,7.5,28129,Smith,"{""28129"": 100}",Smith,28129,False,False,America/Chicago,"(32.05133, -89.50159)",18.93540369190968,533802.0,197_0_yes,32.019016484485874,-89.18056103864105,50.0
39168,31.82994,-89.40974,Taylorsville,MS,Mississippi,True,,6441.0,16.7,28129,Smith,"{""28129"": 64.53, ""28067"": 19.84, ""28031"": 15.63}",Smith|Jones|Covington,28129|28067|28031,False,False,America/Chicago,"(31.82994, -89.40974)",18.742765583028532,533802.0,197_0_yes,32.019016484485874,-89.18056103864105,50.0
39189,32.60412,-89.4003,Walnut Grove,MS,Mississippi,True,,3915.0,19.7,28079,Leake,"{""28079"": 74.36, ""28123"": 25.64}",Leake|Scott,28079|28123,False,False,America/Chicago,"(32.60412, -89.4003)",42.41429187334962,533802.0,197_0_yes,32.019016484485874,-89.18056103864105,50.0
39301,32.27289,-88.59226,Meridian,MS,Mississippi,True,,24911.0,36.9,28075,Lauderdale,"{""28075"": 68.9, ""28023"": 31.1}",Lauderdale|Clarke,28075|28023,False,False,America/Chicago,"(32.27289, -88.59226)",38.628451372743385,533802.0,197_0_yes,32.019016484485874,-89.18056103864105,50.0
39305,32.46392,-88.72465,Meridian,MS,Mississippi,True,,20419.0,79.5,28075,Lauderdale,"{""28075"": 100}",Lauderdale,28075,False,False,America/Chicago,"(32.46392, -88.72465)",40.679219859091766,533802.0,197_0_yes,32.019016484485874,-89.18056103864105,50.0
39307,32.33847,-88.79217,Meridian,MS,Mississippi,True,,16926.0,72.1,28075,Lauderdale,"{""28075"": 100}",Lauderdale,28075,False,False,America/Chicago,"(32.33847, -88.79217)",31.671147234369336,533802.0,197_0_yes,32.019016484485874,-89.18056103864105,50.0
39320,32.56169,-88.74507,Bailey,MS,Mississippi,True,,2308.0,19.0,28075,Lauderdale,"{""28075"": 57.75, ""28069"": 42.25}",Lauderdale|Kemper,28075|28069,False,False,America/Chicago,"(32.56169, -88.74507)",45.308717120474874,533802.0,197_0_yes,32.019016484485874,-89.18056103864105,50.0
39322,31.58344,-88.53203,Buckatunna,MS,Mississippi,True,,2054.0,10.8,28153,Wayne,"{""28153"": 100}",Wayne,28153,False,False,America/Chicago,"(31.58344, -88.53203)",48.538611867690214,533802.0,197_0_yes,32.019016484485874,-89.18056103864105,50.0
39323,32.34971,-88.92624,Chunky,MS,Mississippi,True,,1110.0,7.2,28101,Newton,"{""28101"": 66.39, ""28075"": 33.61}",Newton|Lauderdale,28101|28075,False,False,America/Chicago,"(32.34971, -88.92624)",27.262313237310206,533802.0,197_0_yes,32.019016484485874,-89.18056103864105,50.0
39325,32.56198,-88.87362,Collinsville,MS,Mississippi,True,,6434.0,23.3,28075,Lauderdale,"{""28075"": 56.0, ""28069"": 29.83, ""28099"": 10.14, ""28101"": 4.03}",Lauderdale|Kemper|Neshoba|Newton,28075|28069|28099|28101,False,False,America/Chicago,"(32.56198, -88.87362)",41.57875986595095,533802.0,197_0_yes,32.019016484485874,-89.18056103864105,50.0
39326,32.59814,-88.67904,Daleville,MS,Mississippi,True,,310.0,3.1,28069,Kemper,"{""28069"": 72.94, ""28075"": 27.06}",Kemper|Lauderdale,28069|28075,False,False,America/Chicago,"(32.59814, -88.67904)",49.5863405391371,533802.0,197_0_yes,32.019016484485874,-89.18056103864105,50.0
39327,32.44563,-89.12173,Decatur,MS,Mississippi,True,,4044.0,14.9,28101,Newton,"{""28101"": 100}",Newton,28101,False,False,America/Chicago,"(32.44563, -89.12173)",29.676053353278732,533802.0,197_0_yes,32.019016484485874,-89.18056103864105,50.0
39330,32.19385,-88.85689,Enterprise,MS,Mississippi,True,,2450.0,7.4,28023,Clarke,"{""28023"": 58.06, ""28075"": 28.66, ""28061"": 8.81, ""28101"": 4.47}",Clarke|Lauderdale|Jasper|Newton,28023|28075|28061|28101,False,False,America/Chicago,"(32.19385, -88.85689)",22.46710389508169,533802.0,197_0_yes,32.019016484485874,-89.18056103864105,50.0
39332,32.30399,-89.0046,Hickory,MS,Mississippi,True,,2107.0,12.7,28101,Newton,"{""28101"": 90.2, ""28061"": 9.8}",Newton|Jasper,28101|28061,False,False,America/Chicago,"(32.30399, -89.0046)",22.217469903874463,533802.0,197_0_yes,32.019016484485874,-89.18056103864105,50.0
39335,32.53214,-88.49263,Lauderdale,MS,Mississippi,True,,2179.0,8.3,28075,Lauderdale,"{""28075"": 85.38, ""28069"": 14.62}",Lauderdale|Kemper,28075|28069,False,False,America/Chicago,"(32.53214, -88.49263)",53.59052967051405,533802.0,197_0_yes,32.019016484485874,-89.18056103864105,50.0
39336,32.29081,-89.27253,Lawrence,MS,Mississippi,True,,1113.0,6.1,28101,Newton,"{""28101"": 86.86, ""28061"": 8.6, ""28129"": 4.54}",Newton|Jasper|Smith,28101|28061|28129,False,False,America/Chicago,"(32.29081, -89.27253)",19.534530076501788,533802.0,197_0_yes,32.019016484485874,-89.18056103864105,50.0
39337,32.51447,-88.98528,Little Rock,MS,Mississippi,True,,1714.0,9.8,28101,Newton,"{""28101"": 94.15, ""28099"": 5.85}",Newton|Neshoba,28101|28099,False,False,America/Chicago,"(32.51447, -88.98528)",36.08368929331276,533802.0,197_0_yes,32.019016484485874,-89.18056103864105,50.0
39338,32.11034,-89.23274,Louin,MS,Mississippi,True,,3954.0,7.3,28061,Jasper,"{""28061"": 81.72, ""28129"": 18.28}",Jasper|Smith,28061|28129,False,False,America/Chicago,"(32.11034, -89.23274)",7.010618129940766,533802.0,197_0_yes,32.019016484485874,-89.18056103864105,50.0
39342,32.42566,-88.64968,Marion,MS,Mississippi,True,,1738.0,216.8,28075,Lauderdale,"{""28075"": 100}",Lauderdale,28075,False,False,America/Chicago,"(32.42566, -88.64968)",41.860764519693525,533802.0,197_0_yes,32.019016484485874,-89.18056103864105,50.0
39345,32.28717,-89.12974,Newton,MS,Mississippi,True,,5658.0,15.5,28101,Newton,"{""28101"": 83.58, ""28061"": 16.42}",Newton|Jasper,28101|28061,False,False,America/Chicago,"(32.28717, -89.12974)",18.76463114223447,533802.0,197_0_yes,32.019016484485874,-89.18056103864105,50.0
39347,32.05507,-88.93419,Pachuta,MS,Mississippi,True,,1402.0,6.9,28061,Jasper,"{""28061"": 65.15, ""28023"": 34.85}",Jasper|Clarke,28061|28023,False,False,America/Chicago,"(32.05507, -88.93419)",14.643595452064263,533802.0,197_0_yes,32.019016484485874,-89.18056103864105,50.0
39348,32.00007,-89.03475,Paulding,MS,Mississippi,True,,489.0,4.8,28061,Jasper,"{""28061"": 100}",Jasper,28061,False,False,America/Chicago,"(32.00007, -89.03475)",8.64255843285686,533802.0,197_0_yes,32.019016484485874,-89.18056103864105,50.0
39352,32.66834,-88.47808,Porterville,MS,Mississippi,True,,582.0,2.5,28069,Kemper,"{""28069"": 100}",Kemper,28069,False,False,America/Chicago,"(32.66834, -88.47808)",60.780482938970295,533802.0,197_0_yes,32.019016484485874,-89.18056103864105,50.0
39355,32.05808,-88.61965,Quitman,MS,Mississippi,True,,5718.0,7.9,28023,Clarke,"{""28023"": 100}",Clarke,28023,False,False,America/Chicago,"(32.05808, -88.61965)",32.963147214698616,533802.0,197_0_yes,32.019016484485874,-89.18056103864105,50.0
39356,32.13632,-89.0283,Rose Hill,MS,Mississippi,True,,521.0,3.1,28061,Jasper,"{""28061"": 100}",Jasper,28061,False,False,America/Chicago,"(32.13632, -89.0283)",12.04784357567303,533802.0,197_0_yes,32.019016484485874,-89.18056103864105,50.0
39359,32.56852,-89.33206,Sebastopol,MS,Mississippi,True,,301.0,103.6,28123,Scott,"{""28123"": 100}",Scott,28123,False,False,America/Chicago,"(32.56852, -89.33206)",38.984519170300956,533802.0,197_0_yes,32.019016484485874,-89.18056103864105,50.0
39360,31.86357,-88.7409,Shubuta,MS,Mississippi,True,,3993.0,6.9,28023,Clarke,"{""28023"": 61.58, ""28153"": 38.42}",Clarke|Wayne,28023|28153,False,False,America/Chicago,"(31.86357, -88.7409)",27.926141814126684,533802.0,197_0_yes,32.019016484485874,-89.18056103864105,50.0
39362,31.39326,-88.53988,State Line,MS,Mississippi,True,,3994.0,7.9,28041,Greene,"{""28041"": 64.81, ""28153"": 35.19}",Greene|Wayne,28041|28153,False,False,America/Chicago,"(31.39326, -88.53988)",57.33742634737389,533802.0,197_0_yes,32.019016484485874,-89.18056103864105,50.0
39363,32.11918,-88.77628,Stonewall,MS,Mississippi,True,,1468.0,24.4,28023,Clarke,"{""28023"": 100}",Clarke,28023,False,False,America/Chicago,"(32.11918, -88.77628)",24.661726748855976,533802.0,197_0_yes,32.019016484485874,-89.18056103864105,50.0
39364,32.40597,-88.49617,Toomsuba,MS,Mississippi,True,,2743.0,12.7,28075,Lauderdale,"{""28075"": 100}",Lauderdale,28075,False,False,America/Chicago,"(32.40597, -88.49617)",48.11924285091384,533802.0,197_0_yes,32.019016484485874,-89.18056103864105,50.0
39365,32.60486,-89.12225,Union,MS,Mississippi,True,,7705.0,15.5,28099,Neshoba,"{""28099"": 71.03, ""28101"": 28.26, ""28079"": 0.55, ""28069"": 0.16}",Neshoba|Newton|Leake|Kemper,28099|28101|28079|28069,False,False,America/Chicago,"(32.60486, -89.12225)",40.620893309998316,533802.0,197_0_yes,32.019016484485874,-89.18056103864105,50.0
39366,31.93795,-88.90057,Vossburg,MS,Mississippi,True,,879.0,5.1,28023,Clarke,"{""28023"": 56.01, ""28061"": 43.99}",Clarke|Jasper,28023|28061,False,False,America/Chicago,"(31.93795, -88.90057)",17.339381194983005,533802.0,197_0_yes,32.019016484485874,-89.18056103864105,50.0
39367,31.68219,-88.6644,Waynesboro,MS,Mississippi,True,,14522.0,12.2,28153,Wayne,"{""28153"": 95.41, ""28023"": 4.59}",Wayne|Clarke,28153|28023,False,False,America/Chicago,"(31.68219, -88.6644)",38.20067119335854,533802.0,197_0_yes,32.019016484485874,-89.18056103864105,50.0
39402,31.33446,-89.4132,Hattiesburg,MS,Mississippi,True,,40886.0,169.3,28073,Lamar,"{""28073"": 56.44, ""28035"": 41.92, ""28031"": 1.64}",Lamar|Forrest|Covington,28073|28035|28031,False,False,America/Chicago,"(31.33446, -89.4132)",49.236671008089424,533802.0,197_0_yes,32.019016484485874,-89.18056103864105,50.0
39406,31.32895,-89.33515,Hattiesburg,MS,Mississippi,True,,1727.0,1960.5,28035,Forrest,"{""28035"": 100}",Forrest,28035,False,False,America/Chicago,"(31.32895, -89.33515)",48.53782404381128,533802.0,197_0_yes,32.019016484485874,-89.18056103864105,50.0
39421,31.48411,-89.71179,Bassfield,MS,Mississippi,True,,2985.0,17.3,28065,Jefferson Davis,"{""28065"": 82.76, ""28091"": 17.24}",Jefferson Davis|Marion,28065|28091,False,False,America/Chicago,"(31.48411, -89.71179)",48.37407962004713,533802.0,197_0_yes,32.019016484485874,-89.18056103864105,50.0
39422,31.95953,-89.26745,Bay Springs,MS,Mississippi,True,,4330.0,11.9,28061,Jasper,"{""28061"": 71.46, ""28129"": 28.54}",Jasper|Smith,28061|28129,False,False,America/Chicago,"(31.95953, -89.26745)",6.5436757337318845,533802.0,197_0_yes,32.019016484485874,-89.18056103864105,50.0
39427,31.48693,-89.82701,Carson,MS,Mississippi,True,,1404.0,9.6,28065,Jefferson Davis,"{""28065"": 100}",Jefferson Davis,28065,False,False,America/Chicago,"(31.48693, -89.82701)",52.85856054009639,533802.0,197_0_yes,32.019016484485874,-89.18056103864105,50.0
39428,31.65017,-89.57215,Collins,MS,Mississippi,True,,9410.0,20.4,28031,Covington,"{""28031"": 100}",Covington,28031,False,False,America/Chicago,"(31.65017, -89.57215)",34.31971005325529,533802.0,197_0_yes,32.019016484485874,-89.18056103864105,50.0
39437,31.57883,-89.21981,Ellisville,MS,Mississippi,True,,12844.0,29.2,28067,Jones,"{""28067"": 100}",Jones,28067,False,False,America/Chicago,"(31.57883, -89.21981)",30.50119349633822,533802.0,197_0_yes,32.019016484485874,-89.18056103864105,50.0
39439,31.85865,-89.00227,Heidelberg,MS,Mississippi,True,,4769.0,13.5,28061,Jasper,"{""28061"": 67.12, ""28067"": 19.04, ""28023"": 6.96, ""28153"": 6.88}",Jasper|Jones|Clarke|Wayne,28061|28067|28023|28153,False,False,America/Chicago,"(31.85865, -89.00227)",15.233353124510904,533802.0,197_0_yes,32.019016484485874,-89.18056103864105,50.0
39440,31.694,-89.14791,Laurel,MS,Mississippi,True,,21365.0,466.1,28067,Jones,"{""28067"": 100}",Jones,28067,False,False,America/Chicago,"(31.694, -89.14791)",22.538102157016333,533802.0,197_0_yes,32.019016484485874,-89.18056103864105,50.0
39443,31.71932,-89.07376,Laurel,MS,Mississippi,True,,21505.0,28.4,28067,Jones,"{""28067"": 68.43, ""28153"": 17.53, ""28061"": 14.04}",Jones|Wayne|Jasper,28067|28153|28061,False,False,America/Chicago,"(31.71932, -89.07376)",21.634592466242317,533802.0,197_0_yes,32.019016484485874,-89.18056103864105,50.0
39459,31.49021,-89.30216,Moselle,MS,Mississippi,True,,3816.0,23.6,28067,Jones,"{""28067"": 100}",Jones,28067,False,False,America/Chicago,"(31.49021, -89.30216)",37.22891849507568,533802.0,197_0_yes,32.019016484485874,-89.18056103864105,50.0
39464,31.49268,-89.06129,Ovett,MS,Mississippi,True,,2887.0,10.5,28067,Jones,"{""28067"": 84.33, ""28111"": 15.67}",Jones|Perry,28067|28111,False,False,America/Chicago,"(31.49268, -89.06129)",37.03530622785676,533802.0,197_0_yes,32.019016484485874,-89.18056103864105,50.0
39465,31.34456,-89.18751,Petal,MS,Mississippi,True,,22111.0,69.6,28035,Forrest,"{""28035"": 76.55, ""28111"": 22.87, ""28067"": 0.58}",Forrest|Perry|Jones,28035|28111|28067,False,False,America/Chicago,"(31.34456, -89.18751)",46.60229553041105,533802.0,197_0_yes,32.019016484485874,-89.18056103864105,50.0
39474,31.61739,-89.85458,Prentiss,MS,Mississippi,True,,5526.0,13.9,28065,Jefferson Davis,"{""28065"": 99.36, ""28031"": 0.64}",Jefferson Davis|Covington,28065|28031,False,False,America/Chicago,"(31.61739, -89.85458)",48.331851242589806,533802.0,197_0_yes,32.019016484485874,-89.18056103864105,50.0
39476,31.37855,-88.86764,Richton,MS,Mississippi,True,,7439.0,6.9,28111,Perry,"{""28111"": 41.87, ""28041"": 32.76, ""28153"": 19.65, ""28067"": 5.72}",Perry|Greene|Wayne|Jones,28111|28041|28153|28067,False,False,America/Chicago,"(31.37855, -88.86764)",47.92312388955387,533802.0,197_0_yes,32.019016484485874,-89.18056103864105,50.0
39477,31.79291,-89.03579,Sandersville,MS,Mississippi,True,,626.0,46.3,28067,Jones,"{""28067"": 100}",Jones,28067,False,False,America/Chicago,"(31.79291, -89.03579)",17.781074425200003,533802.0,197_0_yes,32.019016484485874,-89.18056103864105,50.0
39479,31.53775,-89.46065,Seminary,MS,Mississippi,True,,6394.0,19.9,28031,Covington,"{""28031"": 86.88, ""28067"": 13.12}",Covington|Jones,28031|28067,False,False,America/Chicago,"(31.53775, -89.46065)",37.09929786499053,533802.0,197_0_yes,32.019016484485874,-89.18056103864105,50.0
39480,31.70889,-89.31529,Soso,MS,Mississippi,True,,3201.0,25.2,28067,Jones,"{""28067"": 95.42, ""28061"": 4.58}",Jones|Jasper,28067|28061,False,False,America/Chicago,"(31.70889, -89.31529)",22.839700921163505,533802.0,197_0_yes,32.019016484485874,-89.18056103864105,50.0
39481,31.86738,-89.24457,Stringer,MS,Mississippi,True,,1746.0,18.0,28061,Jasper,"{""28061"": 98.69, ""28129"": 1.31}",Jasper|Smith,28061|28129,False,False,America/Chicago,"(31.86738, -89.24457)",11.128948374355916,533802.0,197_0_yes,32.019016484485874,-89.18056103864105,50.0
39482,31.37271,-89.57966,Sumrall,MS,Mississippi,True,,11369.0,22.3,28073,Lamar,"{""28073"": 69.08, ""28065"": 15.76, ""28031"": 9.37, ""28091"": 5.79}",Lamar|Jefferson Davis|Covington|Marion,28073|28065|28031|28091,False,False,America/Chicago,"(31.37271, -89.57966)",50.44383300647159,533802.0,197_0_yes,32.019016484485874,-89.18056103864105,50.0
39656,31.45055,-89.92843,Oak Vale,MS,Mississippi,True,,671.0,4.7,28065,Jefferson Davis,"{""28065"": 76.17, ""28077"": 23.83}",Jefferson Davis|Lawrence,28065|28077,False,False,America/Chicago,"(31.45055, -89.92843)",58.94091192624157,533802.0,197_0_yes,32.019016484485874,-89.18056103864105,50.0
39663,31.58615,-90.02955,Silver Creek,MS,Mississippi,True,,2424.0,7.4,28077,Lawrence,"{""28077"": 93.25, ""28065"": 6.75}",Lawrence|Jefferson Davis,28077|28065,False,False,America/Chicago,"(31.58615, -90.02955)",58.13586166356863,533802.0,197_0_yes,32.019016484485874,-89.18056103864105,50.0
