zip,lat,lng,city,state_id,state_name,zcta,parent_zcta,population,density,county_fips,county_name,county_weights,county_names_all,county_fips_all,imprecise,military,timezone,Coord,distance_miles,market_total_population,market_id,market_center_lat,market_center_lng,radius_miles
75050,32.77428,-97.0037,Grand Prairie,TX,Texas,True,,43190.0,645.7,48113,Dallas,"{""48113"": 78.86, ""48439"": 21.14}",Dallas|Tarrant,48113|48439,False,False,America/Chicago,"(32.77428, -97.0037)",63.0640003594369,2521319.0,202_0_yes,32.07628155200558,-97.700458628307,50.0
75051,32.72635,-96.99375,Grand Prairie,TX,Texas,True,,41317.0,1263.5,48113,Dallas,"{""48113"": 89.34, ""48439"": 10.66}",Dallas|Tarrant,48113|48439,False,False,America/Chicago,"(32.72635, -96.99375)",60.96735346744005,2521319.0,202_0_yes,32.07628155200558,-97.700458628307,50.0
75052,32.66455,-97.02809,Grand Prairie,TX,Texas,True,,94060.0,1373.3,48113,Dallas,"{""48113"": 57.89, ""48439"": 42.11}",Dallas|Tarrant,48113|48439,False,False,America/Chicago,"(32.66455, -97.02809)",56.49402032483081,2521319.0,202_0_yes,32.07628155200558,-97.700458628307,50.0
75054,32.60036,-97.03409,Grand Prairie,TX,Texas,True,,13045.0,851.2,48113,Dallas,"{""48113"": 53.41, ""48439"": 46.59}",Dallas|Tarrant,48113|48439,False,False,America/Chicago,"(32.60036, -97.03409)",53.145427689225016,2521319.0,202_0_yes,32.07628155200558,-97.700458628307,50.0
75060,32.79774,-96.95295,Irving,TX,Texas,True,,49307.0,1575.1,48113,Dallas,"{""48113"": 100}",Dallas,48113,False,False,America/Chicago,"(32.79774, -96.95295)",66.21814249197625,2521319.0,202_0_yes,32.07628155200558,-97.700458628307,50.0
75104,32.58295,-96.96712,Cedar Hill,TX,Texas,True,,48821.0,510.8,48113,Dallas,"{""48113"": 94.22, ""48139"": 5.78}",Dallas|Ellis,48113|48139,False,False,America/Chicago,"(32.58295, -96.96712)",55.304310842914035,2521319.0,202_0_yes,32.07628155200558,-97.700458628307,50.0
75115,32.59831,-96.86433,Desoto,TX,Texas,True,,53118.0,974.3,48113,Dallas,"{""48113"": 100}",Dallas,48113,False,False,America/Chicago,"(32.59831, -96.86433)",60.691579965247364,2521319.0,202_0_yes,32.07628155200558,-97.700458628307,50.0
75116,32.66013,-96.91402,Duncanville,TX,Texas,True,,19755.0,1495.0,48113,Dallas,"{""48113"": 100}",Dallas,48113,False,False,America/Chicago,"(32.66013, -96.91402)",61.10339819092637,2521319.0,202_0_yes,32.07628155200558,-97.700458628307,50.0
75137,32.63421,-96.91224,Duncanville,TX,Texas,True,,19341.0,1243.4,48113,Dallas,"{""48113"": 100}",Dallas,48113,False,False,America/Chicago,"(32.63421, -96.91224)",60.02081274595296,2521319.0,202_0_yes,32.07628155200558,-97.700458628307,50.0
75167,32.36123,-96.91547,Waxahachie,TX,Texas,True,,12091.0,48.7,48139,Ellis,"{""48139"": 100}",Ellis,48139,False,False,America/Chicago,"(32.36123, -96.91547)",49.93119279396912,2521319.0,202_0_yes,32.07628155200558,-97.700458628307,50.0
75211,32.73649,-96.90214,Dallas,TX,Texas,True,,77920.0,1750.3,48113,Dallas,"{""48113"": 100}",Dallas,48113,False,False,America/Chicago,"(32.73649, -96.90214)",65.18740850754287,2521319.0,202_0_yes,32.07628155200558,-97.700458628307,50.0
75212,32.78203,-96.87853,Dallas,TX,Texas,True,,28017.0,1084.9,48113,Dallas,"{""48113"": 100}",Dallas,48113,False,False,America/Chicago,"(32.78203, -96.87853)",68.37660125560305,2521319.0,202_0_yes,32.07628155200558,-97.700458628307,50.0
75233,32.70444,-96.87271,Dallas,TX,Texas,True,,16920.0,1829.9,48113,Dallas,"{""48113"": 100}",Dallas,48113,False,False,America/Chicago,"(32.70444, -96.87271)",64.9302849464276,2521319.0,202_0_yes,32.07628155200558,-97.700458628307,50.0
75236,32.6866,-96.93455,Dallas,TX,Texas,True,,16920.0,489.5,48113,Dallas,"{""48113"": 100}",Dallas,48113,False,False,America/Chicago,"(32.6866, -96.93455)",61.44431133057294,2521319.0,202_0_yes,32.07628155200558,-97.700458628307,50.0
75237,32.66489,-96.87238,Dallas,TX,Texas,True,,21607.0,1251.6,48113,Dallas,"{""48113"": 100}",Dallas,48113,False,False,America/Chicago,"(32.66489, -96.87238)",63.15928362569974,2521319.0,202_0_yes,32.07628155200558,-97.700458628307,50.0
75249,32.6449,-96.96257,Dallas,TX,Texas,True,,18374.0,1291.4,48113,Dallas,"{""48113"": 100}",Dallas,48113,False,False,America/Chicago,"(32.6449, -96.96257)",58.29335281105167,2521319.0,202_0_yes,32.07628155200558,-97.700458628307,50.0
76001,32.63076,-97.15408,Arlington,TX,Texas,True,,37231.0,1346.3,48439,Tarrant,"{""48439"": 100}",Tarrant,48439,False,False,America/Chicago,"(32.63076, -97.15408)",49.84695988056525,2521319.0,202_0_yes,32.07628155200558,-97.700458628307,50.0
76002,32.62233,-97.09265,Arlington,TX,Texas,True,,36302.0,1965.5,48439,Tarrant,"{""48439"": 100}",Tarrant,48439,False,False,America/Chicago,"(32.62233, -97.09265)",51.788880137202995,2521319.0,202_0_yes,32.07628155200558,-97.700458628307,50.0
76006,32.78511,-97.10019,Arlington,TX,Texas,True,,24057.0,1215.6,48439,Tarrant,"{""48439"": 100}",Tarrant,48439,False,False,America/Chicago,"(32.78511, -97.10019)",60.19957257545236,2521319.0,202_0_yes,32.07628155200558,-97.700458628307,50.0
76008,32.68182,-97.62738,Aledo,TX,Texas,True,,20288.0,96.2,48367,Parker,"{""48367"": 92.87, ""48439"": 7.13}",Parker|Tarrant,48367|48439,False,False,America/Chicago,"(32.68182, -97.62738)",42.055460731623356,2521319.0,202_0_yes,32.07628155200558,-97.700458628307,50.0
76009,32.41635,-97.20115,Alvarado,TX,Texas,True,,19618.0,77.3,48251,Johnson,"{""48251"": 100}",Johnson,48251,False,False,America/Chicago,"(32.41635, -97.20115)",37.46235173313413,2521319.0,202_0_yes,32.07628155200558,-97.700458628307,50.0
76010,32.72271,-97.08065,Arlington,TX,Texas,True,,59526.0,2608.9,48439,Tarrant,"{""48439"": 100}",Tarrant,48439,False,False,America/Chicago,"(32.72271, -97.08065)",57.46526084029307,2521319.0,202_0_yes,32.07628155200558,-97.700458628307,50.0
76011,32.7543,-97.08223,Arlington,TX,Texas,True,,22878.0,1086.2,48439,Tarrant,"{""48439"": 100}",Tarrant,48439,False,False,America/Chicago,"(32.7543, -97.08223)",59.117488979394984,2521319.0,202_0_yes,32.07628155200558,-97.700458628307,50.0
76012,32.75459,-97.13901,Arlington,TX,Texas,True,,26730.0,1258.9,48439,Tarrant,"{""48439"": 100}",Tarrant,48439,False,False,America/Chicago,"(32.75459, -97.13901)",57.174105443090745,2521319.0,202_0_yes,32.07628155200558,-97.700458628307,50.0
76013,32.72027,-97.15652,Arlington,TX,Texas,True,,34763.0,1495.4,48439,Tarrant,"{""48439"": 100}",Tarrant,48439,False,False,America/Chicago,"(32.72027, -97.15652)",54.65136276055417,2521319.0,202_0_yes,32.07628155200558,-97.700458628307,50.0
76014,32.69201,-97.08814,Arlington,TX,Texas,True,,33289.0,2240.8,48439,Tarrant,"{""48439"": 100}",Tarrant,48439,False,False,America/Chicago,"(32.69201, -97.08814)",55.554529653273406,2521319.0,202_0_yes,32.07628155200558,-97.700458628307,50.0
76015,32.69204,-97.13341,Arlington,TX,Texas,True,,17773.0,1608.7,48439,Tarrant,"{""48439"": 100}",Tarrant,48439,False,False,America/Chicago,"(32.69204, -97.13341)",53.89547862434265,2521319.0,202_0_yes,32.07628155200558,-97.700458628307,50.0
76016,32.68907,-97.18868,Arlington,TX,Texas,True,,31705.0,1383.8,48439,Tarrant,"{""48439"": 100}",Tarrant,48439,False,False,America/Chicago,"(32.68907, -97.18868)",51.810630799363885,2521319.0,202_0_yes,32.07628155200558,-97.700458628307,50.0
76017,32.66223,-97.16237,Arlington,TX,Texas,True,,46312.0,1751.9,48439,Tarrant,"{""48439"": 100}",Tarrant,48439,False,False,America/Chicago,"(32.66223, -97.16237)",51.23552313359583,2521319.0,202_0_yes,32.07628155200558,-97.700458628307,50.0
76018,32.66074,-97.08967,Arlington,TX,Texas,True,,28353.0,1394.1,48439,Tarrant,"{""48439"": 100}",Tarrant,48439,False,False,America/Chicago,"(32.66074, -97.08967)",53.862913870246906,2521319.0,202_0_yes,32.07628155200558,-97.700458628307,50.0
76028,32.52603,-97.30491,Burleson,TX,Texas,True,,72493.0,361.3,48251,Johnson,"{""48251"": 77.07, ""48439"": 22.93}",Johnson|Tarrant,48251|48439,False,False,America/Chicago,"(32.52603, -97.30491)",38.72031852095967,2521319.0,202_0_yes,32.07628155200558,-97.700458628307,50.0
76031,32.34873,-97.33267,Cleburne,TX,Texas,True,,18432.0,97.9,48251,Johnson,"{""48251"": 100}",Johnson,48251,False,False,America/Chicago,"(32.34873, -97.33267)",28.576545385886657,2521319.0,202_0_yes,32.07628155200558,-97.700458628307,50.0
76033,32.28663,-97.52075,Cleburne,TX,Texas,True,,25977.0,57.0,48251,Johnson,"{""48251"": 85.63, ""48221"": 7.23, ""48425"": 7.14}",Johnson|Hood|Somervell,48251|48221|48425,False,False,America/Chicago,"(32.28663, -97.52075)",17.935109651818085,2521319.0,202_0_yes,32.07628155200558,-97.700458628307,50.0
76035,32.56172,-97.64251,Cresson,TX,Texas,True,,2373.0,16.8,48367,Parker,"{""48367"": 59.1, ""48221"": 21.65, ""48251"": 19.25}",Parker|Hood|Johnson,48367|48221|48251,False,False,America/Chicago,"(32.56172, -97.64251)",33.71083859550493,2521319.0,202_0_yes,32.07628155200558,-97.700458628307,50.0
76036,32.57366,-97.41434,Crowley,TX,Texas,True,,27835.0,243.9,48439,Tarrant,"{""48439"": 77.99, ""48251"": 22.01}",Tarrant|Johnson,48439|48251,False,False,America/Chicago,"(32.57366, -97.41434)",38.21067980928729,2521319.0,202_0_yes,32.07628155200558,-97.700458628307,50.0
76041,32.23911,-96.85724,Forreston,TX,Texas,True,,514.0,16.6,48139,Ellis,"{""48139"": 100}",Ellis,48139,False,False,America/Chicago,"(32.23911, -96.85724)",50.589508209500394,2521319.0,202_0_yes,32.07628155200558,-97.700458628307,50.0
76043,32.20039,-97.76129,Glen Rose,TX,Texas,True,,7525.0,26.3,48425,Somervell,"{""48425"": 81.82, ""48035"": 18.18}",Somervell|Bosque,48425|48035,False,False,America/Chicago,"(32.20039, -97.76129)",9.284309572191416,2521319.0,202_0_yes,32.07628155200558,-97.700458628307,50.0
76044,32.42961,-97.54286,Godley,TX,Texas,True,,5407.0,19.3,48251,Johnson,"{""48251"": 100}",Johnson,48251,False,False,America/Chicago,"(32.42961, -97.54286)",26.091778213836236,2521319.0,202_0_yes,32.07628155200558,-97.700458628307,50.0
76048,32.40791,-97.80117,Granbury,TX,Texas,True,,24586.0,93.4,48221,Hood,"{""48221"": 91.76, ""48425"": 8.24}",Hood|Somervell,48221|48425,False,False,America/Chicago,"(32.40791, -97.80117)",23.65713921961757,2521319.0,202_0_yes,32.07628155200558,-97.700458628307,50.0
76049,32.46759,-97.70645,Granbury,TX,Texas,True,,30062.0,108.4,48221,Hood,"{""48221"": 98.05, ""48367"": 1.14, ""48251"": 0.81}",Hood|Parker|Johnson,48221|48367|48251,False,False,America/Chicago,"(32.46759, -97.70645)",27.039104077763565,2521319.0,202_0_yes,32.07628155200558,-97.700458628307,50.0
76050,32.27262,-97.16326,Grandview,TX,Texas,True,,6094.0,16.9,48251,Johnson,"{""48251"": 63.66, ""48217"": 18.28, ""48139"": 18.06}",Johnson|Hill|Ellis,48251|48217|48139,False,False,America/Chicago,"(32.27262, -97.16326)",34.22051946400276,2521319.0,202_0_yes,32.07628155200558,-97.700458628307,50.0
76055,32.1596,-97.14812,Itasca,TX,Texas,True,,3181.0,14.9,48217,Hill,"{""48217"": 100}",Hill,48217,False,False,America/Chicago,"(32.1596, -97.14812)",32.83094115168309,2521319.0,202_0_yes,32.07628155200558,-97.700458628307,50.0
76058,32.47072,-97.4251,Joshua,TX,Texas,True,,21037.0,156.4,48251,Johnson,"{""48251"": 100}",Johnson,48251,False,False,America/Chicago,"(32.47072, -97.4251)",31.646406641982924,2521319.0,202_0_yes,32.07628155200558,-97.700458628307,50.0
76059,32.3921,-97.32897,Keene,TX,Texas,True,,5716.0,891.6,48251,Johnson,"{""48251"": 100}",Johnson,48251,False,False,America/Chicago,"(32.3921, -97.32897)",30.782106410233606,2521319.0,202_0_yes,32.07628155200558,-97.700458628307,50.0
76060,32.63987,-97.2161,Kennedale,TX,Texas,True,,8606.0,444.6,48439,Tarrant,"{""48439"": 100}",Tarrant,48439,False,False,America/Chicago,"(32.63987, -97.2161)",48.11949639944098,2521319.0,202_0_yes,32.07628155200558,-97.700458628307,50.0
76061,32.5026,-97.19813,Lillian,TX,Texas,True,,59.0,10.2,48251,Johnson,"{""48251"": 100}",Johnson,48251,False,False,America/Chicago,"(32.5026, -97.19813)",41.5751677861115,2521319.0,202_0_yes,32.07628155200558,-97.700458628307,50.0
76063,32.56913,-97.14376,Mansfield,TX,Texas,True,,76609.0,591.2,48439,Tarrant,"{""48439"": 74.4, ""48251"": 24.55, ""48139"": 1.05}",Tarrant|Johnson|Ellis,48439|48251|48139,False,False,America/Chicago,"(32.56913, -97.14376)",47.07529766867179,2521319.0,202_0_yes,32.07628155200558,-97.700458628307,50.0
76064,32.30757,-97.03225,Maypearl,TX,Texas,True,,2100.0,37.4,48139,Ellis,"{""48139"": 100}",Ellis,48139,False,False,America/Chicago,"(32.30757, -97.03225)",42.21286935413599,2521319.0,202_0_yes,32.07628155200558,-97.700458628307,50.0
76065,32.47042,-96.98861,Midlothian,TX,Texas,True,,38800.0,148.5,48139,Ellis,"{""48139"": 99.8, ""48113"": 0.2}",Ellis|Dallas,48139|48113,False,False,America/Chicago,"(32.47042, -96.98861)",49.70860062130151,2521319.0,202_0_yes,32.07628155200558,-97.700458628307,50.0
76066,32.7058,-97.99913,Millsap,TX,Texas,True,,4106.0,18.0,48367,Parker,"{""48367"": 97.61, ""48363"": 2.39}",Parker|Palo Pinto,48367|48363,False,False,America/Chicago,"(32.7058, -97.99913)",46.85622412638584,2521319.0,202_0_yes,32.07628155200558,-97.700458628307,50.0
76070,32.24291,-97.64991,Nemo,TX,Texas,True,,955.0,16.3,48425,Somervell,"{""48425"": 90.72, ""48251"": 9.28}",Somervell|Johnson,48425|48251,False,False,America/Chicago,"(32.24291, -97.64991)",11.886531895977937,2521319.0,202_0_yes,32.07628155200558,-97.700458628307,50.0
76077,32.27886,-97.70891,Rainbow,TX,Texas,True,,333.0,13.9,48425,Somervell,"{""48425"": 100}",Somervell,48425,False,False,America/Chicago,"(32.27886, -97.70891)",14.00556096101549,2521319.0,202_0_yes,32.07628155200558,-97.700458628307,50.0
76084,32.43258,-97.0888,Venus,TX,Texas,True,,9574.0,71.3,48251,Johnson,"{""48251"": 52.2, ""48139"": 47.8}",Johnson|Ellis,48251|48139,False,False,America/Chicago,"(32.43258, -97.0888)",43.3979141385849,2521319.0,202_0_yes,32.07628155200558,-97.700458628307,50.0
76086,32.75345,-97.78909,Weatherford,TX,Texas,True,,23161.0,646.2,48367,Parker,"{""48367"": 100}",Parker,48367,False,False,America/Chicago,"(32.75345, -97.78909)",47.0726134871227,2521319.0,202_0_yes,32.07628155200558,-97.700458628307,50.0
76087,32.66995,-97.79065,Weatherford,TX,Texas,True,,29119.0,60.6,48367,Parker,"{""48367"": 95.19, ""48221"": 4.81}",Parker|Hood,48367|48221,False,False,America/Chicago,"(32.66995, -97.79065)",41.35485302262205,2521319.0,202_0_yes,32.07628155200558,-97.700458628307,50.0
76093,32.21459,-97.40098,Rio Vista,TX,Texas,True,,2930.0,33.0,48251,Johnson,"{""48251"": 80.11, ""48217"": 19.89}",Johnson|Hill,48251|48217,False,False,America/Chicago,"(32.21459, -97.40098)",19.956658714214758,2521319.0,202_0_yes,32.07628155200558,-97.700458628307,50.0
76102,32.75799,-97.32858,Fort Worth,TX,Texas,True,,10632.0,910.4,48439,Tarrant,"{""48439"": 100}",Tarrant,48439,False,False,America/Chicago,"(32.75799, -97.32858)",51.855725694202,2521319.0,202_0_yes,32.07628155200558,-97.700458628307,50.0
76103,32.75282,-97.26627,Fort Worth,TX,Texas,True,,16848.0,1064.9,48439,Tarrant,"{""48439"": 100}",Tarrant,48439,False,False,America/Chicago,"(32.75282, -97.26627)",53.163832407091114,2521319.0,202_0_yes,32.07628155200558,-97.700458628307,50.0
76104,32.72848,-97.31819,Fort Worth,TX,Texas,True,,17653.0,1161.0,48439,Tarrant,"{""48439"": 100}",Tarrant,48439,False,False,America/Chicago,"(32.72848, -97.31819)",50.27840292281872,2521319.0,202_0_yes,32.07628155200558,-97.700458628307,50.0
76105,32.72327,-97.26999,Fort Worth,TX,Texas,True,,22922.0,1501.9,48439,Tarrant,"{""48439"": 100}",Tarrant,48439,False,False,America/Chicago,"(32.72327, -97.26999)",51.27328497310631,2521319.0,202_0_yes,32.07628155200558,-97.700458628307,50.0
76107,32.74176,-97.38202,Fort Worth,TX,Texas,True,,29377.0,1058.6,48439,Tarrant,"{""48439"": 100}",Tarrant,48439,False,False,America/Chicago,"(32.74176, -97.38202)",49.59033198432757,2521319.0,202_0_yes,32.07628155200558,-97.700458628307,50.0
76108,32.77943,-97.51811,Fort Worth,TX,Texas,True,,42902.0,384.4,48439,Tarrant,"{""48439"": 73.1, ""48367"": 26.9}",Tarrant|Parker,48439|48367,False,False,America/Chicago,"(32.77943, -97.51811)",49.73318936556848,2521319.0,202_0_yes,32.07628155200558,-97.700458628307,50.0
76109,32.70115,-97.38378,Fort Worth,TX,Texas,True,,23725.0,1121.9,48439,Tarrant,"{""48439"": 100}",Tarrant,48439,False,False,America/Chicago,"(32.70115, -97.38378)",46.96163448684845,2521319.0,202_0_yes,32.07628155200558,-97.700458628307,50.0
76110,32.70678,-97.33843,Fort Worth,TX,Texas,True,,33720.0,2271.5,48439,Tarrant,"{""48439"": 100}",Tarrant,48439,False,False,America/Chicago,"(32.70678, -97.33843)",48.413652567275456,2521319.0,202_0_yes,32.07628155200558,-97.700458628307,50.0
76111,32.7804,-97.30116,Fort Worth,TX,Texas,True,,22567.0,1175.3,48439,Tarrant,"{""48439"": 100}",Tarrant,48439,False,False,America/Chicago,"(32.7804, -97.30116)",53.93584763861002,2521319.0,202_0_yes,32.07628155200558,-97.700458628307,50.0
76112,32.74831,-97.21828,Fort Worth,TX,Texas,True,,42218.0,1438.6,48439,Tarrant,"{""48439"": 100}",Tarrant,48439,False,False,America/Chicago,"(32.74831, -97.21828)",54.28635948312436,2521319.0,202_0_yes,32.07628155200558,-97.700458628307,50.0
76114,32.77365,-97.40417,Fort Worth,TX,Texas,True,,27151.0,1082.3,48439,Tarrant,"{""48439"": 100}",Tarrant,48439,False,False,America/Chicago,"(32.77365, -97.40417)",51.18832916686713,2521319.0,202_0_yes,32.07628155200558,-97.700458628307,50.0
76115,32.67861,-97.33117,Fort Worth,TX,Texas,True,,21907.0,1821.0,48439,Tarrant,"{""48439"": 100}",Tarrant,48439,False,False,America/Chicago,"(32.67861, -97.33117)",46.86478458423659,2521319.0,202_0_yes,32.07628155200558,-97.700458628307,50.0
76116,32.72128,-97.44766,Fort Worth,TX,Texas,True,,50371.0,1583.3,48439,Tarrant,"{""48439"": 100}",Tarrant,48439,False,False,America/Chicago,"(32.72128, -97.44766)",46.94194314779578,2521319.0,202_0_yes,32.07628155200558,-97.700458628307,50.0
76118,32.79606,-97.1972,Fort Worth,TX,Texas,True,,16594.0,663.5,48439,Tarrant,"{""48439"": 100}",Tarrant,48439,False,False,America/Chicago,"(32.79606, -97.1972)",57.745059703049456,2521319.0,202_0_yes,32.07628155200558,-97.700458628307,50.0
76119,32.69026,-97.26176,Fort Worth,TX,Texas,True,,52279.0,1266.8,48439,Tarrant,"{""48439"": 100}",Tarrant,48439,False,False,America/Chicago,"(32.69026, -97.26176)",49.54617335983365,2521319.0,202_0_yes,32.07628155200558,-97.700458628307,50.0
76120,32.76742,-97.18286,Fort Worth,TX,Texas,True,,19941.0,1028.9,48439,Tarrant,"{""48439"": 100}",Tarrant,48439,False,False,America/Chicago,"(32.76742, -97.18286)",56.49473934467209,2521319.0,202_0_yes,32.07628155200558,-97.700458628307,50.0
76123,32.62298,-97.40262,Fort Worth,TX,Texas,True,,37075.0,1353.4,48439,Tarrant,"{""48439"": 100}",Tarrant,48439,False,False,America/Chicago,"(32.62298, -97.40262)",41.58181408697417,2521319.0,202_0_yes,32.07628155200558,-97.700458628307,50.0
76126,32.64374,-97.51767,Fort Worth,TX,Texas,True,,23844.0,134.1,48439,Tarrant,"{""48439"": 74.83, ""48367"": 25.17}",Tarrant|Parker,48439|48367,False,False,America/Chicago,"(32.64374, -97.51767)",40.633074898598466,2521319.0,202_0_yes,32.07628155200558,-97.700458628307,50.0
76127,32.77663,-97.43044,Naval Air Station Jrb,TX,Texas,True,,2038.0,363.2,48439,Tarrant,"{""48439"": 100}",Tarrant,48439,False,False,America/Chicago,"(32.77663, -97.43044)",50.887331208851045,2521319.0,202_0_yes,32.07628155200558,-97.700458628307,50.0
76129,32.70934,-97.36255,Fort Worth,TX,Texas,True,,1616.0,7504.5,48439,Tarrant,"{""48439"": 100}",Tarrant,48439,False,False,America/Chicago,"(32.70934, -97.36255)",47.97757674906009,2521319.0,202_0_yes,32.07628155200558,-97.700458628307,50.0
76132,32.66743,-97.41827,Fort Worth,TX,Texas,True,,26265.0,1367.5,48439,Tarrant,"{""48439"": 100}",Tarrant,48439,False,False,America/Chicago,"(32.66743, -97.41827)",44.039043420192215,2521319.0,202_0_yes,32.07628155200558,-97.700458628307,50.0
76133,32.6538,-97.37746,Fort Worth,TX,Texas,True,,53694.0,2223.7,48439,Tarrant,"{""48439"": 100}",Tarrant,48439,False,False,America/Chicago,"(32.6538, -97.37746)",44.13107201266169,2521319.0,202_0_yes,32.07628155200558,-97.700458628307,50.0
76134,32.64331,-97.33103,Fort Worth,TX,Texas,True,,28852.0,1294.8,48439,Tarrant,"{""48439"": 100}",Tarrant,48439,False,False,America/Chicago,"(32.64331, -97.33103)",44.71894748351997,2521319.0,202_0_yes,32.07628155200558,-97.700458628307,50.0
76140,32.62012,-97.27036,Fort Worth,TX,Texas,True,,30930.0,437.3,48439,Tarrant,"{""48439"": 100}",Tarrant,48439,False,False,America/Chicago,"(32.62012, -97.27036)",45.19063102975134,2521319.0,202_0_yes,32.07628155200558,-97.700458628307,50.0
76164,32.7808,-97.35411,Fort Worth,TX,Texas,True,,13628.0,1332.7,48439,Tarrant,"{""48439"": 100}",Tarrant,48439,False,False,America/Chicago,"(32.7808, -97.35411)",52.70184387180021,2521319.0,202_0_yes,32.07628155200558,-97.700458628307,50.0
76401,32.27918,-98.19994,Stephenville,TX,Texas,True,,29904.0,28.1,48143,Erath,"{""48143"": 100}",Erath,48143,False,False,America/Chicago,"(32.27918, -98.19994)",32.39988030021049,2521319.0,202_0_yes,32.07628155200558,-97.700458628307,50.0
76402,32.21728,-98.21702,Stephenville,TX,Texas,True,,952.0,13159.0,48143,Erath,"{""48143"": 100}",Erath,48143,False,False,America/Chicago,"(32.21728, -98.21702)",31.750600319902055,2521319.0,202_0_yes,32.07628155200558,-97.700458628307,50.0
76433,32.30662,-98.01096,Bluff Dale,TX,Texas,True,,1834.0,5.6,48143,Erath,"{""48143"": 75.16, ""48425"": 13.13, ""48221"": 11.71}",Erath|Somervell|Hood,48143|48425|48221,False,False,America/Chicago,"(32.30662, -98.01096)",24.14347941601065,2521319.0,202_0_yes,32.07628155200558,-97.700458628307,50.0
76436,31.87404,-98.22271,Carlton,TX,Texas,True,,148.0,1.1,48093,Comanche,"{""48093"": 85.63, ""48193"": 11.22, ""48143"": 3.15}",Comanche|Hamilton|Erath,48093|48193|48143,False,False,America/Chicago,"(31.87404, -98.22271)",33.648028290706456,2521319.0,202_0_yes,32.07628155200558,-97.700458628307,50.0
76445,32.30318,-98.53829,Desdemona,TX,Texas,True,,486.0,3.4,48133,Eastland,"{""48133"": 80.1, ""48093"": 14.48, ""48143"": 5.42}",Eastland|Comanche|Erath,48133|48093|48143,False,False,America/Chicago,"(32.30318, -98.53829)",51.43757211980299,2521319.0,202_0_yes,32.07628155200558,-97.700458628307,50.0
76446,32.07572,-98.35311,Dublin,TX,Texas,True,,8120.0,7.6,48143,Erath,"{""48143"": 71.3, ""48093"": 28.7}",Erath|Comanche,48143|48093,False,False,America/Chicago,"(32.07572, -98.35311)",38.21003894054746,2521319.0,202_0_yes,32.07628155200558,-97.700458628307,50.0
76452,31.77119,-98.39198,Energy,TX,Texas,True,,80.0,1.3,48093,Comanche,"{""48093"": 100}",Comanche,48093,False,False,America/Chicago,"(31.77119, -98.39198)",45.70442136150602,2521319.0,202_0_yes,32.07628155200558,-97.700458628307,50.0
76453,32.57202,-98.33908,Gordon,TX,Texas,True,,1438.0,4.5,48363,Palo Pinto,"{""48363"": 80.83, ""48143"": 19.17}",Palo Pinto|Erath,48363|48143,False,False,America/Chicago,"(32.57202, -98.33908)",50.63104825944306,2521319.0,202_0_yes,32.07628155200558,-97.700458628307,50.0
76455,31.82142,-98.36676,Gustine,TX,Texas,True,,926.0,5.2,48093,Comanche,"{""48093"": 100}",Comanche,48093,False,False,America/Chicago,"(31.82142, -98.36676)",42.848848876782924,2521319.0,202_0_yes,32.07628155200558,-97.700458628307,50.0
76457,31.94968,-98.02773,Hico,TX,Texas,True,,4045.0,4.8,48193,Hamilton,"{""48193"": 57.83, ""48143"": 34.12, ""48035"": 8.05}",Hamilton|Erath|Bosque,48193|48143|48035,False,False,America/Chicago,"(31.94968, -98.02773)",21.074682050124398,2521319.0,202_0_yes,32.07628155200558,-97.700458628307,50.0
76462,32.52316,-98.03421,Lipan,TX,Texas,True,,4412.0,9.8,48221,Hood,"{""48221"": 36.56, ""48143"": 25.56, ""48367"": 24.83, ""48363"": 13.05}",Hood|Erath|Parker|Palo Pinto,48221|48143|48367|48363,False,False,America/Chicago,"(32.52316, -98.03421)",36.51405224580623,2521319.0,202_0_yes,32.07628155200558,-97.700458628307,50.0
76463,32.455,-98.41516,Mingus,TX,Texas,True,,450.0,2.3,48143,Erath,"{""48143"": 89.1, ""48363"": 10.9}",Erath|Palo Pinto,48143|48363,False,False,America/Chicago,"(32.455, -98.41516)",49.277156185104474,2521319.0,202_0_yes,32.07628155200558,-97.700458628307,50.0
76472,32.60631,-98.17095,Santo,TX,Texas,True,,1502.0,6.2,48363,Palo Pinto,"{""48363"": 100}",Palo Pinto,48363,False,False,America/Chicago,"(32.60631, -98.17095)",45.77611396253267,2521319.0,202_0_yes,32.07628155200558,-97.700458628307,50.0
76475,32.65296,-98.51281,Strawn,TX,Texas,True,,1204.0,1.7,48363,Palo Pinto,"{""48363"": 72.99, ""48429"": 16.2, ""48133"": 10.81}",Palo Pinto|Stephens|Eastland,48363|48429|48133,False,False,America/Chicago,"(32.65296, -98.51281)",61.928751716633336,2521319.0,202_0_yes,32.07628155200558,-97.700458628307,50.0
76476,32.37055,-97.92017,Tolar,TX,Texas,True,,3151.0,11.1,48221,Hood,"{""48221"": 100}",Hood,48221,False,False,America/Chicago,"(32.37055, -97.92017)",24.048236760703915,2521319.0,202_0_yes,32.07628155200558,-97.700458628307,50.0
76484,32.73147,-98.30551,Palo Pinto,TX,Texas,True,,909.0,3.6,48363,Palo Pinto,"{""48363"": 100}",Palo Pinto,48363,False,False,America/Chicago,"(32.73147, -98.30551)",57.40254741090536,2521319.0,202_0_yes,32.07628155200558,-97.700458628307,50.0
76525,31.47643,-98.17321,Evant,TX,Texas,True,,1188.0,2.9,48193,Hamilton,"{""48193"": 51.51, ""48099"": 27.15, ""48281"": 21.34}",Hamilton|Coryell|Lampasas,48193|48099|48281,False,False,America/Chicago,"(31.47643, -98.17321)",49.88786941295777,2521319.0,202_0_yes,32.07628155200558,-97.700458628307,50.0
76528,31.43589,-97.7844,Gatesville,TX,Texas,True,,19224.0,15.3,48099,Coryell,"{""48099"": 98.06, ""48027"": 1.94}",Coryell|Bell,48099|48027,False,False,America/Chicago,"(31.43589, -97.7844)",44.52081094205789,2521319.0,202_0_yes,32.07628155200558,-97.700458628307,50.0
76531,31.68423,-98.19058,Hamilton,TX,Texas,True,,4595.0,4.6,48193,Hamilton,"{""48193"": 96.14, ""48093"": 2.48, ""48333"": 1.38}",Hamilton|Comanche|Mills,48193|48093|48333,False,False,America/Chicago,"(31.68423, -98.19058)",39.50521256754046,2521319.0,202_0_yes,32.07628155200558,-97.700458628307,50.0
76538,31.64261,-97.8896,Jonesboro,TX,Texas,True,,1167.0,3.0,48193,Hamilton,"{""48193"": 69.1, ""48099"": 30.9}",Hamilton|Coryell,48193|48099,False,False,America/Chicago,"(31.64261, -97.8896)",31.953596062720468,2521319.0,202_0_yes,32.07628155200558,-97.700458628307,50.0
76561,31.42531,-97.54098,Oglesby,TX,Texas,True,,997.0,6.5,48099,Coryell,"{""48099"": 89.52, ""48309"": 10.48}",Coryell|McLennan,48099|48309,False,False,America/Chicago,"(31.42531, -97.54098)",45.9434404605915,2521319.0,202_0_yes,32.07628155200558,-97.700458628307,50.0
76565,31.64508,-98.3492,Pottsville,TX,Texas,True,,175.0,2.4,48193,Hamilton,"{""48193"": 100}",Hamilton,48193,False,False,America/Chicago,"(31.64508, -98.3492)",48.3421814075261,2521319.0,202_0_yes,32.07628155200558,-97.700458628307,50.0
76566,31.51664,-97.99881,Purmela,TX,Texas,True,,231.0,1.2,48099,Coryell,"{""48099"": 68.37, ""48193"": 31.63}",Coryell|Hamilton,48099|48193,False,False,America/Chicago,"(31.51664, -97.99881)",42.451622835007406,2521319.0,202_0_yes,32.07628155200558,-97.700458628307,50.0
76596,31.47626,-97.72696,Gatesville,TX,Texas,True,,1268.0,3616.9,48099,Coryell,"{""48099"": 100}",Coryell,48099,False,False,America/Chicago,"(31.47626, -97.72696)",41.48675281990995,2521319.0,202_0_yes,32.07628155200558,-97.700458628307,50.0
76597,31.48446,-97.70983,Gatesville,TX,Texas,True,,17.0,4.9,48099,Coryell,"{""48099"": 100}",Coryell,48099,False,False,America/Chicago,"(31.48446, -97.70983)",40.89467876362782,2521319.0,202_0_yes,32.07628155200558,-97.700458628307,50.0
76598,31.47543,-97.73488,Gatesville,TX,Texas,True,,482.0,6034.3,48099,Coryell,"{""48099"": 100}",Coryell,48099,False,False,America/Chicago,"(31.47543, -97.73488)",41.56409028802108,2521319.0,202_0_yes,32.07628155200558,-97.700458628307,50.0
76599,31.47092,-97.73361,Gatesville,TX,Texas,True,,2351.0,1181.4,48099,Coryell,"{""48099"": 100}",Coryell,48099,False,False,America/Chicago,"(31.47092, -97.73361)",41.87180237882769,2521319.0,202_0_yes,32.07628155200558,-97.700458628307,50.0
76621,31.87789,-97.08891,Abbott,TX,Texas,True,,1061.0,6.0,48217,Hill,"{""48217"": 96.31, ""48309"": 3.69}",Hill|McLennan,48217|48309,False,False,America/Chicago,"(31.87789, -97.08891)",38.3740250815717,2521319.0,202_0_yes,32.07628155200558,-97.700458628307,50.0
76622,31.82032,-97.24942,Aquilla,TX,Texas,True,,1537.0,11.1,48217,Hill,"{""48217"": 97.9, ""48309"": 2.1}",Hill|McLennan,48217|48309,False,False,America/Chicago,"(31.82032, -97.24942)",31.812144917761888,2521319.0,202_0_yes,32.07628155200558,-97.700458628307,50.0
76624,31.66671,-96.95099,Axtell,TX,Texas,True,,2485.0,15.2,48309,McLennan,"{""48309"": 87.56, ""48293"": 12.44}",McLennan|Limestone,48309|48293,False,False,America/Chicago,"(31.66671, -96.95099)",52.29433607459996,2521319.0,202_0_yes,32.07628155200558,-97.700458628307,50.0
76627,32.10511,-97.3881,Blum,TX,Texas,True,,1334.0,5.5,48217,Hill,"{""48217"": 100}",Hill,48217,False,False,America/Chicago,"(32.10511, -97.3881)",18.392551599926993,2521319.0,202_0_yes,32.07628155200558,-97.700458628307,50.0
76628,32.03007,-96.97179,Brandon,TX,Texas,True,,101.0,6.8,48217,Hill,"{""48217"": 100}",Hill,48217,False,False,America/Chicago,"(32.03007, -96.97179)",42.79043186746681,2521319.0,202_0_yes,32.07628155200558,-97.700458628307,50.0
76631,31.97905,-96.96277,Bynum,TX,Texas,True,,681.0,7.6,48217,Hill,"{""48217"": 100}",Hill,48217,False,False,America/Chicago,"(31.97905, -96.96277)",43.73049476993039,2521319.0,202_0_yes,32.07628155200558,-97.700458628307,50.0
76633,31.6857,-97.32503,China Spring,TX,Texas,True,,5334.0,36.9,48309,McLennan,"{""48309"": 73.62, ""48035"": 26.38}",McLennan|Bosque,48309|48035,False,False,America/Chicago,"(31.6857, -97.32503)",34.834505158538946,2521319.0,202_0_yes,32.07628155200558,-97.700458628307,50.0
76634,31.80953,-97.56866,Clifton,TX,Texas,True,,7610.0,10.3,48035,Bosque,"{""48035"": 97.9, ""48099"": 2.1}",Bosque|Coryell,48035|48099,False,False,America/Chicago,"(31.80953, -97.56866)",19.985177447715298,2521319.0,202_0_yes,32.07628155200558,-97.700458628307,50.0
76636,32.17213,-97.28307,Covington,TX,Texas,True,,1509.0,12.9,48217,Hill,"{""48217"": 100}",Hill,48217,False,False,America/Chicago,"(32.17213, -97.28307)",25.305418961412688,2521319.0,202_0_yes,32.07628155200558,-97.700458628307,50.0
76637,31.76631,-97.81817,Cranfills Gap,TX,Texas,True,,461.0,5.1,48035,Bosque,"{""48035"": 56.83, ""48193"": 43.17}",Bosque|Hamilton,48035|48193,False,False,America/Chicago,"(31.76631, -97.81817)",22.502021589807427,2521319.0,202_0_yes,32.07628155200558,-97.700458628307,50.0
76638,31.55487,-97.446,Crawford,TX,Texas,True,,3355.0,18.1,48309,McLennan,"{""48309"": 100}",McLennan,48309,False,False,America/Chicago,"(31.55487, -97.446)",39.00095547543445,2521319.0,202_0_yes,32.07628155200558,-97.700458628307,50.0
76640,31.69029,-97.07323,Elm Mott,TX,Texas,True,,3110.0,42.5,48309,McLennan,"{""48309"": 100}",McLennan,48309,False,False,America/Chicago,"(31.69029, -97.07323)",45.4467122307094,2521319.0,202_0_yes,32.07628155200558,-97.700458628307,50.0
76643,31.45011,-97.19732,Hewitt,TX,Texas,True,,14705.0,747.1,48309,McLennan,"{""48309"": 100}",McLennan,48309,False,False,America/Chicago,"(31.45011, -97.19732)",52.39658673768306,2521319.0,202_0_yes,32.07628155200558,-97.700458628307,50.0
76645,32.01224,-97.12816,Hillsboro,TX,Texas,True,,10513.0,21.6,48217,Hill,"{""48217"": 100}",Hill,48217,False,False,America/Chicago,"(32.01224, -97.12816)",33.8081517688783,2521319.0,202_0_yes,32.07628155200558,-97.700458628307,50.0
76649,32.00132,-97.87816,Iredell,TX,Texas,True,,646.0,2.0,48035,Bosque,"{""48035"": 79.18, ""48143"": 20.82}",Bosque|Erath,48035|48143,False,False,America/Chicago,"(32.00132, -97.87816)",11.625422545741179,2521319.0,202_0_yes,32.07628155200558,-97.700458628307,50.0
76650,31.98994,-96.86678,Irene,TX,Texas,True,,153.0,7.6,48217,Hill,"{""48217"": 100}",Hill,48217,False,False,America/Chicago,"(31.98994, -96.86678)",49.19429483776265,2521319.0,202_0_yes,32.07628155200558,-97.700458628307,50.0
76651,32.18313,-96.87158,Italy,TX,Texas,True,,4084.0,16.6,48139,Ellis,"{""48139"": 100}",Ellis,48139,False,False,America/Chicago,"(32.18313, -96.87158)",49.057470901641054,2521319.0,202_0_yes,32.07628155200558,-97.700458628307,50.0
76652,32.11331,-97.57648,Kopperl,TX,Texas,True,,1089.0,4.4,48035,Bosque,"{""48035"": 100}",Bosque,48035,False,False,America/Chicago,"(32.11331, -97.57648)",7.694728547350428,2521319.0,202_0_yes,32.07628155200558,-97.700458628307,50.0
76654,31.72708,-97.01346,Leroy,TX,Texas,True,,110.0,47.3,48309,McLennan,"{""48309"": 100}",McLennan,48309,False,False,America/Chicago,"(31.72708, -97.01346)",46.96815751467423,2521319.0,202_0_yes,32.07628155200558,-97.700458628307,50.0
76655,31.39295,-97.1728,Lorena,TX,Texas,True,,8168.0,40.6,48309,McLennan,"{""48309"": 83.27, ""48145"": 16.73}",McLennan|Falls,48309|48145,False,False,America/Chicago,"(31.39295, -97.1728)",56.484924607206615,2521319.0,202_0_yes,32.07628155200558,-97.700458628307,50.0
76657,31.43851,-97.39971,McGregor,TX,Texas,True,,11151.0,31.1,48309,McLennan,"{""48309"": 92.49, ""48099"": 7.51}",McLennan|Coryell,48309|48099,False,False,America/Chicago,"(31.43851, -97.39971)",47.476014159943354,2521319.0,202_0_yes,32.07628155200558,-97.700458628307,50.0
76660,31.93015,-96.89331,Malone,TX,Texas,True,,624.0,7.4,48217,Hill,"{""48217"": 100}",Hill,48217,False,False,America/Chicago,"(31.93015, -96.89331)",48.35849634107783,2521319.0,202_0_yes,32.07628155200558,-97.700458628307,50.0
76665,31.91784,-97.72049,Meridian,TX,Texas,True,,2562.0,5.9,48035,Bosque,"{""48035"": 100}",Bosque,48035,False,False,America/Chicago,"(31.91784, -97.72049)",11.010014293477747,2521319.0,202_0_yes,32.07628155200558,-97.700458628307,50.0
76666,32.04653,-96.89178,Mertens,TX,Texas,True,,254.0,3.5,48217,Hill,"{""48217"": 63.16, ""48349"": 36.84}",Hill|Navarro,48217|48349,False,False,America/Chicago,"(32.04653, -96.89178)",47.396880429826716,2521319.0,202_0_yes,32.07628155200558,-97.700458628307,50.0
76670,32.12887,-96.98836,Milford,TX,Texas,True,,1617.0,9.3,48139,Ellis,"{""48139"": 62.55, ""48217"": 37.45}",Ellis|Hill,48139|48217,False,False,America/Chicago,"(32.12887, -96.98836)",41.83635519345273,2521319.0,202_0_yes,32.07628155200558,-97.700458628307,50.0
76671,31.99351,-97.52768,Morgan,TX,Texas,True,,1748.0,9.0,48035,Bosque,"{""48035"": 100}",Bosque,48035,False,False,America/Chicago,"(31.99351, -97.52768)",11.624179841830529,2521319.0,202_0_yes,32.07628155200558,-97.700458628307,50.0
76673,31.75371,-96.89105,Mount Calm,TX,Texas,True,,1804.0,7.8,48217,Hill,"{""48217"": 61.58, ""48293"": 37.5, ""48309"": 0.92}",Hill|Limestone|McLennan,48217|48293|48309,False,False,America/Chicago,"(31.75371, -96.89105)",52.44228705529411,2521319.0,202_0_yes,32.07628155200558,-97.700458628307,50.0
76676,31.87169,-96.95847,Penelope,TX,Texas,True,,238.0,3.9,48217,Hill,"{""48217"": 100}",Hill,48217,False,False,America/Chicago,"(31.87169, -96.95847)",45.72843454401981,2521319.0,202_0_yes,32.07628155200558,-97.700458628307,50.0
76682,31.45235,-96.90825,Riesel,TX,Texas,True,,3034.0,9.4,48145,Falls,"{""48145"": 60.23, ""48309"": 39.77}",Falls|McLennan,48145|48309,False,False,America/Chicago,"(31.45235, -96.90825)",63.4363191737771,2521319.0,202_0_yes,32.07628155200558,-97.700458628307,50.0
76689,31.66624,-97.50471,Valley Mills,TX,Texas,True,,3821.0,6.6,48035,Bosque,"{""48035"": 58.75, ""48309"": 27.89, ""48099"": 13.36}",Bosque|McLennan|Coryell,48035|48309|48099,False,False,America/Chicago,"(31.66624, -97.50471)",30.570892246431757,2521319.0,202_0_yes,32.07628155200558,-97.700458628307,50.0
76690,32.1031,-97.79219,Walnut Springs,TX,Texas,True,,1081.0,4.7,48035,Bosque,"{""48035"": 61.88, ""48425"": 34.81, ""48143"": 3.31}",Bosque|Somervell|Erath,48035|48425|48143,False,False,America/Chicago,"(32.1031, -97.79219)",5.68041673827769,2521319.0,202_0_yes,32.07628155200558,-97.700458628307,50.0
76691,31.77564,-97.09721,West,TX,Texas,True,,6479.0,25.6,48309,McLennan,"{""48309"": 92.6, ""48217"": 7.4}",McLennan|Hill,48309|48217,False,False,America/Chicago,"(31.77564, -97.09721)",41.02332913359624,2521319.0,202_0_yes,32.07628155200558,-97.700458628307,50.0
76692,31.95902,-97.33382,Whitney,TX,Texas,True,,10048.0,34.2,48217,Hill,"{""48217"": 100}",Hill,48217,False,False,America/Chicago,"(31.95902, -97.33382)",22.956136160722703,2521319.0,202_0_yes,32.07628155200558,-97.700458628307,50.0
76701,31.55201,-97.13852,Waco,TX,Texas,True,,1872.0,632.5,48309,McLennan,"{""48309"": 100}",McLennan,48309,False,False,America/Chicago,"(31.55201, -97.13852)",48.99677062168714,2521319.0,202_0_yes,32.07628155200558,-97.700458628307,50.0
76704,31.57558,-97.12417,Waco,TX,Texas,True,,7681.0,548.9,48309,McLennan,"{""48309"": 100}",McLennan,48309,False,False,America/Chicago,"(31.57558, -97.12417)",48.38766606226265,2521319.0,202_0_yes,32.07628155200558,-97.700458628307,50.0
76705,31.62448,-97.08814,Waco,TX,Texas,True,,31868.0,103.7,48309,McLennan,"{""48309"": 100}",McLennan,48309,False,False,America/Chicago,"(31.62448, -97.08814)",47.601653530431264,2521319.0,202_0_yes,32.07628155200558,-97.700458628307,50.0
76706,31.465,-97.09131,Waco,TX,Texas,True,,39667.0,211.9,48309,McLennan,"{""48309"": 95.58, ""48145"": 4.42}",McLennan|Falls,48309|48145,False,False,America/Chicago,"(31.465, -97.09131)",55.3547339487035,2521319.0,202_0_yes,32.07628155200558,-97.700458628307,50.0
76707,31.55365,-97.15829,Waco,TX,Texas,True,,15595.0,1844.1,48309,McLennan,"{""48309"": 100}",McLennan,48309,False,False,America/Chicago,"(31.55365, -97.15829)",48.137554409573646,2521319.0,202_0_yes,32.07628155200558,-97.700458628307,50.0
76708,31.62749,-97.21186,Waco,TX,Texas,True,,27095.0,217.7,48309,McLennan,"{""48309"": 100}",McLennan,48309,False,False,America/Chicago,"(31.62749, -97.21186)",42.235005824520364,2521319.0,202_0_yes,32.07628155200558,-97.700458628307,50.0
76710,31.5387,-97.19554,Waco,TX,Texas,True,,24607.0,1018.2,48309,McLennan,"{""48309"": 100}",McLennan,48309,False,False,America/Chicago,"(31.5387, -97.19554)",47.524546622668076,2521319.0,202_0_yes,32.07628155200558,-97.700458628307,50.0
76711,31.51422,-97.15374,Waco,TX,Texas,True,,10475.0,1011.5,48309,McLennan,"{""48309"": 100}",McLennan,48309,False,False,America/Chicago,"(31.51422, -97.15374)",50.387667671609684,2521319.0,202_0_yes,32.07628155200558,-97.700458628307,50.0
76712,31.52411,-97.25514,Woodway,TX,Texas,True,,26104.0,192.4,48309,McLennan,"{""48309"": 100}",McLennan,48309,False,False,America/Chicago,"(31.52411, -97.25514)",46.252977914260256,2521319.0,202_0_yes,32.07628155200558,-97.700458628307,50.0
76844,31.44387,-98.49348,Goldthwaite,TX,Texas,True,,3393.0,3.5,48333,Mills,"{""48333"": 95.4, ""48193"": 3.22, ""48281"": 1.38}",Mills|Hamilton|Lampasas,48333|48193|48281,False,False,America/Chicago,"(31.44387, -98.49348)",63.872297085557655,2521319.0,202_0_yes,32.07628155200558,-97.700458628307,50.0
76870,31.60386,-98.53151,Priddy,TX,Texas,True,,238.0,3.5,48333,Mills,"{""48333"": 100}",Mills,48333,False,False,America/Chicago,"(31.60386, -98.53151)",58.69309394688812,2521319.0,202_0_yes,32.07628155200558,-97.700458628307,50.0
