zip,lat,lng,city,state_id,state_name,zcta,parent_zcta,population,density,county_fips,county_name,county_weights,county_names_all,county_fips_all,imprecise,military,timezone,Coord,distance_miles,market_total_population,market_id,market_center_lat,market_center_lng,radius_miles
76901,31.52352,-100.63993,San Angelo,TX,Texas,True,,30972.0,34.6,48451,Tom Green,"{""48451"": 72.83, ""48235"": 27.17}",Tom Green|Irion,48451|48235,False,False,America/Chicago,"(31.52352, -100.63993)",48.41149971865108,152948.0,204_0_yes,32.09922305365899,-101.10990513973096,50.0
76903,31.48168,-100.43787,San Angelo,TX,Texas,True,,31429.0,484.5,48451,Tom Green,"{""48451"": 100}",Tom Green,48451,False,False,America/Chicago,"(31.48168, -100.43787)",58.1223178223185,152948.0,204_0_yes,32.09922305365899,-101.10990513973096,50.0
76905,31.49987,-100.31583,San Angelo,TX,Texas,True,,12746.0,26.8,48451,Tom Green,"{""48451"": 100}",Tom Green,48451,False,False,America/Chicago,"(31.49987, -100.31583)",62.36341491582099,152948.0,204_0_yes,32.09922305365899,-101.10990513973096,50.0
76908,31.43226,-100.40314,Goodfellow Afb,TX,Texas,True,,2541.0,629.8,48451,Tom Green,"{""48451"": 100}",Tom Green,48451,False,False,America/Chicago,"(31.43226, -100.40314)",62.02676783218405,152948.0,204_0_yes,32.09922305365899,-101.10990513973096,50.0
76933,31.87618,-100.28544,Bronte,TX,Texas,True,,1340.0,1.9,48081,Coke,"{""48081"": 69.83, ""48399"": 30.17}",Coke|Runnels,48081|48399,False,False,America/Chicago,"(31.87618, -100.28544)",50.71366645925165,152948.0,204_0_yes,32.09922305365899,-101.10990513973096,50.0
76934,31.61491,-100.67661,Carlsbad,TX,Texas,True,,974.0,8.7,48451,Tom Green,"{""48451"": 100}",Tom Green,48451,False,False,America/Chicago,"(31.61491, -100.67661)",42.02793836357715,152948.0,204_0_yes,32.09922305365899,-101.10990513973096,50.0
76945,31.87297,-100.60292,Robert Lee,TX,Texas,True,,1762.0,1.1,48081,Coke,"{""48081"": 94.88, ""48451"": 4.06, ""48431"": 1.06}",Coke|Tom Green|Sterling,48081|48451|48431,False,False,America/Chicago,"(31.87297, -100.60292)",33.572629016730275,152948.0,204_0_yes,32.09922305365899,-101.10990513973096,50.0
76951,31.81255,-101.04709,Sterling City,TX,Texas,True,,1274.0,0.6,48431,Sterling,"{""48431"": 100}",Sterling,48431,False,False,America/Chicago,"(31.81255, -101.04709)",20.146612223241284,152948.0,204_0_yes,32.09922305365899,-101.10990513973096,50.0
76953,31.72871,-100.32078,Tennyson,TX,Texas,True,,83.0,0.7,48081,Coke,"{""48081"": 99.8, ""48451"": 0.2}",Coke|Tom Green,48081|48451,False,False,America/Chicago,"(31.72871, -100.32078)",52.88985073239851,152948.0,204_0_yes,32.09922305365899,-101.10990513973096,50.0
76958,31.64467,-100.75515,Water Valley,TX,Texas,True,,134.0,1.1,48451,Tom Green,"{""48451"": 100}",Tom Green,48451,False,False,America/Chicago,"(31.64467, -100.75515)",37.6784267975877,152948.0,204_0_yes,32.09922305365899,-101.10990513973096,50.0
79506,32.11366,-100.32613,Blackwell,TX,Texas,True,,555.0,1.3,48353,Nolan,"{""48353"": 72.6, ""48081"": 27.4}",Nolan|Coke,48353|48081,False,False,America/Chicago,"(32.11366, -100.32613)",45.88229726063824,152948.0,204_0_yes,32.09922305365899,-101.10990513973096,50.0
79511,32.42982,-101.26699,Coahoma,TX,Texas,True,,1417.0,2.1,48227,Howard,"{""48227"": 73.17, ""48033"": 26.83}",Howard|Borden,48227|48033,False,False,America/Chicago,"(32.42982, -101.26699)",24.616850032489943,152948.0,204_0_yes,32.09922305365899,-101.10990513973096,50.0
79512,32.32614,-100.92807,Colorado City,TX,Texas,True,,7451.0,4.8,48335,Mitchell,"{""48335"": 96.57, ""48415"": 3.43}",Mitchell|Scurry,48335|48415,False,False,America/Chicago,"(32.32614, -100.92807)",18.942169824835347,152948.0,204_0_yes,32.09922305365899,-101.10990513973096,50.0
79526,32.6443,-100.75192,Hermleigh,TX,Texas,True,,873.0,1.8,48415,Scurry,"{""48415"": 92.06, ""48151"": 7.94}",Scurry|Fisher,48415|48151,False,False,America/Chicago,"(32.6443, -100.75192)",43.06707654103587,152948.0,204_0_yes,32.09922305365899,-101.10990513973096,50.0
79527,32.59637,-101.09939,Ira,TX,Texas,True,,225.0,1.4,48415,Scurry,"{""48415"": 83.32, ""48033"": 16.68}",Scurry|Borden,48415|48033,False,False,America/Chicago,"(32.59637, -101.09939)",34.35506547718707,152948.0,204_0_yes,32.09922305365899,-101.10990513973096,50.0
79532,32.40804,-100.71357,Loraine,TX,Texas,True,,671.0,2.1,48335,Mitchell,"{""48335"": 91.88, ""48353"": 4.92, ""48415"": 3.2}",Mitchell|Nolan|Scurry,48335|48353|48415,False,False,America/Chicago,"(32.40804, -100.71357)",31.489596920361045,152948.0,204_0_yes,32.09922305365899,-101.10990513973096,50.0
79535,32.2219,-100.48421,Maryneal,TX,Texas,True,,188.0,0.5,48353,Nolan,"{""48353"": 100}",Nolan,48353,False,False,America/Chicago,"(32.2219, -100.48421)",37.56664111185644,152948.0,204_0_yes,32.09922305365899,-101.10990513973096,50.0
79543,32.71864,-100.38724,Roby,TX,Texas,True,,1319.0,4.0,48151,Fisher,"{""48151"": 100}",Fisher,48151,False,False,America/Chicago,"(32.71864, -100.38724)",60.07144304895384,152948.0,204_0_yes,32.09922305365899,-101.10990513973096,50.0
79545,32.41806,-100.57753,Roscoe,TX,Texas,True,,1950.0,3.3,48353,Nolan,"{""48353"": 81.52, ""48151"": 15.33, ""48415"": 3.15}",Nolan|Fisher|Scurry,48353|48151|48415,False,False,America/Chicago,"(32.41806, -100.57753)",38.116587404389335,152948.0,204_0_yes,32.09922305365899,-101.10990513973096,50.0
79556,32.48451,-100.39263,Sweetwater,TX,Texas,True,,12683.0,12.9,48353,Nolan,"{""48353"": 58.38, ""48151"": 41.62}",Nolan|Fisher,48353|48151,False,False,America/Chicago,"(32.48451, -100.39263)",49.63627408453393,152948.0,204_0_yes,32.09922305365899,-101.10990513973096,50.0
79565,32.37637,-101.08415,Westbrook,TX,Texas,True,,195.0,1.3,48335,Mitchell,"{""48335"": 100}",Mitchell,48335,False,False,America/Chicago,"(32.37637, -101.08415)",19.208095220697153,152948.0,204_0_yes,32.09922305365899,-101.10990513973096,50.0
79713,32.49861,-101.74554,Ackerly,TX,Texas,True,,725.0,1.5,48317,Martin,"{""48317"": 46.13, ""48115"": 22.01, ""48227"": 21.75, ""48033"": 10.11}",Martin|Dawson|Howard|Borden,48317|48115|48227|48033,False,False,America/Chicago,"(32.49861, -101.74554)",46.25549987989569,152948.0,204_0_yes,32.09922305365899,-101.10990513973096,50.0
79720,32.20171,-101.51395,Big Spring,TX,Texas,True,,34454.0,13.5,48227,Howard,"{""48227"": 55.14, ""48173"": 35.03, ""48033"": 5.71, ""48317"": 4.12}",Howard|Glasscock|Borden|Martin,48227|48173|48033|48317,False,False,America/Chicago,"(32.20171, -101.51395)",24.673820621533775,152948.0,204_0_yes,32.09922305365899,-101.10990513973096,50.0
79733,32.11036,-101.36683,Forsan,TX,Texas,True,,449.0,595.4,48227,Howard,"{""48227"": 100}",Howard,48227,False,False,America/Chicago,"(32.11036, -101.36683)",15.056836289988953,152948.0,204_0_yes,32.09922305365899,-101.10990513973096,50.0
79738,32.73625,-101.48269,Gail,TX,Texas,True,,187.0,0.2,48033,Borden,"{""48033"": 100}",Borden,48033,False,False,America/Chicago,"(32.73625, -101.48269)",49.09189705298001,152948.0,204_0_yes,32.09922305365899,-101.10990513973096,50.0
79739,31.75515,-101.50668,Garden City,TX,Texas,True,,1278.0,1.1,48173,Glasscock,"{""48173"": 91.35, ""48383"": 8.65}",Glasscock|Reagan,48173|48383,False,False,America/Chicago,"(31.75515, -101.50668)",33.26449562160332,152948.0,204_0_yes,32.09922305365899,-101.10990513973096,50.0
79748,32.38784,-101.66889,Knott,TX,Texas,True,,277.0,2.2,48227,Howard,"{""48227"": 62.38, ""48317"": 37.62}",Howard|Martin,48227|48317,False,False,America/Chicago,"(32.38784, -101.66889)",38.27187328522665,152948.0,204_0_yes,32.09922305365899,-101.10990513973096,50.0
79749,32.25551,-101.83419,Lenorah,TX,Texas,True,,492.0,3.4,48317,Martin,"{""48317"": 100}",Martin,48317,False,False,America/Chicago,"(32.25551, -101.83419)",43.71153687495816,152948.0,204_0_yes,32.09922305365899,-101.10990513973096,50.0
79782,32.18599,-101.88823,Stanton,TX,Texas,True,,4304.0,4.4,48317,Martin,"{""48317"": 84.04, ""48173"": 8.91, ""48329"": 7.05}",Martin|Glasscock|Midland,48317|48173|48329,False,False,America/Chicago,"(32.18599, -101.88823)",45.92736480862244,152948.0,204_0_yes,32.09922305365899,-101.10990513973096,50.0
