zip,lat,lng,city,state_id,state_name,zcta,parent_zcta,population,density,county_fips,county_name,county_weights,county_names_all,county_fips_all,imprecise,military,timezone,Coord,distance_miles,market_total_population,market_id,market_center_lat,market_center_lng,radius_miles
28043,35.31301,-81.86971,Forest City,NC,North Carolina,True,,21275.0,123.9,37161,Rutherford,"{""37161"": 100}",Rutherford,37161,False,False,America/New_York,"(35.31301, -81.86971)",55.98469263173495,2024995.0,263_0_yes,34.85492226192944,-82.6864704976818,50.0
28139,35.34736,-81.99702,Rutherfordton,NC,North Carolina,True,,20948.0,44.5,37161,Rutherford,"{""37161"": 86.69, ""37149"": 13.31}",Rutherford|Polk,37161|37149,False,False,America/New_York,"(35.34736, -81.99702)",51.73519687727069,2024995.0,263_0_yes,34.85492226192944,-82.6864704976818,50.0
28160,35.36064,-81.92234,Spindale,NC,North Carolina,True,,3902.0,273.6,37161,Rutherford,"{""37161"": 100}",Rutherford,37161,False,False,America/New_York,"(35.36064, -81.92234)",55.55510790724648,2024995.0,263_0_yes,34.85492226192944,-82.6864704976818,50.0
28167,35.5062,-81.95986,Union Mills,NC,North Carolina,True,,2284.0,12.0,37161,Rutherford,"{""37161"": 93.31, ""37111"": 6.69}",Rutherford|McDowell,37161|37111,False,False,America/New_York,"(35.5062, -81.95986)",60.89850102042856,2024995.0,263_0_yes,34.85492226192944,-82.6864704976818,50.0
28704,35.46305,-82.57142,Arden,NC,North Carolina,True,,20606.0,264.1,37021,Buncombe,"{""37021"": 93.73, ""37089"": 6.27}",Buncombe|Henderson,37021|37089,False,False,America/New_York,"(35.46305, -82.57142)",42.517245625683216,2024995.0,263_0_yes,34.85492226192944,-82.6864704976818,50.0
28707,35.39873,-83.0662,Balsam,NC,North Carolina,True,,179.0,6.2,37099,Jackson,"{""37099"": 100}",Jackson,37099,False,False,America/New_York,"(35.39873, -83.0662)",43.26929382038178,2024995.0,263_0_yes,34.85492226192944,-82.6864704976818,50.0
28708,35.27105,-82.85979,Balsam Grove,NC,North Carolina,True,,152.0,1.2,37175,Transylvania,"{""37175"": 100}",Transylvania,37175,False,False,America/New_York,"(35.27105, -82.85979)",30.376592519728103,2024995.0,263_0_yes,34.85492226192944,-82.6864704976818,50.0
28712,35.17324,-82.76711,Brevard,NC,North Carolina,True,,19842.0,65.9,37175,Transylvania,"{""37175"": 100}",Transylvania,37175,False,False,America/New_York,"(35.17324, -82.76711)",22.462062167342904,2024995.0,263_0_yes,34.85492226192944,-82.6864704976818,50.0
28713,35.3697,-83.50559,Bryson City,NC,North Carolina,True,,9094.0,25.2,37173,Swain,"{""37173"": 99.77, ""37113"": 0.23}",Swain|Macon,37173|37113,False,False,America/New_York,"(35.3697, -83.50559)",58.381611169883286,2024995.0,263_0_yes,34.85492226192944,-82.6864704976818,50.0
28715,35.51247,-82.71196,Candler,NC,North Carolina,True,,26451.0,130.8,37021,Buncombe,"{""37021"": 100}",Buncombe,37021,False,False,America/New_York,"(35.51247, -82.71196)",45.45501711202323,2024995.0,263_0_yes,34.85492226192944,-82.6864704976818,50.0
28716,35.4358,-82.86126,Canton,NC,North Carolina,True,,18095.0,44.0,37087,Haywood,"{""37087"": 100}",Haywood,37087,False,False,America/New_York,"(35.4358, -82.86126)",41.33183575688852,2024995.0,263_0_yes,34.85492226192944,-82.6864704976818,50.0
28717,35.07131,-83.09458,Cashiers,NC,North Carolina,True,,1933.0,20.5,37099,Jackson,"{""37099"": 100}",Jackson,37099,False,False,America/New_York,"(35.07131, -83.09458)",27.52337746736949,2024995.0,263_0_yes,34.85492226192944,-82.6864704976818,50.0
28718,35.16614,-82.63108,Cedar Mountain,NC,North Carolina,True,,468.0,8.9,37175,Transylvania,"{""37175"": 100}",Transylvania,37175,False,False,America/New_York,"(35.16614, -82.63108)",21.730365658161812,2024995.0,263_0_yes,34.85492226192944,-82.6864704976818,50.0
28719,35.53223,-83.47056,Cherokee,NC,North Carolina,True,,7404.0,7.2,37173,Swain,"{""37173"": 92.42, ""37099"": 7.58}",Swain|Jackson,37173|37099,False,False,America/New_York,"(35.53223, -83.47056)",64.42056501940637,2024995.0,263_0_yes,34.85492226192944,-82.6864704976818,50.0
28720,35.42766,-82.25145,Chimney Rock,NC,North Carolina,True,,174.0,7.2,37161,Rutherford,"{""37161"": 100}",Rutherford,37161,False,False,America/New_York,"(35.42766, -82.25145)",46.58406318629119,2024995.0,263_0_yes,34.85492226192944,-82.6864704976818,50.0
28722,35.23408,-82.12794,Columbus,NC,North Carolina,True,,6587.0,58.0,37149,Polk,"{""37149"": 100}",Polk,37149,False,False,America/New_York,"(35.23408, -82.12794)",41.0426679966787,2024995.0,263_0_yes,34.85492226192944,-82.6864704976818,50.0
28723,35.27776,-83.12195,Cullowhee,NC,North Carolina,True,,11164.0,38.5,37099,Jackson,"{""37099"": 100}",Jackson,37099,False,False,America/New_York,"(35.27776, -83.12195)",38.210325804689944,2024995.0,263_0_yes,34.85492226192944,-82.6864704976818,50.0
28725,35.37631,-83.26411,Dillsboro,NC,North Carolina,True,,23.0,16.7,37099,Jackson,"{""37099"": 100}",Jackson,37099,False,False,America/New_York,"(35.37631, -83.26411)",48.61652484657224,2024995.0,263_0_yes,34.85492226192944,-82.6864704976818,50.0
28726,35.282,-82.41752,East Flat Rock,NC,North Carolina,True,,3953.0,618.2,37089,Henderson,"{""37089"": 100}",Henderson,37089,False,False,America/New_York,"(35.282, -82.41752)",33.19725935364276,2024995.0,263_0_yes,34.85492226192944,-82.6864704976818,50.0
28729,35.31961,-82.60283,Etowah,NC,North Carolina,True,,3534.0,328.6,37089,Henderson,"{""37089"": 100}",Henderson,37089,False,False,America/New_York,"(35.31961, -82.60283)",32.45323252517872,2024995.0,263_0_yes,34.85492226192944,-82.6864704976818,50.0
28730,35.52792,-82.37588,Fairview,NC,North Carolina,True,,9632.0,82.0,37021,Buncombe,"{""37021"": 100}",Buncombe,37021,False,False,America/New_York,"(35.52792, -82.37588)",49.6968941446505,2024995.0,263_0_yes,34.85492226192944,-82.6864704976818,50.0
28731,35.28905,-82.37796,Flat Rock,NC,North Carolina,True,,9079.0,105.9,37089,Henderson,"{""37089"": 80.63, ""37149"": 19.37}",Henderson|Polk,37089|37149,False,False,America/New_York,"(35.28905, -82.37796)",34.69972683880808,2024995.0,263_0_yes,34.85492226192944,-82.6864704976818,50.0
28732,35.44667,-82.46577,Fletcher,NC,North Carolina,True,,18575.0,173.5,37089,Henderson,"{""37089"": 63.91, ""37021"": 36.09}",Henderson|Buncombe,37089|37021,False,False,America/New_York,"(35.44667, -82.46577)",42.744659561655745,2024995.0,263_0_yes,34.85492226192944,-82.6864704976818,50.0
28734,35.1825,-83.42599,Franklin,NC,North Carolina,True,,28315.0,36.3,37113,Macon,"{""37113"": 98.72, ""37043"": 1.28}",Macon|Clay,37113|37043,False,False,America/New_York,"(35.1825, -83.42599)",47.57438239131238,2024995.0,263_0_yes,34.85492226192944,-82.6864704976818,50.0
28735,35.47544,-82.3485,Gerton,NC,North Carolina,True,,258.0,24.6,37089,Henderson,"{""37089"": 100}",Henderson,37089,False,False,America/New_York,"(35.47544, -82.3485)",46.9314758085214,2024995.0,263_0_yes,34.85492226192944,-82.6864704976818,50.0
28736,35.18039,-83.0838,Glenville,NC,North Carolina,True,,718.0,7.1,37099,Jackson,"{""37099"": 100}",Jackson,37099,False,False,America/New_York,"(35.18039, -83.0838)",31.799155741440927,2024995.0,263_0_yes,34.85492226192944,-82.6864704976818,50.0
28739,35.2719,-82.5419,Hendersonville,NC,North Carolina,True,,21116.0,133.6,37089,Henderson,"{""37089"": 95.32, ""37175"": 4.68}",Henderson|Transylvania,37089|37175,False,False,America/New_York,"(35.2719, -82.5419)",29.948077254761788,2024995.0,263_0_yes,34.85492226192944,-82.6864704976818,50.0
28741,35.06614,-83.21053,Highlands,NC,North Carolina,True,,3714.0,15.9,37113,Macon,"{""37113"": 87.01, ""37099"": 12.99}",Macon|Jackson,37113|37099,False,False,America/New_York,"(35.06614, -83.21053)",33.06932846877366,2024995.0,263_0_yes,34.85492226192944,-82.6864704976818,50.0
28742,35.39486,-82.65436,Horse Shoe,NC,North Carolina,True,,3159.0,26.3,37089,Henderson,"{""37089"": 98.76, ""37175"": 1.24}",Henderson|Transylvania,37089|37175,False,False,America/New_York,"(35.39486, -82.65436)",37.35024985623143,2024995.0,263_0_yes,34.85492226192944,-82.6864704976818,50.0
28745,35.52524,-82.97152,Lake Junaluska,NC,North Carolina,True,,440.0,284.1,37087,Haywood,"{""37087"": 100}",Haywood,37087,False,False,America/New_York,"(35.52524, -82.97152)",49.03162328890942,2024995.0,263_0_yes,34.85492226192944,-82.6864704976818,50.0
28746,35.461,-82.16779,Lake Lure,NC,North Carolina,True,,2575.0,22.1,37161,Rutherford,"{""37161"": 100}",Rutherford,37161,False,False,America/New_York,"(35.461, -82.16779)",51.108092236306526,2024995.0,263_0_yes,34.85492226192944,-82.6864704976818,50.0
28747,35.15185,-82.9249,Lake Toxaway,NC,North Carolina,True,,2267.0,18.0,37175,Transylvania,"{""37175"": 100}",Transylvania,37175,False,False,America/New_York,"(35.15185, -82.9249)",24.55575610802679,2024995.0,263_0_yes,34.85492226192944,-82.6864704976818,50.0
28751,35.50547,-83.11955,Maggie Valley,NC,North Carolina,True,,3812.0,32.2,37087,Haywood,"{""37087"": 78.3, ""37099"": 21.7}",Haywood|Jackson,37087|37099,False,False,America/New_York,"(35.50547, -83.11955)",51.17145974841205,2024995.0,263_0_yes,34.85492226192944,-82.6864704976818,50.0
28756,35.34256,-82.18219,Mill Spring,NC,North Carolina,True,,3975.0,19.3,37149,Polk,"{""37149"": 98.85, ""37161"": 1.15}",Polk|Rutherford,37149|37161,False,False,America/New_York,"(35.34256, -82.18219)",44.13402072322095,2024995.0,263_0_yes,34.85492226192944,-82.6864704976818,50.0
28759,35.38348,-82.58431,Mills River,NC,North Carolina,True,,7671.0,120.9,37089,Henderson,"{""37089"": 98.37, ""37021"": 1.63}",Henderson|Buncombe,37089|37021,False,False,America/New_York,"(35.38348, -82.58431)",36.973431848076366,2024995.0,263_0_yes,34.85492226192944,-82.6864704976818,50.0
28763,35.03796,-83.43215,Otto,NC,North Carolina,True,,2357.0,16.4,37113,Macon,"{""37113"": 100}",Macon,37113,False,False,America/New_York,"(35.03796, -83.43215)",44.08439553091714,2024995.0,263_0_yes,34.85492226192944,-82.6864704976818,50.0
28766,35.24945,-82.61923,Penrose,NC,North Carolina,True,,1140.0,73.4,37175,Transylvania,"{""37175"": 87.11, ""37089"": 12.89}",Transylvania|Henderson,37175|37089,False,False,America/New_York,"(35.24945, -82.61923)",27.523306240001315,2024995.0,263_0_yes,34.85492226192944,-82.6864704976818,50.0
28768,35.30437,-82.70925,Pisgah Forest,NC,North Carolina,True,,7923.0,36.8,37175,Transylvania,"{""37175"": 100}",Transylvania,37175,False,False,America/New_York,"(35.30437, -82.70925)",31.080580562190992,2024995.0,263_0_yes,34.85492226192944,-82.6864704976818,50.0
28772,35.13927,-82.83709,Rosman,NC,North Carolina,True,,1210.0,24.2,37175,Transylvania,"{""37175"": 100}",Transylvania,37175,False,False,America/New_York,"(35.13927, -82.83709)",21.416433181266083,2024995.0,263_0_yes,34.85492226192944,-82.6864704976818,50.0
28773,35.25246,-82.31166,Saluda,NC,North Carolina,True,,3166.0,25.3,37149,Polk,"{""37149"": 73.43, ""37089"": 26.57}",Polk|Henderson,37149|37089,False,False,America/New_York,"(35.25246, -82.31166)",34.69679338266724,2024995.0,263_0_yes,34.85492226192944,-82.6864704976818,50.0
28774,35.08976,-82.99791,Sapphire,NC,North Carolina,True,,1066.0,7.6,37175,Transylvania,"{""37175"": 61.72, ""37099"": 38.28}",Transylvania|Jackson,37175|37099,False,False,America/New_York,"(35.08976, -82.99791)",23.962251780548108,2024995.0,263_0_yes,34.85492226192944,-82.6864704976818,50.0
28775,35.01916,-83.32186,Scaly Mountain,NC,North Carolina,True,,354.0,11.1,37113,Macon,"{""37113"": 100}",Macon,37113,False,False,America/New_York,"(35.01916, -83.32186)",37.7359786573373,2024995.0,263_0_yes,34.85492226192944,-82.6864704976818,50.0
28779,35.3558,-83.20962,Sylva,NC,North Carolina,True,,19292.0,69.0,37099,Jackson,"{""37099"": 100}",Jackson,37099,False,False,America/New_York,"(35.3558, -83.20962)",45.52032643511968,2024995.0,263_0_yes,34.85492226192944,-82.6864704976818,50.0
28782,35.23569,-82.1519,Tryon,NC,North Carolina,True,,6894.0,54.3,37149,Polk,"{""37149"": 100}",Polk,37149,False,False,America/New_York,"(35.23569, -82.1519)",40.08139391853566,2024995.0,263_0_yes,34.85492226192944,-82.6864704976818,50.0
28783,35.24906,-83.02,Tuckasegee,NC,North Carolina,True,,1393.0,7.9,37099,Jackson,"{""37099"": 100}",Jackson,37099,False,False,America/New_York,"(35.24906, -83.02)",33.12835463985601,2024995.0,263_0_yes,34.85492226192944,-82.6864704976818,50.0
28786,35.46272,-82.99294,Waynesville,NC,North Carolina,True,,21373.0,113.1,37087,Haywood,"{""37087"": 100}",Haywood,37087,False,False,America/New_York,"(35.46272, -82.99294)",45.4230946862431,2024995.0,263_0_yes,34.85492226192944,-82.6864704976818,50.0
28789,35.4077,-83.31727,Whittier,NC,North Carolina,True,,5672.0,37.4,37099,Jackson,"{""37099"": 72.45, ""37173"": 27.55}",Jackson|Swain,37099|37173,False,False,America/New_York,"(35.4077, -83.31727)",52.24211138234069,2024995.0,263_0_yes,34.85492226192944,-82.6864704976818,50.0
28790,35.20036,-82.49507,Zirconia,NC,North Carolina,True,,3581.0,29.0,37089,Henderson,"{""37089"": 100}",Henderson,37089,False,False,America/New_York,"(35.20036, -82.49507)",26.20930351500745,2024995.0,263_0_yes,34.85492226192944,-82.6864704976818,50.0
28791,35.35674,-82.508,Hendersonville,NC,North Carolina,True,,14978.0,345.6,37089,Henderson,"{""37089"": 100}",Henderson,37089,False,False,America/New_York,"(35.35674, -82.508)",36.11003464164605,2024995.0,263_0_yes,34.85492226192944,-82.6864704976818,50.0
28792,35.39289,-82.36786,Hendersonville,NC,North Carolina,True,,34670.0,130.1,37089,Henderson,"{""37089"": 96.88, ""37021"": 3.12}",Henderson|Buncombe,37089|37021,False,False,America/New_York,"(35.39289, -82.36786)",41.30131284637875,2024995.0,263_0_yes,34.85492226192944,-82.6864704976818,50.0
28803,35.52949,-82.52007,Asheville,NC,North Carolina,True,,34126.0,343.4,37021,Buncombe,"{""37021"": 100}",Buncombe,37021,False,False,America/New_York,"(35.52949, -82.52007)",47.54578108919267,2024995.0,263_0_yes,34.85492226192944,-82.6864704976818,50.0
28806,35.57154,-82.61386,Asheville,NC,North Carolina,True,,42901.0,434.3,37021,Buncombe,"{""37021"": 100}",Buncombe,37021,False,False,America/New_York,"(35.57154, -82.61386)",49.68293254125275,2024995.0,263_0_yes,34.85492226192944,-82.6864704976818,50.0
29037,34.18961,-81.86868,Chappells,SC,South Carolina,True,,842.0,4.7,45071,Newberry,"{""45071"": 57.22, ""45081"": 37.88, ""45059"": 4.9}",Newberry|Saluda|Laurens,45071|45081|45059,False,False,America/New_York,"(34.18961, -81.86868)",65.4241514635984,2024995.0,263_0_yes,34.85492226192944,-82.6864704976818,50.0
29301,34.93516,-82.01301,Spartanburg,SC,South Carolina,True,,35585.0,499.0,45083,Spartanburg,"{""45083"": 100}",Spartanburg,45083,False,False,America/New_York,"(34.93516, -82.01301)",38.56582827689394,2024995.0,263_0_yes,34.85492226192944,-82.6864704976818,50.0
29302,34.89399,-81.84151,Spartanburg,SC,South Carolina,True,,16727.0,127.3,45083,Spartanburg,"{""45083"": 100}",Spartanburg,45083,False,False,America/New_York,"(34.89399, -81.84151)",47.97220503354724,2024995.0,263_0_yes,34.85492226192944,-82.6864704976818,50.0
29303,34.99424,-81.96883,Spartanburg,SC,South Carolina,True,,27575.0,328.2,45083,Spartanburg,"{""45083"": 100}",Spartanburg,45083,False,False,America/New_York,"(34.99424, -81.96883)",41.77837009966127,2024995.0,263_0_yes,34.85492226192944,-82.6864704976818,50.0
29306,34.89338,-81.92177,Spartanburg,SC,South Carolina,True,,17388.0,344.0,45083,Spartanburg,"{""45083"": 100}",Spartanburg,45083,False,False,America/New_York,"(34.89338, -81.92177)",43.42825041206468,2024995.0,263_0_yes,34.85492226192944,-82.6864704976818,50.0
29307,34.98381,-81.83146,Spartanburg,SC,South Carolina,True,,18583.0,160.4,45083,Spartanburg,"{""45083"": 89.27, ""45021"": 10.73}",Spartanburg|Cherokee,45083|45021,False,False,America/New_York,"(34.98381, -81.83146)",49.251154205456345,2024995.0,263_0_yes,34.85492226192944,-82.6864704976818,50.0
29316,35.04179,-81.9766,Boiling Springs,SC,South Carolina,True,,27315.0,483.3,45083,Spartanburg,"{""45083"": 100}",Spartanburg,45083,False,False,America/New_York,"(35.04179, -81.9766)",42.22489059910618,2024995.0,263_0_yes,34.85492226192944,-82.6864704976818,50.0
29320,34.95847,-81.9922,Arcadia,SC,South Carolina,True,,459.0,286.9,45083,Spartanburg,"{""45083"": 100}",Spartanburg,45083,False,False,America/New_York,"(34.95847, -81.9922)",39.98428251025997,2024995.0,263_0_yes,34.85492226192944,-82.6864704976818,50.0
29322,35.12254,-82.13157,Campobello,SC,South Carolina,True,,9177.0,61.2,45083,Spartanburg,"{""45083"": 97.74, ""45045"": 2.26}",Spartanburg|Greenville,45083|45045,False,False,America/New_York,"(35.12254, -82.13157)",36.4488886619028,2024995.0,263_0_yes,34.85492226192944,-82.6864704976818,50.0
29323,35.12911,-81.90902,Chesnee,SC,South Carolina,True,,14649.0,79.7,45083,Spartanburg,"{""45083"": 87.16, ""45021"": 12.84}",Spartanburg|Cherokee,45083|45021,False,False,America/New_York,"(35.12911, -81.90902)",47.91080507670604,2024995.0,263_0_yes,34.85492226192944,-82.6864704976818,50.0
29324,34.98944,-81.82523,Clifton,SC,South Carolina,True,,264.0,214.4,45083,Spartanburg,"{""45083"": 100}",Spartanburg,45083,False,False,America/New_York,"(34.98944, -81.82523)",49.66799848441153,2024995.0,263_0_yes,34.85492226192944,-82.6864704976818,50.0
29325,34.47682,-81.83973,Clinton,SC,South Carolina,True,,14763.0,36.2,45059,Laurens,"{""45059"": 100}",Laurens,45059,False,False,America/New_York,"(34.47682, -81.83973)",54.75270696986526,2024995.0,263_0_yes,34.85492226192944,-82.6864704976818,50.0
29329,34.99262,-81.83682,Converse,SC,South Carolina,True,,214.0,269.3,45083,Spartanburg,"{""45083"": 100}",Spartanburg,45083,False,False,America/New_York,"(34.99262, -81.83682)",49.0643770704906,2024995.0,263_0_yes,34.85492226192944,-82.6864704976818,50.0
29331,34.64351,-81.85836,Cross Anchor,SC,South Carolina,True,,93.0,49.4,45083,Spartanburg,"{""45083"": 100}",Spartanburg,45083,False,False,America/New_York,"(34.64351, -81.85836)",49.229430032371326,2024995.0,263_0_yes,34.85492226192944,-82.6864704976818,50.0
29332,34.28329,-81.97292,Cross Hill,SC,South Carolina,True,,2925.0,24.2,45059,Laurens,"{""45059"": 96.7, ""45071"": 3.3}",Laurens|Newberry,45059|45071,False,False,America/New_York,"(34.28329, -81.97292)",56.63936682375218,2024995.0,263_0_yes,34.85492226192944,-82.6864704976818,50.0
29333,34.97092,-81.91069,Drayton,SC,South Carolina,True,,416.0,396.6,45083,Spartanburg,"{""45083"": 100}",Spartanburg,45083,False,False,America/New_York,"(34.97092, -81.91069)",44.67891361165669,2024995.0,263_0_yes,34.85492226192944,-82.6864704976818,50.0
29334,34.90372,-82.12526,Duncan,SC,South Carolina,True,,14298.0,240.3,45083,Spartanburg,"{""45083"": 100}",Spartanburg,45083,False,False,America/New_York,"(34.90372, -82.12526)",31.98831238804758,2024995.0,263_0_yes,34.85492226192944,-82.6864704976818,50.0
29335,34.65714,-81.90035,Enoree,SC,South Carolina,True,,6028.0,24.3,45083,Spartanburg,"{""45083"": 66.79, ""45059"": 18.98, ""45087"": 14.23}",Spartanburg|Laurens|Union,45083|45059|45087,False,False,America/New_York,"(34.65714, -81.90035)",46.67044366206068,2024995.0,263_0_yes,34.85492226192944,-82.6864704976818,50.0
29338,35.13444,-82.00172,Fingerville,SC,South Carolina,True,,31.0,76.6,45083,Spartanburg,"{""45083"": 100}",Spartanburg,45083,False,False,America/New_York,"(35.13444, -82.00172)",43.30309374391619,2024995.0,263_0_yes,34.85492226192944,-82.6864704976818,50.0
29346,34.94524,-81.83627,Glendale,SC,South Carolina,True,,312.0,596.1,45083,Spartanburg,"{""45083"": 100}",Spartanburg,45083,False,False,America/New_York,"(34.94524, -81.83627)",48.580655303815895,2024995.0,263_0_yes,34.85492226192944,-82.6864704976818,50.0
29349,35.07045,-82.0688,Inman,SC,South Carolina,True,,33134.0,166.4,45083,Spartanburg,"{""45083"": 100}",Spartanburg,45083,False,False,America/New_York,"(35.07045, -82.0688)",38.01304372715956,2024995.0,263_0_yes,34.85492226192944,-82.6864704976818,50.0
29351,34.42177,-81.80967,Joanna,SC,South Carolina,True,,1270.0,103.5,45059,Laurens,"{""45059"": 100}",Laurens,45059,False,False,America/New_York,"(34.42177, -81.80967)",58.13789081791568,2024995.0,263_0_yes,34.85492226192944,-82.6864704976818,50.0
29356,35.14411,-82.26187,Landrum,SC,South Carolina,True,,7722.0,36.3,45045,Greenville,"{""45045"": 75.99, ""45083"": 24.01}",Greenville|Spartanburg,45045|45083,False,False,America/New_York,"(35.14411, -82.26187)",31.25311592604678,2024995.0,263_0_yes,34.85492226192944,-82.6864704976818,50.0
29360,34.49361,-82.04884,Laurens,SC,South Carolina,True,,21044.0,54.0,45059,Laurens,"{""45059"": 100}",Laurens,45059,False,False,America/New_York,"(34.49361, -82.04884)",43.99928583707371,2024995.0,263_0_yes,34.85492226192944,-82.6864704976818,50.0
29365,34.98079,-82.16869,Lyman,SC,South Carolina,True,,11572.0,254.4,45083,Spartanburg,"{""45083"": 100}",Spartanburg,45083,False,False,America/New_York,"(34.98079, -82.16869)",30.59665763779158,2024995.0,263_0_yes,34.85492226192944,-82.6864704976818,50.0
29368,35.08262,-81.86281,Mayo,SC,South Carolina,True,,112.0,146.3,45083,Spartanburg,"{""45083"": 100}",Spartanburg,45083,False,False,America/New_York,"(35.08262, -81.86281)",49.21731301502515,2024995.0,263_0_yes,34.85492226192944,-82.6864704976818,50.0
29369,34.86535,-82.02207,Moore,SC,South Carolina,True,,14119.0,194.0,45083,Spartanburg,"{""45083"": 100}",Spartanburg,45083,False,False,America/New_York,"(34.86535, -82.02207)",37.67473314600666,2024995.0,263_0_yes,34.85492226192944,-82.6864704976818,50.0
29370,34.37315,-81.96816,Mountville,SC,South Carolina,True,,673.0,5.6,45059,Laurens,"{""45059"": 100}",Laurens,45059,False,False,America/New_York,"(34.37315, -81.96816)",52.69147258526344,2024995.0,263_0_yes,34.85492226192944,-82.6864704976818,50.0
29374,34.7861,-81.84854,Pauline,SC,South Carolina,True,,3209.0,25.4,45083,Spartanburg,"{""45083"": 90.26, ""45087"": 9.74}",Spartanburg|Union,45083|45087,False,False,America/New_York,"(34.7861, -81.84854)",47.766133417643864,2024995.0,263_0_yes,34.85492226192944,-82.6864704976818,50.0
29375,34.86049,-82.11386,Reidville,SC,South Carolina,True,,95.0,299.0,45083,Spartanburg,"{""45083"": 100}",Spartanburg,45083,False,False,America/New_York,"(34.86049, -82.11386)",32.467110138666655,2024995.0,263_0_yes,34.85492226192944,-82.6864704976818,50.0
29376,34.81564,-81.94921,Roebuck,SC,South Carolina,True,,7760.0,77.7,45083,Spartanburg,"{""45083"": 100}",Spartanburg,45083,False,False,America/New_York,"(34.81564, -81.94921)",41.89921130277011,2024995.0,263_0_yes,34.85492226192944,-82.6864704976818,50.0
29377,34.93036,-82.0971,Startex,SC,South Carolina,True,,550.0,149.2,45083,Spartanburg,"{""45083"": 100}",Spartanburg,45083,False,False,America/New_York,"(34.93036, -82.0971)",33.80509670182189,2024995.0,263_0_yes,34.85492226192944,-82.6864704976818,50.0
29378,34.96684,-81.96857,Una,SC,South Carolina,True,,17.0,62.9,45083,Spartanburg,"{""45083"": 100}",Spartanburg,45083,False,False,America/New_York,"(34.96684, -81.96857)",41.404349363522364,2024995.0,263_0_yes,34.85492226192944,-82.6864704976818,50.0
29384,34.33976,-82.0904,Waterloo,SC,South Carolina,True,,3872.0,34.9,45059,Laurens,"{""45059"": 100}",Laurens,45059,False,False,America/New_York,"(34.33976, -82.0904)",49.155377023459835,2024995.0,263_0_yes,34.85492226192944,-82.6864704976818,50.0
29385,34.97623,-82.1024,Wellford,SC,South Carolina,True,,8004.0,164.9,45083,Spartanburg,"{""45083"": 100}",Spartanburg,45083,False,False,America/New_York,"(34.97623, -82.1024)",34.13620919476818,2024995.0,263_0_yes,34.85492226192944,-82.6864704976818,50.0
29388,34.76292,-82.04299,Woodruff,SC,South Carolina,True,,16000.0,63.5,45083,Spartanburg,"{""45083"": 94.23, ""45059"": 5.77}",Spartanburg|Laurens,45083|45059,False,False,America/New_York,"(34.76292, -82.04299)",37.053826887869384,2024995.0,263_0_yes,34.85492226192944,-82.6864704976818,50.0
29601,34.84744,-82.40257,Greenville,SC,South Carolina,True,,12785.0,1161.9,45045,Greenville,"{""45045"": 100}",Greenville,45045,False,False,America/New_York,"(34.84744, -82.40257)",16.105667736831116,2024995.0,263_0_yes,34.85492226192944,-82.6864704976818,50.0
29605,34.77693,-82.38064,Greenville,SC,South Carolina,True,,38808.0,603.4,45045,Greenville,"{""45045"": 100}",Greenville,45045,False,False,America/New_York,"(34.77693, -82.38064)",18.165902638139876,2024995.0,263_0_yes,34.85492226192944,-82.6864704976818,50.0
29607,34.80952,-82.33193,Greenville,SC,South Carolina,True,,40933.0,544.8,45045,Greenville,"{""45045"": 100}",Greenville,45045,False,False,America/New_York,"(34.80952, -82.33193)",20.35056927095734,2024995.0,263_0_yes,34.85492226192944,-82.6864704976818,50.0
29609,34.91209,-82.38928,Greenville,SC,South Carolina,True,,31127.0,494.6,45045,Greenville,"{""45045"": 100}",Greenville,45045,False,False,America/New_York,"(34.91209, -82.38928)",17.301217903103908,2024995.0,263_0_yes,34.85492226192944,-82.6864704976818,50.0
29611,34.83137,-82.45965,Greenville,SC,South Carolina,True,,31180.0,502.7,45045,Greenville,"{""45045"": 86.02, ""45007"": 11.65, ""45077"": 2.33}",Greenville|Anderson|Pickens,45045|45007|45077,False,False,America/New_York,"(34.83137, -82.45965)",12.964681208126347,2024995.0,263_0_yes,34.85492226192944,-82.6864704976818,50.0
29613,34.9257,-82.4384,Greenville,SC,South Carolina,True,,2168.0,1326.7,45045,Greenville,"{""45045"": 100}",Greenville,45045,False,False,America/New_York,"(34.9257, -82.4384)",14.885319449978276,2024995.0,263_0_yes,34.85492226192944,-82.6864704976818,50.0
29614,34.87386,-82.36302,Greenville,SC,South Carolina,True,,1886.0,3832.2,45045,Greenville,"{""45045"": 100}",Greenville,45045,False,False,America/New_York,"(34.87386, -82.36302)",18.38356102159206,2024995.0,263_0_yes,34.85492226192944,-82.6864704976818,50.0
29615,34.85591,-82.29553,Greenville,SC,South Carolina,True,,37349.0,750.1,45045,Greenville,"{""45045"": 100}",Greenville,45045,False,False,America/New_York,"(34.85591, -82.29553)",22.165573157128573,2024995.0,263_0_yes,34.85492226192944,-82.6864704976818,50.0
29617,34.91262,-82.4666,Greenville,SC,South Carolina,True,,28936.0,498.8,45045,Greenville,"{""45045"": 100}",Greenville,45045,False,False,America/New_York,"(34.91262, -82.4666)",13.083994757555349,2024995.0,263_0_yes,34.85492226192944,-82.6864704976818,50.0
29620,34.1813,-82.42804,Abbeville,SC,South Carolina,True,,12413.0,19.4,45001,Abbeville,"{""45001"": 96.08, ""45065"": 3.92}",Abbeville|McCormick,45001|45065,False,False,America/New_York,"(34.1813, -82.42804)",48.8127353553369,2024995.0,263_0_yes,34.85492226192944,-82.6864704976818,50.0
29621,34.50598,-82.60328,Anderson,SC,South Carolina,True,,42546.0,188.5,45007,Anderson,"{""45007"": 100}",Anderson,45007,False,False,America/New_York,"(34.50598, -82.60328)",24.568583575325864,2024995.0,263_0_yes,34.85492226192944,-82.6864704976818,50.0
29624,34.43778,-82.62553,Anderson,SC,South Carolina,True,,14926.0,204.5,45007,Anderson,"{""45007"": 100}",Anderson,45007,False,False,America/New_York,"(34.43778, -82.62553)",29.029194456067675,2024995.0,263_0_yes,34.85492226192944,-82.6864704976818,50.0
29625,34.55577,-82.76294,Anderson,SC,South Carolina,True,,27875.0,229.3,45007,Anderson,"{""45007"": 100}",Anderson,45007,False,False,America/New_York,"(34.55577, -82.76294)",21.12090406554309,2024995.0,263_0_yes,34.85492226192944,-82.6864704976818,50.0
29626,34.46004,-82.76057,Anderson,SC,South Carolina,True,,13847.0,103.3,45007,Anderson,"{""45007"": 100}",Anderson,45007,False,False,America/New_York,"(34.46004, -82.76057)",27.606870278318198,2024995.0,263_0_yes,34.85492226192944,-82.6864704976818,50.0
29627,34.51807,-82.47861,Belton,SC,South Carolina,True,,17445.0,56.7,45007,Anderson,"{""45007"": 82.88, ""45045"": 15.7, ""45001"": 1.42}",Anderson|Greenville|Abbeville,45007|45045|45001,False,False,America/New_York,"(34.51807, -82.47861)",26.098898161271844,2024995.0,263_0_yes,34.85492226192944,-82.6864704976818,50.0
29630,34.73882,-82.79646,Central,SC,South Carolina,True,,16212.0,101.7,45077,Pickens,"{""45077"": 88.02, ""45007"": 11.98}",Pickens|Anderson,45077|45007,False,False,America/New_York,"(34.73882, -82.79646)",10.163463555104842,2024995.0,263_0_yes,34.85492226192944,-82.6864704976818,50.0
29631,34.68133,-82.81716,Clemson,SC,South Carolina,True,,15573.0,689.9,45077,Pickens,"{""45077"": 99.51, ""45007"": 0.49}",Pickens|Anderson,45077|45007,False,False,America/New_York,"(34.68133, -82.81716)",14.102470874677214,2024995.0,263_0_yes,34.85492226192944,-82.6864704976818,50.0
29634,34.67517,-82.83978,Clemson,SC,South Carolina,True,,5329.0,1478.6,45077,Pickens,"{""45077"": 98.91, ""45073"": 1.09}",Pickens|Oconee,45077|45073,False,False,America/New_York,"(34.67517, -82.83978)",15.164795633391726,2024995.0,263_0_yes,34.85492226192944,-82.6864704976818,50.0
29635,35.07754,-82.63152,Cleveland,SC,South Carolina,True,,1334.0,9.7,45045,Greenville,"{""45045"": 81.79, ""45077"": 18.21}",Greenville|Pickens,45045|45077,False,False,America/New_York,"(35.07754, -82.63152)",15.692950871850298,2024995.0,263_0_yes,34.85492226192944,-82.6864704976818,50.0
29638,34.36087,-82.3346,Donalds,SC,South Carolina,True,,3546.0,23.5,45001,Abbeville,"{""45001"": 83.93, ""45047"": 16.07}",Abbeville|Greenwood,45001|45047,False,False,America/New_York,"(34.36087, -82.3346)",39.568285368845366,2024995.0,263_0_yes,34.85492226192944,-82.6864704976818,50.0
29639,34.31402,-82.4205,Due West,SC,South Carolina,True,,1914.0,45.9,45001,Abbeville,"{""45001"": 100}",Abbeville,45001,False,False,America/New_York,"(34.31402, -82.4205)",40.31899248586242,2024995.0,263_0_yes,34.85492226192944,-82.6864704976818,50.0
29640,34.88706,-82.57725,Easley,SC,South Carolina,True,,29766.0,134.2,45077,Pickens,"{""45077"": 100}",Pickens,45077,False,False,America/New_York,"(34.88706, -82.57725)",6.577537428253532,2024995.0,263_0_yes,34.85492226192944,-82.6864704976818,50.0
29642,34.77487,-82.56538,Easley,SC,South Carolina,True,,33120.0,251.9,45007,Anderson,"{""45007"": 55.55, ""45077"": 44.45}",Anderson|Pickens,45007|45077,False,False,America/New_York,"(34.77487, -82.56538)",8.819032802204424,2024995.0,263_0_yes,34.85492226192944,-82.6864704976818,50.0
29643,34.50506,-82.97441,Fair Play,SC,South Carolina,True,,2327.0,32.1,45073,Oconee,"{""45073"": 65.16, ""45007"": 34.84}",Oconee|Anderson,45073|45007,False,False,America/New_York,"(34.50506, -82.97441)",29.1890269052215,2024995.0,263_0_yes,34.85492226192944,-82.6864704976818,50.0
29644,34.66864,-82.19714,Fountain Inn,SC,South Carolina,True,,21811.0,102.7,45045,Greenville,"{""45045"": 50.14, ""45059"": 49.86}",Greenville|Laurens,45045|45059,False,False,America/New_York,"(34.66864, -82.19714)",30.61267719193666,2024995.0,263_0_yes,34.85492226192944,-82.6864704976818,50.0
29645,34.59453,-82.12375,Gray Court,SC,South Carolina,True,,10445.0,37.8,45059,Laurens,"{""45059"": 99.88, ""45045"": 0.12}",Laurens|Greenville,45059|45045,False,False,America/New_York,"(34.59453, -82.12375)",36.67214248519512,2024995.0,263_0_yes,34.85492226192944,-82.6864704976818,50.0
29646,34.13995,-82.15032,Greenwood,SC,South Carolina,True,,28739.0,109.4,45047,Greenwood,"{""45047"": 96.05, ""45001"": 3.95}",Greenwood|Abbeville,45047|45001,False,False,America/New_York,"(34.13995, -82.15032)",58.07248199246309,2024995.0,263_0_yes,34.85492226192944,-82.6864704976818,50.0
29649,34.24354,-82.13825,Greenwood,SC,South Carolina,True,,26440.0,190.4,45047,Greenwood,"{""45047"": 97.44, ""45001"": 2.56}",Greenwood|Abbeville,45047|45001,False,False,America/New_York,"(34.24354, -82.13825)",52.51407785740913,2024995.0,263_0_yes,34.85492226192944,-82.6864704976818,50.0
29650,34.89805,-82.25826,Greer,SC,South Carolina,True,,35053.0,753.0,45045,Greenville,"{""45045"": 98.74, ""45083"": 1.26}",Greenville|Spartanburg,45045|45083,False,False,America/New_York,"(34.89805, -82.25826)",24.454599972688406,2024995.0,263_0_yes,34.85492226192944,-82.6864704976818,50.0
29651,34.94653,-82.22649,Greer,SC,South Carolina,True,,51262.0,220.9,45045,Greenville,"{""45045"": 56.27, ""45083"": 43.73}",Greenville|Spartanburg,45045|45083,False,False,America/New_York,"(34.94653, -82.22649)",26.822988728429156,2024995.0,263_0_yes,34.85492226192944,-82.6864704976818,50.0
29653,34.30028,-82.23173,Hodges,SC,South Carolina,True,,4310.0,23.5,45047,Greenwood,"{""45047"": 92.73, ""45001"": 7.27}",Greenwood|Abbeville,45047|45001,False,False,America/New_York,"(34.30028, -82.23173)",46.23641876715556,2024995.0,263_0_yes,34.85492226192944,-82.6864704976818,50.0
29654,34.46621,-82.36354,Honea Path,SC,South Carolina,True,,9829.0,31.9,45007,Anderson,"{""45007"": 36.74, ""45001"": 29.51, ""45045"": 23.41, ""45059"": 10.33}",Anderson|Abbeville|Greenville|Laurens,45007|45001|45045|45059,False,False,America/New_York,"(34.46621, -82.36354)",32.5290957699957,2024995.0,263_0_yes,34.85492226192944,-82.6864704976818,50.0
29655,34.267,-82.64032,Iva,SC,South Carolina,True,,6923.0,19.0,45001,Abbeville,"{""45001"": 54.97, ""45007"": 45.03}",Abbeville|Anderson,45001|45007,False,False,America/New_York,"(34.267, -82.64032)",40.70634609602314,2024995.0,263_0_yes,34.85492226192944,-82.6864704976818,50.0
29657,34.76713,-82.68941,Liberty,SC,South Carolina,True,,15847.0,96.6,45077,Pickens,"{""45077"": 76.19, ""45007"": 23.81}",Pickens|Anderson,45077|45007,False,False,America/New_York,"(34.76713, -82.68941)",6.068159163417506,2024995.0,263_0_yes,34.85492226192944,-82.6864704976818,50.0
29658,34.76191,-83.29858,Long Creek,SC,South Carolina,True,,397.0,7.2,45073,Oconee,"{""45073"": 100}",Oconee,45073,False,False,America/New_York,"(34.76191, -83.29858)",35.31470983661532,2024995.0,263_0_yes,34.85492226192944,-82.6864704976818,50.0
29659,34.21167,-82.64535,Lowndesville,SC,South Carolina,True,,167.0,149.0,45001,Abbeville,"{""45001"": 100}",Abbeville,45001,False,False,America/New_York,"(34.21167, -82.64535)",44.50608242483972,2024995.0,263_0_yes,34.85492226192944,-82.6864704976818,50.0
29661,35.06706,-82.53852,Marietta,SC,South Carolina,True,,5684.0,27.1,45045,Greenville,"{""45045"": 80.17, ""45077"": 19.83}",Greenville|Pickens,45045|45077,False,False,America/New_York,"(35.06706, -82.53852)",16.8826133214482,2024995.0,263_0_yes,34.85492226192944,-82.6864704976818,50.0
29662,34.77837,-82.30557,Mauldin,SC,South Carolina,True,,16600.0,1163.1,45045,Greenville,"{""45045"": 100}",Greenville,45045,False,False,America/New_York,"(34.77837, -82.30557)",22.24437904837791,2024995.0,263_0_yes,34.85492226192944,-82.6864704976818,50.0
29664,34.86393,-83.15991,Mountain Rest,SC,South Carolina,True,,2162.0,8.5,45073,Oconee,"{""45073"": 100}",Oconee,45073,False,False,America/New_York,"(34.86393, -83.15991)",26.84887859852901,2024995.0,263_0_yes,34.85492226192944,-82.6864704976818,50.0
29665,34.72399,-82.91413,Newry,SC,South Carolina,True,,98.0,128.2,45073,Oconee,"{""45073"": 100}",Oconee,45073,False,False,America/New_York,"(34.72399, -82.91413)",15.770807483525997,2024995.0,263_0_yes,34.85492226192944,-82.6864704976818,50.0
29667,34.76446,-82.75655,Norris,SC,South Carolina,True,,253.0,186.3,45077,Pickens,"{""45077"": 100}",Pickens,45077,False,False,America/New_York,"(34.76446, -82.75655)",7.4075592891836,2024995.0,263_0_yes,34.85492226192944,-82.6864704976818,50.0
29669,34.6405,-82.41495,Pelzer,SC,South Carolina,True,,12624.0,79.0,45045,Greenville,"{""45045"": 72.14, ""45007"": 27.86}",Greenville|Anderson,45045|45007,False,False,America/New_York,"(34.6405, -82.41495)",21.379966752863837,2024995.0,263_0_yes,34.85492226192944,-82.6864704976818,50.0
29670,34.64191,-82.72455,Pendleton,SC,South Carolina,True,,10232.0,70.5,45007,Anderson,"{""45007"": 95.25, ""45077"": 4.75}",Anderson|Pickens,45007|45077,False,False,America/New_York,"(34.64191, -82.72455)",14.875668951454196,2024995.0,263_0_yes,34.85492226192944,-82.6864704976818,50.0
29671,34.94071,-82.72057,Pickens,SC,South Carolina,True,,18125.0,52.9,45077,Pickens,"{""45077"": 100}",Pickens,45077,False,False,America/New_York,"(34.94071, -82.72057)",6.234400502014879,2024995.0,263_0_yes,34.85492226192944,-82.6864704976818,50.0
29672,34.75036,-82.94257,Seneca,SC,South Carolina,True,,12038.0,118.7,45073,Oconee,"{""45073"": 100}",Oconee,45073,False,False,America/New_York,"(34.75036, -82.94257)",16.226622321030327,2024995.0,263_0_yes,34.85492226192944,-82.6864704976818,50.0
29673,34.71901,-82.455,Piedmont,SC,South Carolina,True,,30704.0,168.0,45045,Greenville,"{""45045"": 53.9, ""45007"": 46.1}",Greenville|Anderson,45045|45007,False,False,America/New_York,"(34.71901, -82.455)",16.146409671704035,2024995.0,263_0_yes,34.85492226192944,-82.6864704976818,50.0
29676,34.93326,-82.96006,Salem,SC,South Carolina,True,,5748.0,30.8,45073,Oconee,"{""45073"": 100}",Oconee,45073,False,False,America/New_York,"(34.93326, -82.96006)",16.42224233792059,2024995.0,263_0_yes,34.85492226192944,-82.6864704976818,50.0
29678,34.63365,-82.93991,Seneca,SC,South Carolina,True,,23299.0,112.8,45073,Oconee,"{""45073"": 99.48, ""45077"": 0.52}",Oconee|Pickens,45073|45077,False,False,America/New_York,"(34.63365, -82.93991)",20.994650906406672,2024995.0,263_0_yes,34.85492226192944,-82.6864704976818,50.0
29680,34.69011,-82.29073,Simpsonville,SC,South Carolina,True,,31913.0,424.0,45045,Greenville,"{""45045"": 100}",Greenville,45045,False,False,America/New_York,"(34.69011, -82.29073)",25.18201250120302,2024995.0,263_0_yes,34.85492226192944,-82.6864704976818,50.0
29681,34.76988,-82.22218,Simpsonville,SC,South Carolina,True,,64806.0,572.7,45045,Greenville,"{""45045"": 97.43, ""45059"": 2.57}",Greenville|Laurens,45045|45059,False,False,America/New_York,"(34.76988, -82.22218)",26.98547331435258,2024995.0,263_0_yes,34.85492226192944,-82.6864704976818,50.0
29682,34.83295,-82.84701,Six Mile,SC,South Carolina,True,,3644.0,54.5,45077,Pickens,"{""45077"": 100}",Pickens,45077,False,False,America/New_York,"(34.83295, -82.84701)",9.229229460986925,2024995.0,263_0_yes,34.85492226192944,-82.6864704976818,50.0
29683,35.03032,-82.49306,Slater,SC,South Carolina,True,,508.0,1333.9,45045,Greenville,"{""45045"": 100}",Greenville,45045,False,False,America/New_York,"(35.03032, -82.49306)",16.335939023086492,2024995.0,263_0_yes,34.85492226192944,-82.6864704976818,50.0
29684,34.3791,-82.72722,Starr,SC,South Carolina,True,,4809.0,31.5,45007,Anderson,"{""45007"": 100}",Anderson,45007,False,False,America/New_York,"(34.3791, -82.72722)",32.95773762466858,2024995.0,263_0_yes,34.85492226192944,-82.6864704976818,50.0
29685,34.98297,-82.84727,Sunset,SC,South Carolina,True,,1945.0,8.5,45077,Pickens,"{""45077"": 100}",Pickens,45077,False,False,America/New_York,"(34.98297, -82.84727)",12.699008492960882,2024995.0,263_0_yes,34.85492226192944,-82.6864704976818,50.0
29686,34.92858,-83.04541,Tamassee,SC,South Carolina,True,,1019.0,12.3,45073,Oconee,"{""45073"": 100}",Oconee,45073,False,False,America/New_York,"(34.92858, -83.04541)",20.969052456831967,2024995.0,263_0_yes,34.85492226192944,-82.6864704976818,50.0
29687,34.9855,-82.32833,Taylors,SC,South Carolina,True,,41098.0,329.0,45045,Greenville,"{""45045"": 100}",Greenville,45045,False,False,America/New_York,"(34.9855, -82.32833)",22.205228786771677,2024995.0,263_0_yes,34.85492226192944,-82.6864704976818,50.0
29689,34.53624,-82.87658,Townville,SC,South Carolina,True,,4012.0,44.8,45007,Anderson,"{""45007"": 88.92, ""45073"": 11.08}",Anderson|Oconee,45007|45073,False,False,America/New_York,"(34.53624, -82.87658)",24.524729055298288,2024995.0,263_0_yes,34.85492226192944,-82.6864704976818,50.0
29690,35.06008,-82.42136,Travelers Rest,SC,South Carolina,True,,24595.0,90.3,45045,Greenville,"{""45045"": 100}",Greenville,45045,False,False,America/New_York,"(35.06008, -82.42136)",20.647202485720303,2024995.0,263_0_yes,34.85492226192944,-82.6864704976818,50.0
29691,34.78547,-83.07669,Walhalla,SC,South Carolina,True,,12141.0,75.4,45073,Oconee,"{""45073"": 100}",Oconee,45073,False,False,America/New_York,"(34.78547, -83.07669)",22.648262565008753,2024995.0,263_0_yes,34.85492226192944,-82.6864704976818,50.0
29692,34.42142,-82.22208,Ware Shoals,SC,South Carolina,True,,5483.0,43.6,45059,Laurens,"{""45059"": 80.02, ""45047"": 12.64, ""45001"": 7.34}",Laurens|Greenwood|Abbeville,45059|45047|45001,False,False,America/New_York,"(34.42142, -82.22208)",39.92548169446317,2024995.0,263_0_yes,34.85492226192944,-82.6864704976818,50.0
29693,34.65641,-83.15284,Westminster,SC,South Carolina,True,,13747.0,30.6,45073,Oconee,"{""45073"": 100}",Oconee,45073,False,False,America/New_York,"(34.65641, -83.15284)",29.816171762518387,2024995.0,263_0_yes,34.85492226192944,-82.6864704976818,50.0
29696,34.77458,-83.00771,West Union,SC,South Carolina,True,,5435.0,95.8,45073,Oconee,"{""45073"": 100}",Oconee,45073,False,False,America/New_York,"(34.77458, -83.00771)",19.049333906566506,2024995.0,263_0_yes,34.85492226192944,-82.6864704976818,50.0
29697,34.62887,-82.54786,Williamston,SC,South Carolina,True,,14421.0,141.9,45007,Anderson,"{""45007"": 100}",Anderson,45007,False,False,America/New_York,"(34.62887, -82.54786)",17.489345523793784,2024995.0,263_0_yes,34.85492226192944,-82.6864704976818,50.0
30511,34.45674,-83.47474,Baldwin,GA,Georgia,True,,3831.0,46.0,13011,Banks,"{""13011"": 92.86, ""13257"": 4.05, ""13137"": 3.09}",Banks|Stephens|Habersham,13011|13257|13137,False,False,America/New_York,"(34.45674, -83.47474)",52.57401828204722,2024995.0,263_0_yes,34.85492226192944,-82.6864704976818,50.0
30516,34.37535,-83.03748,Bowersville,GA,Georgia,True,,2634.0,49.2,13147,Hart,"{""13147"": 99.85, ""13119"": 0.15}",Hart|Franklin,13147|13119,False,False,America/New_York,"(34.37535, -83.03748)",38.68229742254334,2024995.0,263_0_yes,34.85492226192944,-82.6864704976818,50.0
30520,34.33833,-83.08661,Canon,GA,Georgia,True,,5418.0,37.3,13147,Hart,"{""13147"": 52.71, ""13119"": 47.29}",Hart|Franklin,13147|13119,False,False,America/New_York,"(34.33833, -83.08661)",42.331132883409495,2024995.0,263_0_yes,34.85492226192944,-82.6864704976818,50.0
30521,34.36202,-83.29355,Carnesville,GA,Georgia,True,,4683.0,19.6,13119,Franklin,"{""13119"": 94.16, ""13011"": 5.84}",Franklin|Banks,13119|13011,False,False,America/New_York,"(34.36202, -83.29355)",48.49386019934331,2024995.0,263_0_yes,34.85492226192944,-82.6864704976818,50.0
30523,34.72012,-83.54166,Clarkesville,GA,Georgia,True,,12099.0,25.4,13137,Habersham,"{""13137"": 83.85, ""13241"": 16.15}",Habersham|Rabun,13137|13241,False,False,America/New_York,"(34.72012, -83.54166)",49.41294788480583,2024995.0,263_0_yes,34.85492226192944,-82.6864704976818,50.0
30525,34.91289,-83.35853,Clayton,GA,Georgia,True,,7515.0,14.7,13241,Rabun,"{""13241"": 98.06, ""13281"": 1.94}",Rabun|Towns,13241|13281,False,False,America/New_York,"(34.91289, -83.35853)",38.301036364749855,2024995.0,263_0_yes,34.85492226192944,-82.6864704976818,50.0
30529,34.2155,-83.482,Commerce,GA,Georgia,True,,12098.0,92.5,13157,Jackson,"{""13157"": 73.56, ""13011"": 26.44}",Jackson|Banks,13157|13011,False,False,America/New_York,"(34.2155, -83.482)",63.26172811784486,2024995.0,263_0_yes,34.85492226192944,-82.6864704976818,50.0
30530,34.22691,-83.38433,Commerce,GA,Georgia,True,,7475.0,36.5,13011,Banks,"{""13011"": 41.82, ""13157"": 25.84, ""13195"": 17.32, ""13119"": 15.02}",Banks|Jackson|Madison|Franklin,13011|13157|13195|13119,False,False,America/New_York,"(34.22691, -83.38433)",58.82416066327022,2024995.0,263_0_yes,34.85492226192944,-82.6864704976818,50.0
30537,34.97855,-83.32975,Dillard,GA,Georgia,True,,1539.0,31.7,13241,Rabun,"{""13241"": 100}",Rabun,13241,False,False,America/New_York,"(34.97855, -83.32975)",37.43289063595828,2024995.0,263_0_yes,34.85492226192944,-82.6864704976818,50.0
30538,34.5035,-83.26888,Eastanollee,GA,Georgia,True,,2799.0,39.7,13257,Stephens,"{""13257"": 88.08, ""13119"": 11.92}",Stephens|Franklin,13257|13119,False,False,America/New_York,"(34.5035, -83.26888)",41.04424212748861,2024995.0,263_0_yes,34.85492226192944,-82.6864704976818,50.0
30547,34.35737,-83.46095,Homer,GA,Georgia,True,,3266.0,23.2,13011,Banks,"{""13011"": 100}",Banks,13011,False,False,America/New_York,"(34.35737, -83.46095)",55.87171804386888,2024995.0,263_0_yes,34.85492226192944,-82.6864704976818,50.0
30552,34.76965,-83.44575,Lakemont,GA,Georgia,True,,1640.0,11.4,13241,Rabun,"{""13241"": 100}",Rabun,13241,False,False,America/New_York,"(34.76965, -83.44575)",43.47304773409769,2024995.0,263_0_yes,34.85492226192944,-82.6864704976818,50.0
30553,34.44473,-83.08771,Lavonia,GA,Georgia,True,,8041.0,52.4,13119,Franklin,"{""13119"": 58.85, ""13147"": 41.15}",Franklin|Hart,13119|13147,False,False,America/New_York,"(34.44473, -83.08771)",36.377993745974386,2024995.0,263_0_yes,34.85492226192944,-82.6864704976818,50.0
30557,34.48143,-83.18484,Martin,GA,Georgia,True,,5112.0,33.9,13119,Franklin,"{""13119"": 59.41, ""13257"": 40.59}",Franklin|Stephens,13119|13257,False,False,America/New_York,"(34.48143, -83.18484)",38.31438477850978,2024995.0,263_0_yes,34.85492226192944,-82.6864704976818,50.0
30562,34.91937,-83.38177,Mountain City,GA,Georgia,True,,1113.0,364.2,13241,Rabun,"{""13241"": 100}",Rabun,13241,False,False,America/New_York,"(34.91937, -83.38177)",39.65747493410507,2024995.0,263_0_yes,34.85492226192944,-82.6864704976818,50.0
30563,34.5596,-83.46283,Mount Airy,GA,Georgia,True,,6274.0,62.3,13137,Habersham,"{""13137"": 98.78, ""13257"": 1.22}",Habersham|Stephens,13137|13257,False,False,America/New_York,"(34.5596, -83.46283)",48.588938148278324,2024995.0,263_0_yes,34.85492226192944,-82.6864704976818,50.0
30568,34.95348,-83.41218,Rabun Gap,GA,Georgia,True,,1531.0,19.3,13241,Rabun,"{""13241"": 100}",Rabun,13241,False,False,America/New_York,"(34.95348, -83.41218)",41.68166937728711,2024995.0,263_0_yes,34.85492226192944,-82.6864704976818,50.0
30573,34.74242,-83.39986,Tallulah Falls,GA,Georgia,True,,218.0,42.3,13241,Rabun,"{""13241"": 100}",Rabun,13241,False,False,America/New_York,"(34.74242, -83.39986)",41.215069458012294,2024995.0,263_0_yes,34.85492226192944,-82.6864704976818,50.0
30576,34.82682,-83.44539,Tiger,GA,Georgia,True,,3104.0,30.0,13241,Rabun,"{""13241"": 100}",Rabun,13241,False,False,America/New_York,"(34.82682, -83.44539)",43.08037876050184,2024995.0,263_0_yes,34.85492226192944,-82.6864704976818,50.0
30577,34.55549,-83.32632,Toccoa,GA,Georgia,True,,22261.0,54.6,13257,Stephens,"{""13257"": 83.2, ""13119"": 11.09, ""13137"": 4.32, ""13011"": 1.39}",Stephens|Franklin|Habersham|Banks,13257|13119|13137|13011,False,False,America/New_York,"(34.55549, -83.32632)",41.82003632521547,2024995.0,263_0_yes,34.85492226192944,-82.6864704976818,50.0
30581,34.80195,-83.42405,Wiley,GA,Georgia,True,,160.0,218.3,13241,Rabun,"{""13241"": 100}",Rabun,13241,False,False,America/New_York,"(34.80195, -83.42405)",41.99258417233283,2024995.0,263_0_yes,34.85492226192944,-82.6864704976818,50.0
30624,34.18097,-83.03885,Bowman,GA,Georgia,True,,3016.0,25.5,13105,Elbert,"{""13105"": 82.53, ""13147"": 10.75, ""13195"": 6.72}",Elbert|Hart|Madison,13105|13147|13195,False,False,America/New_York,"(34.18097, -83.03885)",50.70289890087158,2024995.0,263_0_yes,34.85492226192944,-82.6864704976818,50.0
30633,34.17896,-83.24612,Danielsville,GA,Georgia,True,,8776.0,34.1,13195,Madison,"{""13195"": 97.78, ""13119"": 1.92, ""13011"": 0.3}",Madison|Franklin|Banks,13195|13119|13011,False,False,America/New_York,"(34.17896, -83.24612)",56.53672447136897,2024995.0,263_0_yes,34.85492226192944,-82.6864704976818,50.0
30634,34.20307,-82.94522,Dewy Rose,GA,Georgia,True,,2148.0,17.0,13105,Elbert,"{""13105"": 72.82, ""13147"": 27.18}",Elbert|Hart,13105|13147,False,False,America/New_York,"(34.20307, -82.94522)",47.3857343997891,2024995.0,263_0_yes,34.85492226192944,-82.6864704976818,50.0
30643,34.36464,-82.91143,Hartwell,GA,Georgia,True,,15487.0,52.2,13147,Hart,"{""13147"": 100}",Hart,13147,False,False,America/New_York,"(34.36464, -82.91143)",36.210284521991035,2024995.0,263_0_yes,34.85492226192944,-82.6864704976818,50.0
30662,34.26383,-83.14624,Royston,GA,Georgia,True,,8779.0,40.7,13119,Franklin,"{""13119"": 51.4, ""13147"": 25.17, ""13195"": 21.75, ""13105"": 1.68}",Franklin|Hart|Madison|Elbert,13119|13147|13195|13105,False,False,America/New_York,"(34.26383, -83.14624)",48.50109376179201,2024995.0,263_0_yes,34.85492226192944,-82.6864704976818,50.0
