zip,lat,lng,city,state_id,state_name,zcta,parent_zcta,population,density,county_fips,county_name,county_weights,county_names_all,county_fips_all,imprecise,military,timezone,Coord,distance_miles,market_total_population,market_id,market_center_lat,market_center_lng,radius_miles
86515,35.70301,-108.99057,Window Rock,AZ,Arizona,True,,3660.0,12.2,35031,McKinley,"{""35031"": 88.14, ""04001"": 11.86}",McKinley|Apache,35031|04001,False,False,America/Denver,"(35.70301, -108.99057)",45.992698760875946,124614.0,304_0_no,35.76662083768526,-108.17426866201072,50.0
87005,35.25669,-107.98867,Bluewater,NM,New Mexico,True,,112.0,1.9,35006,Cibola,"{""35006"": 100}",Cibola,35006,False,False,America/Denver,"(35.25669, -107.98867)",36.74661099046623,124614.0,304_0_no,35.76662083768526,-108.17426866201072,50.0
87013,35.90014,-107.33509,Cuba,NM,New Mexico,True,,6395.0,2.2,35043,Sandoval,"{""35043"": 55.17, ""35031"": 44.35, ""35039"": 0.48}",Sandoval|McKinley|Rio Arriba,35043|35031|35039,False,False,America/Denver,"(35.90014, -107.33509)",47.90363595779847,124614.0,304_0_no,35.76662083768526,-108.17426866201072,50.0
87014,35.1372,-107.45315,Cubero,NM,New Mexico,True,,469.0,8.6,35006,Cibola,"{""35006"": 100}",Cibola,35006,False,False,America/Denver,"(35.1372, -107.45315)",59.48572719816445,124614.0,304_0_no,35.76662083768526,-108.17426866201072,50.0
87018,36.11644,-107.51745,Counselor,NM,New Mexico,True,,499.0,1.1,35043,Sandoval,"{""35043"": 97.64, ""35039"": 2.36}",Sandoval|Rio Arriba,35043|35039,False,False,America/Denver,"(36.11644, -107.51745)",43.978961649027625,124614.0,304_0_no,35.76662083768526,-108.17426866201072,50.0
87020,35.0589,-107.92797,Grants,NM,New Mexico,True,,11058.0,4.7,35006,Cibola,"{""35006"": 86.5, ""35031"": 13.5}",Cibola|McKinley,35006|35031,False,False,America/Denver,"(35.0589, -107.92797)",50.82764999063727,124614.0,304_0_no,35.76662083768526,-108.17426866201072,50.0
87021,35.19673,-107.88621,Milan,NM,New Mexico,True,,3391.0,130.5,35006,Cibola,"{""35006"": 100}",Cibola,35006,False,False,America/Denver,"(35.19673, -107.88621)",42.5806004120948,124614.0,304_0_no,35.76662083768526,-108.17426866201072,50.0
87037,36.18392,-107.78087,Nageezi,NM,New Mexico,True,,808.0,0.8,35045,San Juan,"{""35045"": 96.72, ""35039"": 3.28}",San Juan|Rio Arriba,35045|35039,False,False,America/Denver,"(36.18392, -107.78087)",36.26543638420117,124614.0,304_0_no,35.76662083768526,-108.17426866201072,50.0
87038,35.0944,-107.43259,New Laguna,NM,New Mexico,True,,642.0,10.4,35006,Cibola,"{""35006"": 100}",Cibola,35006,False,False,America/Denver,"(35.0944, -107.43259)",62.45556655983253,124614.0,304_0_no,35.76662083768526,-108.17426866201072,50.0
87040,35.14192,-107.39887,Paguate,NM,New Mexico,True,,560.0,20.4,35006,Cibola,"{""35006"": 100}",Cibola,35006,False,False,America/Denver,"(35.14192, -107.39887)",61.37996889189277,124614.0,304_0_no,35.76662083768526,-108.17426866201072,50.0
87045,35.40018,-108.00182,Prewitt,NM,New Mexico,True,,1692.0,4.1,35031,McKinley,"{""35031"": 98.32, ""35006"": 1.68}",McKinley|Cibola,35031|35006,False,False,America/Denver,"(35.40018, -108.00182)",27.109636908070954,124614.0,304_0_no,35.76662083768526,-108.17426866201072,50.0
87049,35.11699,-107.61026,San Fidel,NM,New Mexico,True,,1761.0,22.0,35006,Cibola,"{""35006"": 100}",Cibola,35006,False,False,America/Denver,"(35.11699, -107.61026)",54.97834066235713,124614.0,304_0_no,35.76662083768526,-108.17426866201072,50.0
87051,35.06188,-107.85426,San Rafael,NM,New Mexico,True,,1429.0,10.6,35006,Cibola,"{""35006"": 100}",Cibola,35006,False,False,America/Denver,"(35.06188, -107.85426)",51.92015447060067,124614.0,304_0_no,35.76662083768526,-108.17426866201072,50.0
87301,35.52153,-108.76524,Gallup,NM,New Mexico,True,,24684.0,241.4,35031,McKinley,"{""35031"": 100}",McKinley,35031,False,False,America/Denver,"(35.52153, -108.76524)",37.25361067615269,124614.0,304_0_no,35.76662083768526,-108.17426866201072,50.0
87305,35.40327,-108.73151,Gallup,NM,New Mexico,True,,2907.0,9.4,35031,McKinley,"{""35031"": 100}",McKinley,35031,False,False,America/Denver,"(35.40327, -108.73151)",40.133247494864705,124614.0,304_0_no,35.76662083768526,-108.17426866201072,50.0
87310,35.75365,-108.60267,Brimhall,NM,New Mexico,True,,1058.0,4.4,35031,McKinley,"{""35031"": 100}",McKinley,35031,False,False,America/Denver,"(35.75365, -108.60267)",24.035991800713777,124614.0,304_0_no,35.76662083768526,-108.17426866201072,50.0
87311,35.60501,-108.50061,Church Rock,NM,New Mexico,True,,4101.0,7.5,35031,McKinley,"{""35031"": 100}",McKinley,35031,False,False,America/Denver,"(35.60501, -108.50061)",21.44975912988709,124614.0,304_0_no,35.76662083768526,-108.17426866201072,50.0
87312,35.4291,-108.34543,Continental Divide,NM,New Mexico,True,,398.0,1.9,35031,McKinley,"{""35031"": 100}",McKinley,35031,False,False,America/Denver,"(35.4291, -108.34543)",25.225238641094247,124614.0,304_0_no,35.76662083768526,-108.17426866201072,50.0
87313,35.79538,-108.22129,Crownpoint,NM,New Mexico,True,,5914.0,3.3,35031,McKinley,"{""35031"": 88.9, ""35045"": 11.1}",McKinley|San Juan,35031|35045,False,False,America/Denver,"(35.79538, -108.22129)",3.300785087563065,124614.0,304_0_no,35.76662083768526,-108.17426866201072,50.0
87316,35.48684,-108.53328,Fort Wingate,NM,New Mexico,True,,1228.0,6.3,35031,McKinley,"{""35031"": 100}",McKinley,35031,False,False,America/Denver,"(35.48684, -108.53328)",27.93226594755738,124614.0,304_0_no,35.76662083768526,-108.17426866201072,50.0
87317,35.58024,-108.75244,Gamerco,NM,New Mexico,True,,2129.0,63.2,35031,McKinley,"{""35031"": 100}",McKinley,35031,False,False,America/Denver,"(35.58024, -108.75244)",34.91343323048222,124614.0,304_0_no,35.76662083768526,-108.17426866201072,50.0
87319,35.4769,-108.94232,Mentmore,NM,New Mexico,True,,1849.0,4.0,35031,McKinley,"{""35031"": 100}",McKinley,35031,False,False,America/Denver,"(35.4769, -108.94232)",47.55545565889978,124614.0,304_0_no,35.76662083768526,-108.17426866201072,50.0
87320,35.80762,-108.87136,Mexican Springs,NM,New Mexico,True,,377.0,1.6,35031,McKinley,"{""35031"": 100}",McKinley,35031,False,False,America/Denver,"(35.80762, -108.87136)",39.173228132308765,124614.0,304_0_no,35.76662083768526,-108.17426866201072,50.0
87321,35.06791,-108.40638,Ramah,NM,New Mexico,True,,2419.0,2.0,35006,Cibola,"{""35006"": 70.2, ""35031"": 29.8}",Cibola|McKinley,35006|35031,False,False,America/Denver,"(35.06791, -108.40638)",50.01414657070469,124614.0,304_0_no,35.76662083768526,-108.17426866201072,50.0
87323,35.45214,-108.17531,Thoreau,NM,New Mexico,True,,4418.0,5.8,35031,McKinley,"{""35031"": 85.47, ""35006"": 14.53}",McKinley|Cibola,35031|35006,False,False,America/Denver,"(35.45214, -108.17531)",21.728635018183322,124614.0,304_0_no,35.76662083768526,-108.17426866201072,50.0
87325,35.97495,-108.58746,Tohatchi,NM,New Mexico,True,,3443.0,2.6,35031,McKinley,"{""35031"": 61.44, ""35045"": 38.56}",McKinley|San Juan,35031|35045,False,False,America/Denver,"(35.97495, -108.58746)",27.246715749420492,124614.0,304_0_no,35.76662083768526,-108.17426866201072,50.0
87326,35.27223,-108.88765,Vanderwagen,NM,New Mexico,True,,1624.0,2.7,35031,McKinley,"{""35031"": 100}",McKinley,35031,False,False,America/Denver,"(35.27223, -108.88765)",52.69032469050823,124614.0,304_0_no,35.76662083768526,-108.17426866201072,50.0
87327,35.06529,-108.77813,Zuni,NM,New Mexico,True,,8187.0,8.4,35031,McKinley,"{""35031"": 86.01, ""35006"": 13.99}",McKinley|Cibola,35031|35006,False,False,America/Denver,"(35.06529, -108.77813)",59.19678414254689,124614.0,304_0_no,35.76662083768526,-108.17426866201072,50.0
87328,36.02541,-109.03638,Navajo,NM,New Mexico,True,,2709.0,3.0,4001,Apache,"{""04001"": 38.7, ""35031"": 31.58, ""35045"": 29.72}",Apache|McKinley|San Juan,04001|35031|35045,False,False,America/Denver,"(36.02541, -109.03638)",51.45965811266157,124614.0,304_0_no,35.76662083768526,-108.17426866201072,50.0
87347,35.38502,-108.47052,Jamestown,NM,New Mexico,True,,129.0,0.5,35031,McKinley,"{""35031"": 100}",McKinley,35031,False,False,America/Denver,"(35.38502, -108.47052)",31.182335131909454,124614.0,304_0_no,35.76662083768526,-108.17426866201072,50.0
87364,36.13538,-108.70875,Sheep Springs,NM,New Mexico,True,,1090.0,2.2,35045,San Juan,"{""35045"": 100}",San Juan,35045,False,False,America/Denver,"(36.13538, -108.70875)",39.279296322866415,124614.0,304_0_no,35.76662083768526,-108.17426866201072,50.0
87375,35.66114,-108.79477,Yatahey,NM,New Mexico,True,,3607.0,8.3,35031,McKinley,"{""35031"": 100}",McKinley,35031,False,False,America/Denver,"(35.66114, -108.79477)",35.564718127197935,124614.0,304_0_no,35.76662083768526,-108.17426866201072,50.0
87413,36.45914,-107.96408,Bloomfield,NM,New Mexico,True,,16177.0,10.4,35045,San Juan,"{""35045"": 100}",San Juan,35045,False,False,America/Denver,"(36.45914, -107.96408)",49.26582417651893,124614.0,304_0_no,35.76662083768526,-108.17426866201072,50.0
87455,36.27109,-108.71936,Newcomb,NM,New Mexico,True,,1638.0,1.5,35045,San Juan,"{""35045"": 100}",San Juan,35045,False,False,America/Denver,"(36.27109, -108.71936)",46.29067930472763,124614.0,304_0_no,35.76662083768526,-108.17426866201072,50.0
87461,36.43717,-108.91099,Sanostee,NM,New Mexico,True,,1395.0,2.2,35045,San Juan,"{""35045"": 100}",San Juan,35045,False,False,America/Denver,"(36.43717, -108.91099)",61.95123366315975,124614.0,304_0_no,35.76662083768526,-108.17426866201072,50.0
87499,36.32165,-108.24657,Farmington,NM,New Mexico,True,,657.0,0.6,35045,San Juan,"{""35045"": 100}",San Juan,35045,False,False,America/Denver,"(36.32165, -108.24657)",38.56099339583859,124614.0,304_0_no,35.76662083768526,-108.17426866201072,50.0
