zip,lat,lng,city,state_id,state_name,zcta,parent_zcta,population,density,county_fips,county_name,county_weights,county_names_all,county_fips_all,imprecise,military,timezone,Coord,distance_miles,market_total_population,market_id,market_center_lat,market_center_lng,radius_miles
84710,37.46925,-112.51251,Alton,UT,Utah,True,,363.0,1.8,49025,Kane,"{""49025"": 100}",Kane,49025,False,False,America/Denver,"(37.46925, -112.51251)",46.455341628132615,257535.0,340_0_no,37.25212823048874,-113.31310300388488,50.0
84714,37.84815,-113.75547,Beryl,UT,Utah,True,,631.0,0.6,49021,Iron,"{""49021"": 100}",Iron,49021,False,False,America/Denver,"(37.84815, -113.75547)",47.78155579999151,257535.0,340_0_no,37.25212823048874,-113.31310300388488,50.0
84719,37.65532,-112.76974,Brian Head,UT,Utah,True,,43.0,0.2,49021,Iron,"{""49021"": 100}",Iron,49021,False,False,America/Denver,"(37.65532, -112.76974)",40.79556720018575,257535.0,340_0_no,37.25212823048874,-113.31310300388488,50.0
84720,37.55477,-113.25665,Cedar City,UT,Utah,True,,22132.0,25.0,49021,Iron,"{""49021"": 69.02, ""49053"": 30.98}",Iron|Washington,49021|49053,False,False,America/Denver,"(37.55477, -113.25665)",21.138872022325764,257535.0,340_0_no,37.25212823048874,-113.31310300388488,50.0
84721,37.77021,-113.13308,Cedar City,UT,Utah,True,,25286.0,52.2,49021,Iron,"{""49021"": 100}",Iron,49021,False,False,America/Denver,"(37.77021, -113.13308)",37.13090285778675,257535.0,340_0_no,37.25212823048874,-113.31310300388488,50.0
84722,37.48553,-113.57582,Central,UT,Utah,True,,940.0,3.6,49053,Washington,"{""49053"": 100}",Washington,49053,False,False,America/Denver,"(37.48553, -113.57582)",21.63746324933533,257535.0,340_0_no,37.25212823048874,-113.31310300388488,50.0
84725,37.53928,-113.78042,Enterprise,UT,Utah,True,,1602.0,4.1,49053,Washington,"{""49053"": 100}",Washington,49053,False,False,America/Denver,"(37.53928, -113.78042)",32.42922755170629,257535.0,340_0_no,37.25212823048874,-113.31310300388488,50.0
84729,37.35858,-112.61527,Glendale,UT,Utah,True,,427.0,2.1,49025,Kane,"{""49025"": 100}",Kane,49025,False,False,America/Denver,"(37.35858, -112.61527)",39.05037338868519,257535.0,340_0_no,37.25212823048874,-113.31310300388488,50.0
84733,37.29597,-113.79775,Gunlock,UT,Utah,True,,160.0,1.0,49053,Washington,"{""49053"": 100}",Washington,49053,False,False,America/Denver,"(37.29597, -113.79775)",26.817944063212504,257535.0,340_0_no,37.25212823048874,-113.31310300388488,50.0
84735,37.64627,-112.44997,Hatch,UT,Utah,True,,171.0,0.5,49017,Garfield,"{""49017"": 100}",Garfield,49017,False,False,America/Denver,"(37.64627, -112.44997)",54.61818080576976,257535.0,340_0_no,37.25212823048874,-113.31310300388488,50.0
84737,37.08321,-113.26032,Hurricane,UT,Utah,True,,19316.0,29.8,49053,Washington,"{""49053"": 100}",Washington,49053,False,False,America/Denver,"(37.08321, -113.26032)",12.027517794799564,257535.0,340_0_no,37.25212823048874,-113.31310300388488,50.0
84738,37.20987,-113.70888,Ivins,UT,Utah,True,,9493.0,77.2,49053,Washington,"{""49053"": 100}",Washington,49053,False,False,America/Denver,"(37.20987, -113.70888)",21.967513674349313,257535.0,340_0_no,37.25212823048874,-113.31310300388488,50.0
84742,37.52102,-113.14592,Kanarraville,UT,Utah,True,,308.0,2.1,49021,Iron,"{""49021"": 100}",Iron,49021,False,False,America/Denver,"(37.52102, -113.14592)",20.72206007249941,257535.0,340_0_no,37.25212823048874,-113.31310300388488,50.0
84745,37.20838,-113.26266,La Verkin,UT,Utah,True,,4413.0,340.7,49053,Washington,"{""49053"": 100}",Washington,49053,False,False,America/Denver,"(37.20838, -113.26266)",4.103354699528453,257535.0,340_0_no,37.25212823048874,-113.31310300388488,50.0
84746,37.23867,-113.35055,Leeds,UT,Utah,True,,961.0,19.3,49053,Washington,"{""49053"": 100}",Washington,49053,False,False,America/Denver,"(37.23867, -113.35055)",2.259832692354545,257535.0,340_0_no,37.25212823048874,-113.31310300388488,50.0
84753,37.95019,-113.87967,Modena,UT,Utah,True,,5.0,0.0,49021,Iron,"{""49021"": 100}",Iron,49021,False,False,America/Denver,"(37.95019, -113.87967)",57.342305850810256,257535.0,340_0_no,37.25212823048874,-113.31310300388488,50.0
84755,37.22652,-112.78532,Mount Carmel,UT,Utah,True,,47.0,0.3,49025,Kane,"{""49025"": 100}",Kane,49025,False,False,America/Denver,"(37.22652, -112.78532)",29.085215755558984,257535.0,340_0_no,37.25212823048874,-113.31310300388488,50.0
84756,37.74249,-113.54772,Newcastle,UT,Utah,True,,326.0,1.8,49021,Iron,"{""49021"": 100}",Iron,49021,False,False,America/Denver,"(37.74249, -113.54772)",36.239645875599095,257535.0,340_0_no,37.25212823048874,-113.31310300388488,50.0
84757,37.45227,-113.25166,New Harmony,UT,Utah,True,,1373.0,9.9,49053,Washington,"{""49053"": 96.69, ""49021"": 3.31}",Washington|Iron,49053|49021,False,False,America/Denver,"(37.45227, -113.25166)",14.234299985283153,257535.0,340_0_no,37.25212823048874,-113.31310300388488,50.0
84758,37.27041,-112.68529,Orderville,UT,Utah,True,,461.0,1.3,49025,Kane,"{""49025"": 100}",Kane,49025,False,False,America/Denver,"(37.27041, -112.68529)",34.54664524815191,257535.0,340_0_no,37.25212823048874,-113.31310300388488,50.0
84760,37.96299,-112.68551,Paragonah,UT,Utah,True,,525.0,0.6,49021,Iron,"{""49021"": 100}",Iron,49021,False,False,America/Denver,"(37.96299, -112.68551)",59.936601837613075,257535.0,340_0_no,37.25212823048874,-113.31310300388488,50.0
84761,37.84603,-112.87124,Parowan,UT,Utah,True,,3556.0,10.8,49021,Iron,"{""49021"": 100}",Iron,49021,False,False,America/Denver,"(37.84603, -112.87124)",47.64151352235858,257535.0,340_0_no,37.25212823048874,-113.31310300388488,50.0
84762,37.46882,-112.72644,Duck Creek Village,UT,Utah,True,,75.0,0.2,49025,Kane,"{""49025"": 90.73, ""49017"": 9.27}",Kane|Garfield,49025|49017,False,False,America/Denver,"(37.46882, -112.72644)",35.526987710760864,257535.0,340_0_no,37.25212823048874,-113.31310300388488,50.0
84763,37.14667,-113.06947,Rockville,UT,Utah,True,,221.0,5.9,49053,Washington,"{""49053"": 100}",Washington,49053,False,False,America/Denver,"(37.14667, -113.06947)",15.260365317895879,257535.0,340_0_no,37.25212823048874,-113.31310300388488,50.0
84765,37.31012,-113.92535,Santa Clara,UT,Utah,True,,7234.0,58.1,49053,Washington,"{""49053"": 100}",Washington,49053,False,False,America/Denver,"(37.31012, -113.92535)",33.89634519162658,257535.0,340_0_no,37.25212823048874,-113.31310300388488,50.0
84767,37.20152,-112.9858,Springdale,UT,Utah,True,,647.0,1.1,49053,Washington,"{""49053"": 100}",Washington,49053,False,False,America/Denver,"(37.20152, -112.9858)",18.343066608467034,257535.0,340_0_no,37.25212823048874,-113.31310300388488,50.0
84770,37.13818,-113.6294,Saint George,UT,Utah,True,,43594.0,233.6,49053,Washington,"{""49053"": 100}",Washington,49053,False,False,America/Denver,"(37.13818, -113.6294)",19.10604906027499,257535.0,340_0_no,37.25212823048874,-113.31310300388488,50.0
84772,37.79706,-112.94168,Summit,UT,Utah,True,,252.0,66.5,49021,Iron,"{""49021"": 100}",Iron,49021,False,False,America/Denver,"(37.79706, -112.94168)",42.800109215416114,257535.0,340_0_no,37.25212823048874,-113.31310300388488,50.0
84774,37.24324,-113.28089,Toquerville,UT,Utah,True,,1681.0,25.6,49053,Washington,"{""49053"": 100}",Washington,49053,False,False,America/Denver,"(37.24324, -113.28089)",1.875136707651389,257535.0,340_0_no,37.25212823048874,-113.31310300388488,50.0
84779,37.33381,-113.11869,Virgin,UT,Utah,True,,760.0,1.3,49053,Washington,"{""49053"": 100}",Washington,49053,False,False,America/Denver,"(37.33381, -113.11869)",12.085050521965865,257535.0,340_0_no,37.25212823048874,-113.31310300388488,50.0
84780,37.12798,-113.48108,Washington,UT,Utah,True,,27518.0,172.0,49053,Washington,"{""49053"": 100}",Washington,49053,False,False,America/Denver,"(37.12798, -113.48108)",12.612070075469092,257535.0,340_0_no,37.25212823048874,-113.31310300388488,50.0
84781,37.41197,-113.47217,Pine Valley,UT,Utah,True,,122.0,0.6,49053,Washington,"{""49053"": 100}",Washington,49053,False,False,America/Denver,"(37.41197, -113.47217)",14.08327585551477,257535.0,340_0_no,37.25212823048874,-113.31310300388488,50.0
84782,37.35939,-113.67522,Veyo,UT,Utah,True,,638.0,11.8,49053,Washington,"{""49053"": 100}",Washington,49053,False,False,America/Denver,"(37.35939, -113.67522)",21.236263081449152,257535.0,340_0_no,37.25212823048874,-113.31310300388488,50.0
84783,37.28556,-113.65639,Dammeron Valley,UT,Utah,True,,738.0,8.3,49053,Washington,"{""49053"": 100}",Washington,49053,False,False,America/Denver,"(37.28556, -113.65639)",19.01634985471686,257535.0,340_0_no,37.25212823048874,-113.31310300388488,50.0
84784,37.01858,-112.96941,Hildale,UT,Utah,True,,2921.0,266.5,49053,Washington,"{""49053"": 100}",Washington,49053,False,False,America/Denver,"(37.01858, -112.96941)",24.87538120478476,257535.0,340_0_no,37.25212823048874,-113.31310300388488,50.0
84790,37.04615,-113.55738,Saint George,UT,Utah,True,,47849.0,382.2,49053,Washington,"{""49053"": 100}",Washington,49053,False,False,America/Denver,"(37.04615, -113.55738)",19.58367874525517,257535.0,340_0_no,37.25212823048874,-113.31310300388488,50.0
86021,36.92707,-113.10205,Colorado City,AZ,Arizona,True,,5959.0,13.3,4015,Mohave,"{""04015"": 100}",Mohave,04015,False,False,America/Phoenix,"(36.92707, -113.10205)",25.292933090766052,257535.0,340_0_no,37.25212823048874,-113.31310300388488,50.0
86022,36.7702,-112.5449,Fredonia,AZ,Arizona,True,,1885.0,0.9,4005,Coconino,"{""04005"": 67.58, ""04015"": 32.42}",Coconino|Mohave,04005|04015,False,False,America/Phoenix,"(36.7702, -112.5449)",53.89888586798046,257535.0,340_0_no,37.25212823048874,-113.31310300388488,50.0
86432,36.79085,-113.73783,Littlefield,AZ,Arizona,True,,3815.0,1.4,4015,Mohave,"{""04015"": 100}",Mohave,04015,False,False,America/Phoenix,"(36.79085, -113.73783)",39.556735387128406,257535.0,340_0_no,37.25212823048874,-113.31310300388488,50.0
89027,36.81374,-114.08857,Mesquite,NV,Nevada,True,,19087.0,589.9,32003,Clark,"{""32003"": 100}",Clark,32003,False,False,America/Los_Angeles,"(36.81374, -114.08857)",52.410735217780854,257535.0,340_0_no,37.25212823048874,-113.31310300388488,50.0
