zip,lat,lng,city,state_id,state_name,zcta,parent_zcta,population,density,county_fips,county_name,county_weights,county_names_all,county_fips_all,imprecise,military,timezone,Coord,distance_miles,market_total_population,market_id,market_center_lat,market_center_lng,radius_miles
20105,38.95949,-77.60829,Aldie,VA,Virginia,True,,27526.0,298.0,51107,Loudoun,"{""51107"": 100}",Loudoun,51107,False,False,America/New_York,"(38.95949, -77.60829)",43.235403745326614,3821896.0,353_0_no,38.42090064597568,-78.01643920893306,50.0
20106,38.6871,-78.0133,Amissville,VA,Virginia,True,,5073.0,36.7,51157,Rappahannock,"{""51157"": 71.66, ""51047"": 21.06, ""51061"": 7.28}",Rappahannock|Culpeper|Fauquier,51157|51047|51061,False,False,America/New_York,"(38.6871, -78.0133)",18.393405607198016,3821896.0,353_0_no,38.42090064597568,-78.01643920893306,50.0
20109,38.79472,-77.53105,Manassas,VA,Virginia,True,,42128.0,682.7,51153,Prince William,"{""51153"": 100}",Prince William,51153,False,False,America/New_York,"(38.79472, -77.53105)",36.79559120388189,3821896.0,353_0_no,38.42090064597568,-78.01643920893306,50.0
20110,38.7464,-77.48699,Manassas,VA,Virginia,True,,48035.0,1444.8,51683,Manassas,"{""51683"": 76.78, ""51153"": 23.22}",Manassas|Prince William,51683|51153,False,False,America/New_York,"(38.7464, -77.48699)",36.37990548558685,3821896.0,353_0_no,38.42090064597568,-78.01643920893306,50.0
20111,38.74907,-77.43039,Manassas,VA,Virginia,True,,36264.0,853.5,51153,Prince William,"{""51153"": 81.96, ""51685"": 18.04}",Prince William|Manassas Park,51153|51685,False,False,America/New_York,"(38.74907, -77.43039)",38.93542390884897,3821896.0,353_0_no,38.42090064597568,-78.01643920893306,50.0
20112,38.67274,-77.42901,Manassas,VA,Virginia,True,,25990.0,296.1,51153,Prince William,"{""51153"": 100}",Prince William,51153,False,False,America/New_York,"(38.67274, -77.42901)",36.199634762200986,3821896.0,353_0_no,38.42090064597568,-78.01643920893306,50.0
20115,38.82138,-77.89764,Marshall,VA,Virginia,True,,7838.0,30.7,51061,Fauquier,"{""51061"": 100}",Fauquier,51061,False,False,America/New_York,"(38.82138, -77.89764)",28.40391227790151,3821896.0,353_0_no,38.42090064597568,-78.01643920893306,50.0
20117,38.99473,-77.73851,Middleburg,VA,Virginia,True,,2591.0,20.6,51107,Loudoun,"{""51107"": 89.41, ""51061"": 10.59}",Loudoun|Fauquier,51107|51061,False,False,America/New_York,"(38.99473, -77.73851)",42.38509187351807,3821896.0,353_0_no,38.42090064597568,-78.01643920893306,50.0
20119,38.62159,-77.62819,Catlett,VA,Virginia,True,,4288.0,25.5,51061,Fauquier,"{""51061"": 99.02, ""51153"": 0.98}",Fauquier|Prince William,51061|51153,False,False,America/New_York,"(38.62159, -77.62819)",25.15459183771682,3821896.0,353_0_no,38.42090064597568,-78.01643920893306,50.0
20120,38.85576,-77.47987,Centreville,VA,Virginia,True,,43258.0,928.9,51059,Fairfax,"{""51059"": 89.89, ""51107"": 10.11}",Fairfax|Loudoun,51059|51107,False,False,America/New_York,"(38.85576, -77.47987)",41.72909236628844,3821896.0,353_0_no,38.42090064597568,-78.01643920893306,50.0
20121,38.8175,-77.46015,Centreville,VA,Virginia,True,,28120.0,1253.7,51059,Fairfax,"{""51059"": 100}",Fairfax,51059,False,False,America/New_York,"(38.8175, -77.46015)",40.65347348760644,3821896.0,353_0_no,38.42090064597568,-78.01643920893306,50.0
20124,38.78059,-77.39085,Clifton,VA,Virginia,True,,15305.0,272.4,51059,Fairfax,"{""51059"": 100}",Fairfax,51059,False,False,America/New_York,"(38.78059, -77.39085)",41.937030387542244,3821896.0,353_0_no,38.42090064597568,-78.01643920893306,50.0
20130,39.02756,-77.94243,Paris,VA,Virginia,True,,220.0,7.7,51043,Clarke,"{""51043"": 53.94, ""51061"": 23.48, ""51107"": 22.58}",Clarke|Fauquier|Loudoun,51043|51061|51107,False,False,America/New_York,"(39.02756, -77.94243)",42.10558429112528,3821896.0,353_0_no,38.42090064597568,-78.01643920893306,50.0
20135,39.08602,-77.87659,Bluemont,VA,Virginia,True,,3652.0,36.5,51043,Clarke,"{""51043"": 61.09, ""51107"": 38.18, ""54037"": 0.73}",Clarke|Loudoun|Jefferson,51043|51107|54037,False,False,America/New_York,"(39.08602, -77.87659)",46.56904896557232,3821896.0,353_0_no,38.42090064597568,-78.01643920893306,50.0
20136,38.7374,-77.55473,Bristow,VA,Virginia,True,,32135.0,896.8,51153,Prince William,"{""51153"": 100}",Prince William,51153,False,False,America/New_York,"(38.7374, -77.55473)",33.16831602323343,3821896.0,353_0_no,38.42090064597568,-78.01643920893306,50.0
20137,38.80682,-77.72992,Broad Run,VA,Virginia,True,,1736.0,36.3,51061,Fauquier,"{""51061"": 81.67, ""51153"": 18.33}",Fauquier|Prince William,51061|51153,False,False,America/New_York,"(38.80682, -77.72992)",30.826370617315522,3821896.0,353_0_no,38.42090064597568,-78.01643920893306,50.0
20141,39.11675,-77.79159,Round Hill,VA,Virginia,True,,7407.0,109.9,51107,Loudoun,"{""51107"": 100}",Loudoun,51107,False,False,America/New_York,"(39.11675, -77.79159)",49.58091227032348,3821896.0,353_0_no,38.42090064597568,-78.01643920893306,50.0
20143,38.86421,-77.56792,Catharpin,VA,Virginia,True,,630.0,38.1,51153,Prince William,"{""51153"": 100}",Prince William,51153,False,False,America/New_York,"(38.86421, -77.56792)",39.03897800484158,3821896.0,353_0_no,38.42090064597568,-78.01643920893306,50.0
20144,38.92117,-77.93759,Delaplane,VA,Virginia,True,,1089.0,9.4,51061,Fauquier,"{""51061"": 100}",Fauquier,51061,False,False,America/New_York,"(38.92117, -77.93759)",34.826040189675496,3821896.0,353_0_no,38.42090064597568,-78.01643920893306,50.0
20147,39.04151,-77.47958,Ashburn,VA,Virginia,True,,63903.0,1243.3,51107,Loudoun,"{""51107"": 100}",Loudoun,51107,False,False,America/New_York,"(39.04151, -77.47958)",51.72981969991025,3821896.0,353_0_no,38.42090064597568,-78.01643920893306,50.0
20148,38.99062,-77.53284,Ashburn,VA,Virginia,True,,54125.0,1077.7,51107,Loudoun,"{""51107"": 100}",Loudoun,51107,False,False,America/New_York,"(38.99062, -77.53284)",47.21643822324028,3821896.0,353_0_no,38.42090064597568,-78.01643920893306,50.0
20151,38.89583,-77.44453,Chantilly,VA,Virginia,True,,22209.0,540.7,51059,Fairfax,"{""51059"": 100}",Fairfax,51059,False,False,America/New_York,"(38.89583, -77.44453)",45.04345442544392,3821896.0,353_0_no,38.42090064597568,-78.01643920893306,50.0
20152,38.8998,-77.51917,Chantilly,VA,Virginia,True,,36465.0,1056.7,51107,Loudoun,"{""51107"": 100}",Loudoun,51107,False,False,America/New_York,"(38.8998, -77.51917)",42.59864695745737,3821896.0,353_0_no,38.42090064597568,-78.01643920893306,50.0
20155,38.80646,-77.62145,Gainesville,VA,Virginia,True,,37151.0,563.1,51153,Prince William,"{""51153"": 100}",Prince William,51153,False,False,America/New_York,"(38.80646, -77.62145)",34.12329008563048,3821896.0,353_0_no,38.42090064597568,-78.01643920893306,50.0
20158,39.14126,-77.65514,Hamilton,VA,Virginia,True,,5482.0,159.7,51107,Loudoun,"{""51107"": 100}",Loudoun,51107,False,False,America/New_York,"(39.14126, -77.65514)",53.441003720746885,3821896.0,353_0_no,38.42090064597568,-78.01643920893306,50.0
20164,39.01244,-77.39586,Sterling,VA,Virginia,True,,42011.0,2132.5,51107,Loudoun,"{""51107"": 100}",Loudoun,51107,False,False,America/New_York,"(39.01244, -77.39586)",52.81771546320185,3821896.0,353_0_no,38.42090064597568,-78.01643920893306,50.0
20165,39.05058,-77.38854,Sterling,VA,Virginia,True,,33290.0,1305.2,51107,Loudoun,"{""51107"": 100}",Loudoun,51107,False,False,America/New_York,"(39.05058, -77.38854)",55.11814781414629,3821896.0,353_0_no,38.42090064597568,-78.01643920893306,50.0
20166,38.97146,-77.4637,Sterling,VA,Virginia,True,,12572.0,178.5,51107,Loudoun,"{""51107"": 100}",Loudoun,51107,False,False,America/New_York,"(38.97146, -77.4637)",48.32661997900635,3821896.0,353_0_no,38.42090064597568,-78.01643920893306,50.0
20169,38.87172,-77.64627,Haymarket,VA,Virginia,True,,25914.0,267.3,51153,Prince William,"{""51153"": 96.96, ""51061"": 3.04}",Prince William|Fauquier,51153|51061,False,False,America/New_York,"(38.87172, -77.64627)",37.00339242190741,3821896.0,353_0_no,38.42090064597568,-78.01643920893306,50.0
20170,38.98075,-77.38042,Herndon,VA,Virginia,True,,43610.0,1923.2,51059,Fairfax,"{""51059"": 100}",Fairfax,51059,False,False,America/New_York,"(38.98075, -77.38042)",51.69558364591842,3821896.0,353_0_no,38.42090064597568,-78.01643920893306,50.0
20171,38.9246,-77.39824,Herndon,VA,Virginia,True,,50511.0,1678.7,51059,Fairfax,"{""51059"": 100}",Fairfax,51059,False,False,America/New_York,"(38.9246, -77.39824)",48.19998689089984,3821896.0,353_0_no,38.42090064597568,-78.01643920893306,50.0
20175,39.0641,-77.59939,Leesburg,VA,Virginia,True,,35429.0,231.8,51107,Loudoun,"{""51107"": 100}",Loudoun,51107,False,False,America/New_York,"(39.0641, -77.59939)",49.800583373052866,3821896.0,353_0_no,38.42090064597568,-78.01643920893306,50.0
20181,38.66687,-77.55374,Nokesville,VA,Virginia,True,,8526.0,42.3,51153,Prince William,"{""51153"": 93.57, ""51061"": 6.43}",Prince William|Fauquier,51153|51061,False,False,America/New_York,"(38.66687, -77.55374)",30.23304774271014,3821896.0,353_0_no,38.42090064597568,-78.01643920893306,50.0
20184,39.00143,-77.87874,Upperville,VA,Virginia,True,,436.0,4.7,51107,Loudoun,"{""51107"": 56.25, ""51061"": 43.75}",Loudoun|Fauquier,51107|51061,False,False,America/New_York,"(39.00143, -77.87874)",40.79198945530058,3821896.0,353_0_no,38.42090064597568,-78.01643920893306,50.0
20186,38.69045,-77.843,Warrenton,VA,Virginia,True,,15143.0,99.6,51061,Fauquier,"{""51061"": 98.32, ""51047"": 1.68}",Fauquier|Culpeper,51061|51047,False,False,America/New_York,"(38.69045, -77.843)",20.8488446064671,3821896.0,353_0_no,38.42090064597568,-78.01643920893306,50.0
20187,38.71846,-77.74275,Warrenton,VA,Virginia,True,,18684.0,141.3,51061,Fauquier,"{""51061"": 100}",Fauquier,51061,False,False,America/New_York,"(38.71846, -77.74275)",25.32350705579181,3821896.0,353_0_no,38.42090064597568,-78.01643920893306,50.0
20190,38.95968,-77.33806,Reston,VA,Virginia,True,,20609.0,1823.7,51059,Fairfax,"{""51059"": 100}",Fairfax,51059,False,False,America/New_York,"(38.95968, -77.33806)",52.193926649849246,3821896.0,353_0_no,38.42090064597568,-78.01643920893306,50.0
20191,38.93438,-77.35184,Reston,VA,Virginia,True,,30224.0,1504.5,51059,Fairfax,"{""51059"": 100}",Fairfax,51059,False,False,America/New_York,"(38.93438, -77.35184)",50.43558991328601,3821896.0,353_0_no,38.42090064597568,-78.01643920893306,50.0
20194,38.97998,-77.34354,Reston,VA,Virginia,True,,12067.0,1494.5,51059,Fairfax,"{""51059"": 100}",Fairfax,51059,False,False,America/New_York,"(38.97998, -77.34354)",52.997051384168536,3821896.0,353_0_no,38.42090064597568,-78.01643920893306,50.0
20198,38.87523,-77.76128,The Plains,VA,Virginia,True,,1854.0,10.3,51061,Fauquier,"{""51061"": 100}",Fauquier,51061,False,False,America/New_York,"(38.87523, -77.76128)",34.27802873552325,3821896.0,353_0_no,38.42090064597568,-78.01643920893306,50.0
20640,38.55408,-77.1657,Indian Head,MD,Maryland,True,,11113.0,102.8,24017,Charles,"{""24017"": 100}",Charles,24017,False,False,America/New_York,"(38.55408, -77.1657)",46.921022067151156,3821896.0,353_0_no,38.42090064597568,-78.01643920893306,50.0
20658,38.56973,-77.15958,Marbury,MD,Maryland,True,,858.0,75.9,24017,Charles,"{""24017"": 100}",Charles,24017,False,False,America/New_York,"(38.56973, -77.15958)",47.46315265337069,3821896.0,353_0_no,38.42090064597568,-78.01643920893306,50.0
20662,38.43359,-77.19972,Nanjemoy,MD,Maryland,True,,2333.0,16.0,24017,Charles,"{""24017"": 100}",Charles,24017,False,False,America/New_York,"(38.43359, -77.19972)",44.215636987354664,3821896.0,353_0_no,38.42090064597568,-78.01643920893306,50.0
20812,38.96677,-77.14357,Glen Echo,MD,Maryland,True,,323.0,705.0,24031,Montgomery,"{""24031"": 100}",Montgomery,24031,False,False,America/New_York,"(38.96677, -77.14357)",60.31707643562821,3821896.0,353_0_no,38.42090064597568,-78.01643920893306,50.0
20814,39.00506,-77.10295,Bethesda,MD,Maryland,True,,29632.0,2565.8,24031,Montgomery,"{""24031"": 100}",Montgomery,24031,False,False,America/New_York,"(39.00506, -77.10295)",63.67429985702994,3821896.0,353_0_no,38.42090064597568,-78.01643920893306,50.0
20816,38.95612,-77.11873,Bethesda,MD,Maryland,True,,16661.0,1804.9,24031,Montgomery,"{""24031"": 100}",Montgomery,24031,False,False,America/New_York,"(38.95612, -77.11873)",60.92154656170617,3821896.0,353_0_no,38.42090064597568,-78.01643920893306,50.0
20817,38.99809,-77.14919,Bethesda,MD,Maryland,True,,38131.0,1048.7,24031,Montgomery,"{""24031"": 100}",Montgomery,24031,False,False,America/New_York,"(38.99809, -77.14919)",61.45457899238996,3821896.0,353_0_no,38.42090064597568,-78.01643920893306,50.0
20818,38.97347,-77.16188,Cabin John,MD,Maryland,True,,2072.0,861.9,24031,Montgomery,"{""24031"": 100}",Montgomery,24031,False,False,America/New_York,"(38.97347, -77.16188)",59.84232846336434,3821896.0,353_0_no,38.42090064597568,-78.01643920893306,50.0
20837,39.11208,-77.40823,Poolesville,MD,Maryland,True,,6129.0,58.7,24031,Montgomery,"{""24031"": 100}",Montgomery,24031,False,False,America/New_York,"(39.11208, -77.40823)",57.91528261316378,3821896.0,353_0_no,38.42090064597568,-78.01643920893306,50.0
20850,39.0908,-77.1809,Rockville,MD,Maryland,True,,53522.0,1463.8,24031,Montgomery,"{""24031"": 100}",Montgomery,24031,False,False,America/New_York,"(39.0908, -77.1809)",64.56787712385304,3821896.0,353_0_no,38.42090064597568,-78.01643920893306,50.0
20851,39.07767,-77.12089,Rockville,MD,Maryland,True,,14519.0,2211.0,24031,Montgomery,"{""24031"": 100}",Montgomery,24031,False,False,America/New_York,"(39.07767, -77.12089)",66.24086590315993,3821896.0,353_0_no,38.42090064597568,-78.01643920893306,50.0
20852,39.05134,-77.12507,Rockville,MD,Maryland,True,,47338.0,2263.6,24031,Montgomery,"{""24031"": 100}",Montgomery,24031,False,False,America/New_York,"(39.05134, -77.12507)",64.84769700089186,3821896.0,353_0_no,38.42090064597568,-78.01643920893306,50.0
20854,39.03413,-77.22149,Potomac,MD,Maryland,True,,49196.0,561.8,24031,Montgomery,"{""24031"": 100}",Montgomery,24031,False,False,America/New_York,"(39.03413, -77.22149)",60.25960950530649,3821896.0,353_0_no,38.42090064597568,-78.01643920893306,50.0
20855,39.13702,-77.13197,Derwood,MD,Maryland,True,,15955.0,471.2,24031,Montgomery,"{""24031"": 100}",Montgomery,24031,False,False,America/New_York,"(39.13702, -77.13197)",68.6852767707926,3821896.0,353_0_no,38.42090064597568,-78.01643920893306,50.0
20874,39.1291,-77.29721,Germantown,MD,Maryland,True,,60258.0,1026.1,24031,Montgomery,"{""24031"": 100}",Montgomery,24031,False,False,America/New_York,"(39.1291, -77.29721)",62.41163030568793,3821896.0,353_0_no,38.42090064597568,-78.01643920893306,50.0
20877,39.14068,-77.18865,Gaithersburg,MD,Maryland,True,,37948.0,2597.5,24031,Montgomery,"{""24031"": 100}",Montgomery,24031,False,False,America/New_York,"(39.14068, -77.18865)",66.79148005283893,3821896.0,353_0_no,38.42090064597568,-78.01643920893306,50.0
20878,39.11376,-77.24781,Gaithersburg,MD,Maryland,True,,63576.0,1200.4,24031,Montgomery,"{""24031"": 100}",Montgomery,24031,False,False,America/New_York,"(39.11376, -77.24781)",63.29482742033088,3821896.0,353_0_no,38.42090064597568,-78.01643920893306,50.0
20880,39.14077,-77.17456,Washington Grove,MD,Maryland,True,,530.0,613.4,24031,Montgomery,"{""24031"": 100}",Montgomery,24031,False,False,America/New_York,"(39.14077, -77.17456)",67.30500567447885,3821896.0,353_0_no,38.42090064597568,-78.01643920893306,50.0
20899,39.14442,-77.21621,Gaithersburg,MD,Maryland,True,,284.0,1034.4,24031,Montgomery,"{""24031"": 100}",Montgomery,24031,False,False,America/New_York,"(39.14442, -77.21621)",66.00464805984896,3821896.0,353_0_no,38.42090064597568,-78.01643920893306,50.0
22003,38.8308,-77.21402,Annandale,VA,Virginia,True,,58252.0,1780.2,51059,Fairfax,"{""51059"": 100}",Fairfax,51059,False,False,America/New_York,"(38.8308, -77.21402)",51.7504643794995,3821896.0,353_0_no,38.42090064597568,-78.01643920893306,50.0
22015,38.78784,-77.28136,Burke,VA,Virginia,True,,45028.0,2048.6,51059,Fairfax,"{""51059"": 100}",Fairfax,51059,False,False,America/New_York,"(38.78784, -77.28136)",47.09647322769804,3821896.0,353_0_no,38.42090064597568,-78.01643920893306,50.0
22025,38.59874,-77.3491,Dumfries,VA,Virginia,True,,19634.0,787.0,51153,Prince William,"{""51153"": 100}",Prince William,51153,False,False,America/New_York,"(38.59874, -77.3491)",38.114993177336636,3821896.0,353_0_no,38.42090064597568,-78.01643920893306,50.0
22026,38.56717,-77.29476,Dumfries,VA,Virginia,True,,16701.0,768.4,51153,Prince William,"{""51153"": 100}",Prince William,51153,False,False,America/New_York,"(38.56717, -77.29476)",40.31383169282442,3821896.0,353_0_no,38.42090064597568,-78.01643920893306,50.0
22027,38.89411,-77.22159,Dunn Loring,VA,Virginia,True,,2427.0,1470.7,51059,Fairfax,"{""51059"": 100}",Fairfax,51059,False,False,America/New_York,"(38.89411, -77.22159)",53.92731302689738,3821896.0,353_0_no,38.42090064597568,-78.01643920893306,50.0
22030,38.83891,-77.34188,Fairfax,VA,Virginia,True,,60220.0,1195.7,51059,Fairfax,"{""51059"": 76.11, ""51600"": 23.89}",Fairfax|Fairfax,51059|51600,False,False,America/New_York,"(38.83891, -77.34188)",46.473531808848406,3821896.0,353_0_no,38.42090064597568,-78.01643920893306,50.0
22031,38.85954,-77.2599,Fairfax,VA,Virginia,True,,35110.0,1902.1,51059,Fairfax,"{""51059"": 82.35, ""51600"": 17.65}",Fairfax|Fairfax,51059|51600,False,False,America/New_York,"(38.85954, -77.2599)",50.8474650434834,3821896.0,353_0_no,38.42090064597568,-78.01643920893306,50.0
22032,38.82012,-77.29032,Fairfax,VA,Virginia,True,,31103.0,1662.2,51059,Fairfax,"{""51059"": 95.4, ""51600"": 4.6}",Fairfax|Fairfax,51059|51600,False,False,America/New_York,"(38.82012, -77.29032)",47.929957357532345,3821896.0,353_0_no,38.42090064597568,-78.01643920893306,50.0
22033,38.87564,-77.38419,Fairfax,VA,Virginia,True,,38724.0,1911.8,51059,Fairfax,"{""51059"": 100}",Fairfax,51059,False,False,America/New_York,"(38.87564, -77.38419)",46.380423147583606,3821896.0,353_0_no,38.42090064597568,-78.01643920893306,50.0
22035,38.85628,-77.36269,Fairfax,VA,Virginia,True,,183.0,1680.3,51059,Fairfax,"{""51059"": 100}",Fairfax,51059,False,False,America/New_York,"(38.85628, -77.36269)",46.36509612498293,3821896.0,353_0_no,38.42090064597568,-78.01643920893306,50.0
22039,38.74992,-77.31536,Fairfax Station,VA,Virginia,True,,18095.0,295.8,51059,Fairfax,"{""51059"": 100}",Fairfax,51059,False,False,America/New_York,"(38.74992, -77.31536)",44.16441527292093,3821896.0,353_0_no,38.42090064597568,-78.01643920893306,50.0
22041,38.8485,-77.14212,Falls Church,VA,Virginia,True,,28476.0,3962.2,51059,Fairfax,"{""51059"": 100}",Fairfax,51059,False,False,America/New_York,"(38.8485, -77.14212)",55.67388429969771,3821896.0,353_0_no,38.42090064597568,-78.01643920893306,50.0
22042,38.86463,-77.19406,Falls Church,VA,Virginia,True,,36744.0,2209.4,51059,Fairfax,"{""51059"": 99.09, ""51610"": 0.91}",Fairfax|Falls Church,51059|51610,False,False,America/New_York,"(38.86463, -77.19406)",53.94005435716697,3821896.0,353_0_no,38.42090064597568,-78.01643920893306,50.0
22043,38.90076,-77.19746,Falls Church,VA,Virginia,True,,25012.0,2066.8,51059,Fairfax,"{""51059"": 98.86, ""51610"": 1.14}",Fairfax|Falls Church,51059|51610,False,False,America/New_York,"(38.90076, -77.19746)",55.24119193733515,3821896.0,353_0_no,38.42090064597568,-78.01643920893306,50.0
22044,38.85957,-77.15627,Falls Church,VA,Virginia,True,,14078.0,2537.6,51059,Fairfax,"{""51059"": 94.24, ""51610"": 5.76}",Fairfax|Falls Church,51059|51610,False,False,America/New_York,"(38.85957, -77.15627)",55.43948156015954,3821896.0,353_0_no,38.42090064597568,-78.01643920893306,50.0
22046,38.88696,-77.18025,Falls Church,VA,Virginia,True,,18639.0,2642.0,51610,Falls Church,"{""51610"": 66.38, ""51059"": 33.62}",Falls Church|Fairfax,51610|51059,False,False,America/New_York,"(38.88696, -77.18025)",55.43086039226582,3821896.0,353_0_no,38.42090064597568,-78.01643920893306,50.0
22060,38.70525,-77.15636,Fort Belvoir,VA,Virginia,True,,9800.0,288.1,51059,Fairfax,"{""51059"": 100}",Fairfax,51059,False,False,America/New_York,"(38.70525, -77.15636)",50.448853073570795,3821896.0,353_0_no,38.42090064597568,-78.01643920893306,50.0
22066,39.01032,-77.30258,Great Falls,VA,Virginia,True,,17393.0,262.5,51059,Fairfax,"{""51059"": 99.12, ""51107"": 0.88}",Fairfax|Loudoun,51059|51107,False,False,America/New_York,"(39.01032, -77.30258)",56.031735062876955,3821896.0,353_0_no,38.42090064597568,-78.01643920893306,50.0
22079,38.67998,-77.2055,Lorton,VA,Virginia,True,,36839.0,500.4,51059,Fairfax,"{""51059"": 100}",Fairfax,51059,False,False,America/New_York,"(38.67998, -77.2055)",47.33433386467535,3821896.0,353_0_no,38.42090064597568,-78.01643920893306,50.0
22101,38.9386,-77.16513,McLean,VA,Virginia,True,,30598.0,901.6,51059,Fairfax,"{""51059"": 99.46, ""51013"": 0.54}",Fairfax|Arlington,51059|51013,False,False,America/New_York,"(38.9386, -77.16513)",58.20526914046946,3821896.0,353_0_no,38.42090064597568,-78.01643920893306,50.0
22102,38.95199,-77.22901,McLean,VA,Virginia,True,,26875.0,843.1,51059,Fairfax,"{""51059"": 100}",Fairfax,51059,False,False,America/New_York,"(38.95199, -77.22901)",56.12497519574864,3821896.0,353_0_no,38.42090064597568,-78.01643920893306,50.0
22124,38.8909,-77.33025,Oakton,VA,Virginia,True,,18377.0,687.1,51059,Fairfax,"{""51059"": 100}",Fairfax,51059,False,False,America/New_York,"(38.8909, -77.33025)",49.24726565420089,3821896.0,353_0_no,38.42090064597568,-78.01643920893306,50.0
22125,38.68217,-77.26073,Occoquan,VA,Virginia,True,,797.0,2030.4,51153,Prince William,"{""51153"": 100}",Prince William,51153,False,False,America/New_York,"(38.68217, -77.26073)",44.64632113306787,3821896.0,353_0_no,38.42090064597568,-78.01643920893306,50.0
22134,38.53186,-77.409,Quantico,VA,Virginia,True,,7354.0,60.2,51179,Stafford,"{""51179"": 76.56, ""51153"": 23.44}",Stafford|Prince William,51179|51153,False,False,America/New_York,"(38.53186, -77.409)",33.73937389308371,3821896.0,353_0_no,38.42090064597568,-78.01643920893306,50.0
22150,38.77198,-77.18605,Springfield,VA,Virginia,True,,29585.0,1498.4,51059,Fairfax,"{""51059"": 100}",Fairfax,51059,False,False,America/New_York,"(38.77198, -77.18605)",50.98180799945104,3821896.0,353_0_no,38.42090064597568,-78.01643920893306,50.0
22151,38.80283,-77.2096,Springfield,VA,Virginia,True,,18631.0,1414.0,51059,Fairfax,"{""51059"": 100}",Fairfax,51059,False,False,America/New_York,"(38.80283, -77.2096)",50.92983405812506,3821896.0,353_0_no,38.42090064597568,-78.01643920893306,50.0
22152,38.77564,-77.23149,Springfield,VA,Virginia,True,,30314.0,1941.2,51059,Fairfax,"{""51059"": 100}",Fairfax,51059,False,False,America/New_York,"(38.77564, -77.23149)",48.96271949423687,3821896.0,353_0_no,38.42090064597568,-78.01643920893306,50.0
22153,38.74443,-77.23451,Springfield,VA,Virginia,True,,31897.0,1390.3,51059,Fairfax,"{""51059"": 100}",Fairfax,51059,False,False,America/New_York,"(38.74443, -77.23451)",47.78358007300608,3821896.0,353_0_no,38.42090064597568,-78.01643920893306,50.0
22172,38.5742,-77.3895,Triangle,VA,Virginia,True,,11494.0,215.4,51153,Prince William,"{""51153"": 100}",Prince William,51153,False,False,America/New_York,"(38.5742, -77.3895)",35.51770859635348,3821896.0,353_0_no,38.42090064597568,-78.01643920893306,50.0
22180,38.89619,-77.25426,Vienna,VA,Virginia,True,,24011.0,1573.4,51059,Fairfax,"{""51059"": 100}",Fairfax,51059,False,False,America/New_York,"(38.89619, -77.25426)",52.625526118966505,3821896.0,353_0_no,38.42090064597568,-78.01643920893306,50.0
22181,38.9053,-77.29466,Vienna,VA,Virginia,True,,14531.0,1005.2,51059,Fairfax,"{""51059"": 100}",Fairfax,51059,False,False,America/New_York,"(38.9053, -77.29466)",51.34659611985187,3821896.0,353_0_no,38.42090064597568,-78.01643920893306,50.0
22182,38.93611,-77.2736,Vienna,VA,Virginia,True,,25985.0,803.1,51059,Fairfax,"{""51059"": 100}",Fairfax,51059,False,False,America/New_York,"(38.93611, -77.2736)",53.59645998908456,3821896.0,353_0_no,38.42090064597568,-78.01643920893306,50.0
22191,38.6249,-77.26849,Woodbridge,VA,Virginia,True,,73081.0,1829.0,51153,Prince William,"{""51153"": 100}",Prince William,51153,False,False,America/New_York,"(38.6249, -77.26849)",42.8173476527063,3821896.0,353_0_no,38.42090064597568,-78.01643920893306,50.0
22192,38.68358,-77.31821,Woodbridge,VA,Virginia,True,,59670.0,1199.7,51153,Prince William,"{""51153"": 100}",Prince William,51153,False,False,America/New_York,"(38.68358, -77.31821)",41.86632600130333,3821896.0,353_0_no,38.42090064597568,-78.01643920893306,50.0
22193,38.64233,-77.34881,Woodbridge,VA,Virginia,True,,82060.0,1733.1,51153,Prince William,"{""51153"": 100}",Prince William,51153,False,False,America/New_York,"(38.64233, -77.34881)",39.19412467487457,3821896.0,353_0_no,38.42090064597568,-78.01643920893306,50.0
22203,38.87377,-77.1164,Arlington,VA,Virginia,True,,24841.0,6110.4,51013,Arlington,"{""51013"": 99.07, ""51059"": 0.93}",Arlington|Fairfax,51013|51059,False,False,America/New_York,"(38.87377, -77.1164)",57.77452273258625,3821896.0,353_0_no,38.42090064597568,-78.01643920893306,50.0
22204,38.86076,-77.09894,Arlington,VA,Virginia,True,,53855.0,5048.8,51013,Arlington,"{""51013"": 100}",Arlington,51013,False,False,America/New_York,"(38.86076, -77.09894)",58.09734546413044,3821896.0,353_0_no,38.42090064597568,-78.01643920893306,50.0
22205,38.88337,-77.13948,Arlington,VA,Virginia,True,,18570.0,2628.2,51013,Arlington,"{""51013"": 100}",Arlington,51013,False,False,America/New_York,"(38.88337, -77.13948)",57.09745892884654,3821896.0,353_0_no,38.42090064597568,-78.01643920893306,50.0
22207,38.90665,-77.12384,Arlington,VA,Virginia,True,,34113.0,2041.0,51013,Arlington,"{""51013"": 99.37, ""51059"": 0.63}",Arlington|Fairfax,51013|51059,False,False,America/New_York,"(38.90665, -77.12384)",58.696854113860496,3821896.0,353_0_no,38.42090064597568,-78.01643920893306,50.0
22213,38.89459,-77.16239,Arlington,VA,Virginia,True,,4168.0,2720.0,51013,Arlington,"{""51013"": 100}",Arlington,51013,False,False,America/New_York,"(38.89459, -77.16239)",56.51963065470391,3821896.0,353_0_no,38.42090064597568,-78.01643920893306,50.0
22304,38.81361,-77.11498,Alexandria,VA,Virginia,True,,49262.0,3924.7,51510,Alexandria,"{""51510"": 96.62, ""51059"": 3.38}",Alexandria|Fairfax,51510|51059,False,False,America/New_York,"(38.81361, -77.11498)",55.717963389621445,3821896.0,353_0_no,38.42090064597568,-78.01643920893306,50.0
22309,38.71931,-77.10724,Alexandria,VA,Virginia,True,,36110.0,1852.4,51059,Fairfax,"{""51059"": 100}",Fairfax,51059,False,False,America/New_York,"(38.71931, -77.10724)",53.26711066286799,3821896.0,353_0_no,38.42090064597568,-78.01643920893306,50.0
22310,38.78447,-77.12231,Alexandria,VA,Virginia,True,,32329.0,1851.2,51059,Fairfax,"{""51059"": 100}",Fairfax,51059,False,False,America/New_York,"(38.78447, -77.12231)",54.423136210301905,3821896.0,353_0_no,38.42090064597568,-78.01643920893306,50.0
22311,38.83442,-77.12313,Alexandria,VA,Virginia,True,,18890.0,4712.7,51510,Alexandria,"{""51510"": 76.41, ""51059"": 23.59}",Alexandria|Fairfax,51510|51059,False,False,America/New_York,"(38.83442, -77.12313)",56.04712348331785,3821896.0,353_0_no,38.42090064597568,-78.01643920893306,50.0
22312,38.81685,-77.15372,Alexandria,VA,Virginia,True,,30327.0,2284.4,51059,Fairfax,"{""51059"": 91.6, ""51510"": 8.4}",Fairfax|Alexandria,51059|51510,False,False,America/New_York,"(38.81685, -77.15372)",54.013111285286165,3821896.0,353_0_no,38.42090064597568,-78.01643920893306,50.0
22315,38.75735,-77.14803,Alexandria,VA,Virginia,True,,29634.0,2077.7,51059,Fairfax,"{""51059"": 100}",Fairfax,51059,False,False,America/New_York,"(38.75735, -77.14803)",52.34420110339217,3821896.0,353_0_no,38.42090064597568,-78.01643920893306,50.0
22401,38.29928,-77.48704,Fredericksburg,VA,Virginia,True,,29059.0,1082.4,51630,Fredericksburg,"{""51630"": 100}",Fredericksburg,51630,False,False,America/New_York,"(38.29928, -77.48704)",29.887350431365856,3821896.0,353_0_no,38.42090064597568,-78.01643920893306,50.0
22405,38.31568,-77.40377,Fredericksburg,VA,Virginia,True,,33482.0,242.5,51179,Stafford,"{""51179"": 100}",Stafford,51179,False,False,America/New_York,"(38.31568, -77.40377)",33.97623853341582,3821896.0,353_0_no,38.42090064597568,-78.01643920893306,50.0
22406,38.39964,-77.55596,Fredericksburg,VA,Virginia,True,,25665.0,136.3,51179,Stafford,"{""51179"": 95.39, ""51061"": 4.61}",Stafford|Fauquier,51179|51061,False,False,America/New_York,"(38.39964, -77.55596)",24.973727198281498,3821896.0,353_0_no,38.42090064597568,-78.01643920893306,50.0
22407,38.28581,-77.58055,Fredericksburg,VA,Virginia,True,,59551.0,376.9,51177,Spotsylvania,"{""51177"": 97.26, ""51047"": 2.63, ""51630"": 0.11}",Spotsylvania|Culpeper|Fredericksburg,51177|51047|51630,False,False,America/New_York,"(38.28581, -77.58055)",25.39525198409691,3821896.0,353_0_no,38.42090064597568,-78.01643920893306,50.0
22408,38.21916,-77.44013,Fredericksburg,VA,Virginia,True,,30129.0,245.8,51177,Spotsylvania,"{""51177"": 82.83, ""51033"": 17.17}",Spotsylvania|Caroline,51177|51033,False,False,America/New_York,"(38.21916, -77.44013)",34.20903672244633,3821896.0,353_0_no,38.42090064597568,-78.01643920893306,50.0
22427,38.07177,-77.28624,Bowling Green,VA,Virginia,True,,5259.0,19.2,51033,Caroline,"{""51033"": 100}",Caroline,51033,False,False,America/New_York,"(38.07177, -77.28624)",46.38796826874838,3821896.0,353_0_no,38.42090064597568,-78.01643920893306,50.0
22433,38.35875,-77.86093,Burr Hill,VA,Virginia,True,,402.0,41.5,51137,Orange,"{""51137"": 100}",Orange,51137,False,False,America/New_York,"(38.35875, -77.86093)",9.453320710142915,3821896.0,353_0_no,38.42090064597568,-78.01643920893306,50.0
22485,38.2717,-77.15996,King George,VA,Virginia,True,,25997.0,57.1,51099,King George,"{""51099"": 99.77, ""51193"": 0.23}",King George|Westmoreland,51099|51193,False,False,America/New_York,"(38.2717, -77.15996)",47.542023042238526,3821896.0,353_0_no,38.42090064597568,-78.01643920893306,50.0
22508,38.31732,-77.7913,Locust Grove,VA,Virginia,True,,15323.0,102.8,51137,Orange,"{""51137"": 90.38, ""51177"": 9.62}",Orange|Spotsylvania,51137|51177,False,False,America/New_York,"(38.31732, -77.7913)",14.140813435437776,3821896.0,353_0_no,38.42090064597568,-78.01643920893306,50.0
22514,37.9724,-77.24471,Milford,VA,Virginia,True,,2307.0,11.6,51033,Caroline,"{""51033"": 97.63, ""51097"": 2.37}",Caroline|King and Queen,51033|51097,False,False,America/New_York,"(37.9724, -77.24471)",52.11785268072488,3821896.0,353_0_no,38.42090064597568,-78.01643920893306,50.0
22534,38.08473,-77.67062,Partlow,VA,Virginia,True,,2910.0,33.9,51177,Spotsylvania,"{""51177"": 100}",Spotsylvania,51177,False,False,America/New_York,"(38.08473, -77.67062)",29.85912958938641,3821896.0,353_0_no,38.42090064597568,-78.01643920893306,50.0
22535,38.12314,-77.19619,Port Royal,VA,Virginia,True,,432.0,3.9,51033,Caroline,"{""51033"": 100}",Caroline,51033,False,False,America/New_York,"(38.12314, -77.19619)",49.01938155088007,3821896.0,353_0_no,38.42090064597568,-78.01643920893306,50.0
22538,38.18941,-77.27334,Rappahannock Academy,VA,Virginia,True,,177.0,2.8,51033,Caroline,"{""51033"": 100}",Caroline,51033,False,False,America/New_York,"(38.18941, -77.27334)",43.34860900690198,3821896.0,353_0_no,38.42090064597568,-78.01643920893306,50.0
22542,38.29348,-77.88837,Rhoadesville,VA,Virginia,True,,1846.0,41.8,51137,Orange,"{""51137"": 100}",Orange,51137,False,False,America/New_York,"(38.29348, -77.88837)",11.209642565166133,3821896.0,353_0_no,38.42090064597568,-78.01643920893306,50.0
22546,37.94342,-77.44565,Ruther Glen,VA,Virginia,True,,16553.0,39.0,51033,Caroline,"{""51033"": 93.91, ""51085"": 4.58, ""51177"": 1.51}",Caroline|Hanover|Spotsylvania,51033|51085|51177,False,False,America/New_York,"(37.94342, -77.44565)",45.270018811449965,3821896.0,353_0_no,38.42090064597568,-78.01643920893306,50.0
22551,38.17273,-77.70575,Spotsylvania,VA,Virginia,True,,20218.0,46.4,51177,Spotsylvania,"{""51177"": 99.39, ""51137"": 0.61}",Spotsylvania|Orange,51177|51137,False,False,America/New_York,"(38.17273, -77.70575)",24.03840518795015,3821896.0,353_0_no,38.42090064597568,-78.01643920893306,50.0
22553,38.26594,-77.6397,Spotsylvania,VA,Virginia,True,,15960.0,141.4,51177,Spotsylvania,"{""51177"": 100}",Spotsylvania,51177,False,False,America/New_York,"(38.26594, -77.6397)",23.052816477381736,3821896.0,353_0_no,38.42090064597568,-78.01643920893306,50.0
22554,38.42285,-77.3835,Stafford,VA,Virginia,True,,57488.0,346.2,51179,Stafford,"{""51179"": 100}",Stafford,51179,False,False,America/New_York,"(38.42285, -77.3835)",34.262254352704545,3821896.0,353_0_no,38.42090064597568,-78.01643920893306,50.0
22556,38.48624,-77.513,Stafford,VA,Virginia,True,,31545.0,262.8,51179,Stafford,"{""51179"": 99.18, ""51061"": 0.82}",Stafford|Fauquier,51179|51061,False,False,America/New_York,"(38.48624, -77.513)",27.611569544528905,3821896.0,353_0_no,38.42090064597568,-78.01643920893306,50.0
22567,38.23395,-77.92401,Unionville,VA,Virginia,True,,3336.0,28.5,51137,Orange,"{""51137"": 99.35, ""51177"": 0.65}",Orange|Spotsylvania,51137|51177,False,False,America/New_York,"(38.23395, -77.92401)",13.854576239156113,3821896.0,353_0_no,38.42090064597568,-78.01643920893306,50.0
22580,38.10941,-77.44419,Woodford,VA,Virginia,True,,5467.0,22.3,51033,Caroline,"{""51033"": 89.9, ""51177"": 10.1}",Caroline|Spotsylvania,51033|51177,False,False,America/New_York,"(38.10941, -77.44419)",37.774439413509185,3821896.0,353_0_no,38.42090064597568,-78.01643920893306,50.0
22610,38.81803,-78.28102,Bentonville,VA,Virginia,True,,1499.0,11.1,51187,Warren,"{""51187"": 100}",Warren,51187,False,False,America/New_York,"(38.81803, -78.28102)",30.933798027670843,3821896.0,353_0_no,38.42090064597568,-78.01643920893306,50.0
22620,39.06417,-78.03317,Boyce,VA,Virginia,True,,2865.0,24.2,51043,Clarke,"{""51043"": 100}",Clarke,51043,False,False,America/New_York,"(39.06417, -78.03317)",44.454823079911804,3821896.0,353_0_no,38.42090064597568,-78.01643920893306,50.0
22623,38.85158,-78.13734,Chester Gap,VA,Virginia,True,,892.0,287.3,51157,Rappahannock,"{""51157"": 100}",Rappahannock,51157,False,False,America/New_York,"(38.85158, -78.13734)",30.464106696710363,3821896.0,353_0_no,38.42090064597568,-78.01643920893306,50.0
22627,38.76554,-78.11371,Flint Hill,VA,Virginia,True,,780.0,9.4,51157,Rappahannock,"{""51157"": 100}",Rappahannock,51157,False,False,America/New_York,"(38.76554, -78.11371)",24.384812020720815,3821896.0,353_0_no,38.42090064597568,-78.01643920893306,50.0
22630,38.92909,-78.18052,Front Royal,VA,Virginia,True,,33623.0,106.5,51187,Warren,"{""51187"": 97.58, ""51069"": 1.63, ""51043"": 0.6, ""51061"": 0.19}",Warren|Frederick|Clarke|Fauquier,51187|51069|51043|51061,False,False,America/New_York,"(38.92909, -78.18052)",36.21083854470227,3821896.0,353_0_no,38.42090064597568,-78.01643920893306,50.0
22639,38.82625,-78.0321,Hume,VA,Virginia,True,,526.0,6.2,51061,Fauquier,"{""51061"": 100}",Fauquier,51061,False,False,America/New_York,"(38.82625, -78.0321)",28.019728201193043,3821896.0,353_0_no,38.42090064597568,-78.01643920893306,50.0
22640,38.80737,-78.13302,Huntly,VA,Virginia,True,,294.0,4.7,51157,Rappahannock,"{""51157"": 100}",Rappahannock,51157,False,False,America/New_York,"(38.80737, -78.13302)",27.43420140481138,3821896.0,353_0_no,38.42090064597568,-78.01643920893306,50.0
22641,39.07795,-78.38588,Strasburg,VA,Virginia,True,,470.0,37.6,51171,Shenandoah,"{""51171"": 99.86, ""51069"": 0.14}",Shenandoah|Frederick,51171|51069,False,False,America/New_York,"(39.07795, -78.38588)",49.57067372598861,3821896.0,353_0_no,38.42090064597568,-78.01643920893306,50.0
22642,38.91532,-78.06538,Linden,VA,Virginia,True,,4702.0,64.0,51187,Warren,"{""51187"": 52.1, ""51061"": 47.9}",Warren|Fauquier,51187|51061,False,False,America/New_York,"(38.91532, -78.06538)",34.26299531461512,3821896.0,353_0_no,38.42090064597568,-78.01643920893306,50.0
22643,38.9034,-78.00801,Markham,VA,Virginia,True,,286.0,5.2,51061,Fauquier,"{""51061"": 100}",Fauquier,51061,False,False,America/New_York,"(38.9034, -78.00801)",33.34063161249772,3821896.0,353_0_no,38.42090064597568,-78.01643920893306,50.0
22644,38.96362,-78.5314,Maurertown,VA,Virginia,True,,2415.0,15.4,51171,Shenandoah,"{""51171"": 100}",Shenandoah,51171,False,False,America/New_York,"(38.96362, -78.5314)",46.66193867348052,3821896.0,353_0_no,38.42090064597568,-78.01643920893306,50.0
22645,39.02152,-78.27457,Middletown,VA,Virginia,True,,4321.0,45.9,51069,Frederick,"{""51069"": 56.83, ""51187"": 43.17}",Frederick|Warren,51069|51187,False,False,America/New_York,"(39.02152, -78.27457)",43.76956454228897,3821896.0,353_0_no,38.42090064597568,-78.01643920893306,50.0
22646,39.07019,-78.04803,Millwood,VA,Virginia,True,,50.0,19.2,51043,Clarke,"{""51043"": 100}",Clarke,51043,False,False,America/New_York,"(39.07019, -78.04803)",44.893908869859764,3821896.0,353_0_no,38.42090064597568,-78.01643920893306,50.0
22650,38.75893,-78.35817,Rileyville,VA,Virginia,True,,656.0,8.6,51139,Page,"{""51139"": 100}",Page,51139,False,False,America/New_York,"(38.75893, -78.35817)",29.767107932977375,3821896.0,353_0_no,38.42090064597568,-78.01643920893306,50.0
22652,38.83921,-78.42894,Fort Valley,VA,Virginia,True,,1403.0,7.8,51171,Shenandoah,"{""51171"": 100}",Shenandoah,51171,False,False,America/New_York,"(38.83921, -78.42894)",36.48378527259265,3821896.0,353_0_no,38.42090064597568,-78.01643920893306,50.0
22654,39.06863,-78.4586,Star Tannery,VA,Virginia,True,,833.0,7.8,51069,Frederick,"{""51069"": 68.19, ""51171"": 31.81}",Frederick|Shenandoah,51069|51171,False,False,America/New_York,"(39.06863, -78.4586)",50.70146135092172,3821896.0,353_0_no,38.42090064597568,-78.01643920893306,50.0
22655,39.06443,-78.21425,Stephens City,VA,Virginia,True,,21567.0,235.0,51069,Frederick,"{""51069"": 91.59, ""51187"": 8.41}",Frederick|Warren,51069|51187,False,False,America/New_York,"(39.06443, -78.21425)",45.72362525055374,3821896.0,353_0_no,38.42090064597568,-78.01643920893306,50.0
22657,39.00155,-78.36755,Strasburg,VA,Virginia,True,,10389.0,69.5,51171,Shenandoah,"{""51171"": 85.88, ""51187"": 14.12}",Shenandoah|Warren,51171|51187,False,False,America/New_York,"(39.00155, -78.36755)",44.36065141627218,3821896.0,353_0_no,38.42090064597568,-78.01643920893306,50.0
22660,38.95628,-78.4383,Toms Brook,VA,Virginia,True,,1803.0,58.2,51171,Shenandoah,"{""51171"": 100}",Shenandoah,51171,False,False,America/New_York,"(38.95628, -78.4383)",43.42770102086348,3821896.0,353_0_no,38.42090064597568,-78.01643920893306,50.0
22663,39.05,-78.11716,White Post,VA,Virginia,True,,690.0,12.4,51043,Clarke,"{""51043"": 75.32, ""51069"": 16.1, ""51187"": 8.58}",Clarke|Frederick|Warren,51043|51069|51187,False,False,America/New_York,"(39.05, -78.11716)",43.804275344765834,3821896.0,353_0_no,38.42090064597568,-78.01643920893306,50.0
22664,38.8944,-78.53119,Woodstock,VA,Virginia,True,,9528.0,81.1,51171,Shenandoah,"{""51171"": 100}",Shenandoah,51171,False,False,America/New_York,"(38.8944, -78.53119)",42.914430844346434,3821896.0,353_0_no,38.42090064597568,-78.01643920893306,50.0
22701,38.44038,-77.99633,Culpeper,VA,Virginia,True,,34793.0,78.0,51047,Culpeper,"{""51047"": 78.54, ""51137"": 14.26, ""51113"": 7.2}",Culpeper|Orange|Madison,51047|51137|51113,False,False,America/New_York,"(38.44038, -77.99633)",1.7309178424761686,3821896.0,353_0_no,38.42090064597568,-78.01643920893306,50.0
22709,38.32769,-78.21732,Aroda,VA,Virginia,True,,1425.0,47.0,51113,Madison,"{""51113"": 100}",Madison,51113,False,False,America/New_York,"(38.32769, -78.21732)",12.644227899784708,3821896.0,353_0_no,38.42090064597568,-78.01643920893306,50.0
22711,38.46239,-78.27634,Banco,VA,Virginia,True,,25.0,4.2,51113,Madison,"{""51113"": 100}",Madison,51113,False,False,America/New_York,"(38.46239, -78.27634)",14.354165096972277,3821896.0,353_0_no,38.42090064597568,-78.01643920893306,50.0
22712,38.55632,-77.75884,Bealeton,VA,Virginia,True,,8209.0,87.4,51061,Fauquier,"{""51061"": 100}",Fauquier,51061,False,False,America/New_York,"(38.55632, -77.75884)",16.781798255823848,3821896.0,353_0_no,38.42090064597568,-78.01643920893306,50.0
22713,38.54123,-78.13204,Boston,VA,Virginia,True,,1812.0,31.4,51047,Culpeper,"{""51047"": 67.95, ""51157"": 32.05}",Culpeper|Rappahannock,51047|51157,False,False,America/New_York,"(38.54123, -78.13204)",10.402699608198132,3821896.0,353_0_no,38.42090064597568,-78.01643920893306,50.0
22714,38.52068,-77.89363,Brandy Station,VA,Virginia,True,,1027.0,18.9,51047,Culpeper,"{""51047"": 100}",Culpeper,51047,False,False,America/New_York,"(38.52068, -77.89363)",9.574069558732878,3821896.0,353_0_no,38.42090064597568,-78.01643920893306,50.0
22715,38.41032,-78.18541,Brightwood,VA,Virginia,True,,1379.0,73.7,51113,Madison,"{""51113"": 100}",Madison,51113,False,False,America/New_York,"(38.41032, -78.18541)",9.176629083802817,3821896.0,353_0_no,38.42090064597568,-78.01643920893306,50.0
22716,38.62596,-78.10794,Castleton,VA,Virginia,True,,757.0,11.5,51157,Rappahannock,"{""51157"": 97.1, ""51047"": 2.9}",Rappahannock|Culpeper,51157|51047,False,False,America/New_York,"(38.62596, -78.10794)",15.006777729757298,3821896.0,353_0_no,38.42090064597568,-78.01643920893306,50.0
22718,38.47076,-77.82026,Elkwood,VA,Virginia,True,,579.0,8.9,51047,Culpeper,"{""51047"": 100}",Culpeper,51047,False,False,America/New_York,"(38.47076, -77.82026)",11.160949339256517,3821896.0,353_0_no,38.42090064597568,-78.01643920893306,50.0
22719,38.52888,-78.28337,Etlan,VA,Virginia,True,,81.0,1.6,51113,Madison,"{""51113"": 100}",Madison,51113,False,False,America/New_York,"(38.52888, -78.28337)",16.25238639654276,3821896.0,353_0_no,38.42090064597568,-78.01643920893306,50.0
22720,38.48044,-77.6468,Goldvein,VA,Virginia,True,,1060.0,29.6,51061,Fauquier,"{""51061"": 100}",Fauquier,51061,False,False,America/New_York,"(38.48044, -77.6468)",20.41986493272333,3821896.0,353_0_no,38.42090064597568,-78.01643920893306,50.0
22722,38.46304,-78.22645,Haywood,VA,Virginia,True,,421.0,62.1,51113,Madison,"{""51113"": 100}",Madison,51113,False,False,America/New_York,"(38.46304, -78.22645)",11.732089199607747,3821896.0,353_0_no,38.42090064597568,-78.01643920893306,50.0
22723,38.33789,-78.38821,Hood,VA,Virginia,True,,114.0,11.7,51113,Madison,"{""51113"": 99.86, ""51079"": 0.14}",Madison|Greene,51113|51079,False,False,America/New_York,"(38.33789, -78.38821)",20.937283578424207,3821896.0,353_0_no,38.42090064597568,-78.01643920893306,50.0
22724,38.63286,-77.90752,Jeffersonton,VA,Virginia,True,,2342.0,55.0,51047,Culpeper,"{""51047"": 100}",Culpeper,51047,False,False,America/New_York,"(38.63286, -77.90752)",15.784082355818072,3821896.0,353_0_no,38.42090064597568,-78.01643920893306,50.0
22726,38.40179,-77.81796,Lignum,VA,Virginia,True,,886.0,20.2,51047,Culpeper,"{""51047"": 100}",Culpeper,51047,False,False,America/New_York,"(38.40179, -77.81796)",10.826397917601337,3821896.0,353_0_no,38.42090064597568,-78.01643920893306,50.0
22727,38.39626,-78.30058,Madison,VA,Virginia,True,,5761.0,20.9,51113,Madison,"{""51113"": 100}",Madison,51113,False,False,America/New_York,"(38.39626, -78.30058)",15.477760148550647,3821896.0,353_0_no,38.42090064597568,-78.01643920893306,50.0
22728,38.57773,-77.68639,Midland,VA,Virginia,True,,2615.0,20.8,51061,Fauquier,"{""51061"": 100}",Fauquier,51061,False,False,America/New_York,"(38.57773, -77.68639)",20.878906388419388,3821896.0,353_0_no,38.42090064597568,-78.01643920893306,50.0
22729,38.35658,-78.01596,Mitchells,VA,Virginia,True,,1391.0,52.5,51047,Culpeper,"{""51047"": 100}",Culpeper,51047,False,False,America/New_York,"(38.35658, -78.01596)",4.444209117520239,3821896.0,353_0_no,38.42090064597568,-78.01643920893306,50.0
22730,38.36782,-78.16635,Oakpark,VA,Virginia,True,,211.0,20.2,51113,Madison,"{""51113"": 100}",Madison,51113,False,False,America/New_York,"(38.36782, -78.16635)",8.908019696619528,3821896.0,353_0_no,38.42090064597568,-78.01643920893306,50.0
22731,38.34413,-78.26151,Pratts,VA,Virginia,True,,35.0,7.1,51113,Madison,"{""51113"": 100}",Madison,51113,False,False,America/New_York,"(38.34413, -78.26151)",14.293944744511466,3821896.0,353_0_no,38.42090064597568,-78.01643920893306,50.0
22732,38.30886,-78.19153,Radiant,VA,Virginia,True,,89.0,8.6,51113,Madison,"{""51113"": 100}",Madison,51113,False,False,America/New_York,"(38.30886, -78.19153)",12.243388901933407,3821896.0,353_0_no,38.42090064597568,-78.01643920893306,50.0
22733,38.33191,-78.0467,Rapidan,VA,Virginia,True,,1314.0,11.4,51047,Culpeper,"{""51047"": 50.35, ""51137"": 47.53, ""51113"": 2.12}",Culpeper|Orange|Madison,51047|51137|51113,False,False,America/New_York,"(38.33191, -78.0467)",6.363392028350531,3821896.0,353_0_no,38.42090064597568,-78.01643920893306,50.0
22734,38.52757,-77.81119,Remington,VA,Virginia,True,,3641.0,39.3,51061,Fauquier,"{""51061"": 65.3, ""51047"": 34.7}",Fauquier|Culpeper,51061|51047,False,False,America/New_York,"(38.52757, -77.81119)",13.326019121134145,3821896.0,353_0_no,38.42090064597568,-78.01643920893306,50.0
22735,38.47941,-78.18336,Reva,VA,Virginia,True,,2686.0,32.5,51113,Madison,"{""51113"": 62.84, ""51047"": 37.16}",Madison|Culpeper,51113|51047,False,False,America/New_York,"(38.47941, -78.18336)",9.895586137611641,3821896.0,353_0_no,38.42090064597568,-78.01643920893306,50.0
22736,38.39633,-77.69673,Richardsville,VA,Virginia,True,,990.0,15.8,51047,Culpeper,"{""51047"": 100}",Culpeper,51047,False,False,America/New_York,"(38.39633, -77.69673)",17.392613086872593,3821896.0,353_0_no,38.42090064597568,-78.01643920893306,50.0
22737,38.59024,-78.00205,Rixeyville,VA,Virginia,True,,3475.0,32.4,51047,Culpeper,"{""51047"": 100}",Culpeper,51047,False,False,America/New_York,"(38.59024, -78.00205)",11.726073242016327,3821896.0,353_0_no,38.42090064597568,-78.01643920893306,50.0
22738,38.28692,-78.27685,Rochelle,VA,Virginia,True,,1394.0,22.3,51113,Madison,"{""51113"": 100}",Madison,51113,False,False,America/New_York,"(38.28692, -78.27685)",16.875406449706777,3821896.0,353_0_no,38.42090064597568,-78.01643920893306,50.0
22740,38.63805,-78.26163,Sperryville,VA,Virginia,True,,922.0,4.8,51157,Rappahannock,"{""51157"": 93.8, ""51047"": 4.29, ""51113"": 1.91}",Rappahannock|Culpeper|Madison,51157|51047|51113,False,False,America/New_York,"(38.63805, -78.26163)",20.018580057608833,3821896.0,353_0_no,38.42090064597568,-78.01643920893306,50.0
22741,38.44541,-77.86819,Stevensburg,VA,Virginia,True,,209.0,12.4,51047,Culpeper,"{""51047"": 100}",Culpeper,51047,False,False,America/New_York,"(38.44541, -77.86819)",8.200478816087761,3821896.0,353_0_no,38.42090064597568,-78.01643920893306,50.0
22742,38.4589,-77.71179,Sumerduck,VA,Virginia,True,,1838.0,35.5,51061,Fauquier,"{""51061"": 100}",Fauquier,51061,False,False,America/New_York,"(38.4589, -77.71179)",16.694788792245518,3821896.0,353_0_no,38.42090064597568,-78.01643920893306,50.0
22743,38.52477,-78.37132,Syria,VA,Virginia,True,,183.0,1.2,51113,Madison,"{""51113"": 100}",Madison,51113,False,False,America/New_York,"(38.52477, -78.37132)",20.494354012847744,3821896.0,353_0_no,38.42090064597568,-78.01643920893306,50.0
22747,38.7122,-78.16768,Washington,VA,Virginia,True,,1261.0,11.9,51157,Rappahannock,"{""51157"": 100}",Rappahannock,51157,False,False,America/New_York,"(38.7122, -78.16768)",21.72204758826077,3821896.0,353_0_no,38.42090064597568,-78.01643920893306,50.0
22749,38.61945,-78.18394,Woodville,VA,Virginia,True,,225.0,3.0,51157,Rappahannock,"{""51157"": 100}",Rappahannock,51157,False,False,America/New_York,"(38.61945, -78.18394)",16.437278373386206,3821896.0,353_0_no,38.42090064597568,-78.01643920893306,50.0
22801,38.40519,-78.87931,Harrisonburg,VA,Virginia,True,,40284.0,458.5,51165,Rockingham,"{""51165"": 68.82, ""51660"": 31.18}",Rockingham|Harrisonburg,51165|51660,False,False,America/New_York,"(38.40519, -78.87931)",46.726786328646796,3821896.0,353_0_no,38.42090064597568,-78.01643920893306,50.0
22802,38.50016,-78.8585,Harrisonburg,VA,Virginia,True,,30534.0,129.6,51165,Rockingham,"{""51165"": 93.3, ""51660"": 6.7}",Rockingham|Harrisonburg,51165|51660,False,False,America/New_York,"(38.50016, -78.8585)",45.885546794029324,3821896.0,353_0_no,38.42090064597568,-78.01643920893306,50.0
22807,38.43495,-78.86736,Harrisonburg,VA,Virginia,True,,3345.0,1982.0,51660,Harrisonburg,"{""51660"": 100}",Harrisonburg,51660,False,False,America/New_York,"(38.43495, -78.86736)",46.06797038559818,3821896.0,353_0_no,38.42090064597568,-78.01643920893306,50.0
22810,38.84466,-78.78554,Basye,VA,Virginia,True,,754.0,15.2,51171,Shenandoah,"{""51171"": 100}",Shenandoah,51171,False,False,America/New_York,"(38.84466, -78.78554)",50.797422543181106,3821896.0,353_0_no,38.42090064597568,-78.01643920893306,50.0
22815,38.63469,-78.80939,Broadway,VA,Virginia,True,,8915.0,48.6,51165,Rockingham,"{""51165"": 96.96, ""51171"": 3.04}",Rockingham|Shenandoah,51165|51171,False,False,America/New_York,"(38.63469, -78.80939)",45.33453936791294,3821896.0,353_0_no,38.42090064597568,-78.01643920893306,50.0
22824,38.84743,-78.6278,Edinburg,VA,Virginia,True,,6410.0,29.0,51171,Shenandoah,"{""51171"": 100}",Shenandoah,51171,False,False,America/New_York,"(38.84743, -78.6278)",44.240847207503144,3821896.0,353_0_no,38.42090064597568,-78.01643920893306,50.0
22827,38.3903,-78.6131,Elkton,VA,Virginia,True,,10675.0,25.9,51165,Rockingham,"{""51165"": 77.75, ""51139"": 22.25}",Rockingham|Page,51165|51139,False,False,America/New_York,"(38.3903, -78.6131)",32.374577742499966,3821896.0,353_0_no,38.42090064597568,-78.01643920893306,50.0
22832,38.45778,-78.75692,Keezletown,VA,Virginia,True,,743.0,13.8,51165,Rockingham,"{""51165"": 100}",Rockingham,51165,False,False,America/New_York,"(38.45778, -78.75692)",40.15458964648149,3821896.0,353_0_no,38.42090064597568,-78.01643920893306,50.0
22834,38.55709,-78.85769,Linville,VA,Virginia,True,,1057.0,21.6,51165,Rockingham,"{""51165"": 100}",Rockingham,51165,False,False,America/New_York,"(38.55709, -78.85769)",46.458687834169716,3821896.0,353_0_no,38.42090064597568,-78.01643920893306,50.0
22835,38.67199,-78.4548,Luray,VA,Virginia,True,,12077.0,31.2,51139,Page,"{""51139"": 100}",Page,51139,False,False,America/New_York,"(38.67199, -78.4548)",29.361589518951288,3821896.0,353_0_no,38.42090064597568,-78.01643920893306,50.0
22840,38.38642,-78.73845,McGaheysville,VA,Virginia,True,,5065.0,62.3,51165,Rockingham,"{""51165"": 100}",Rockingham,51165,False,False,America/New_York,"(38.38642, -78.73845)",39.16592780146692,3821896.0,353_0_no,38.42090064597568,-78.01643920893306,50.0
22841,38.33887,-78.89417,Mount Crawford,VA,Virginia,True,,2746.0,35.3,51165,Rockingham,"{""51165"": 98.12, ""51015"": 1.88}",Rockingham|Augusta,51165|51015,False,False,America/New_York,"(38.33887, -78.89417)",47.877115164955306,3821896.0,353_0_no,38.42090064597568,-78.01643920893306,50.0
22842,38.77191,-78.6992,Mount Jackson,VA,Virginia,True,,5572.0,26.3,51171,Shenandoah,"{""51171"": 100}",Shenandoah,51171,False,False,America/New_York,"(38.77191, -78.6992)",44.130746617697845,3821896.0,353_0_no,38.42090064597568,-78.01643920893306,50.0
22844,38.65886,-78.66038,New Market,VA,Virginia,True,,4881.0,38.0,51171,Shenandoah,"{""51171"": 80.82, ""51165"": 19.18}",Shenandoah|Rockingham,51171|51165,False,False,America/New_York,"(38.65886, -78.66038)",38.48883211174434,3821896.0,353_0_no,38.42090064597568,-78.01643920893306,50.0
22845,38.77991,-78.8375,Orkney Springs,VA,Virginia,True,,8.0,0.5,51171,Shenandoah,"{""51171"": 99.65, ""51165"": 0.35}",Shenandoah|Rockingham,51171|51165,False,False,America/New_York,"(38.77991, -78.8375)",50.80242540234704,3821896.0,353_0_no,38.42090064597568,-78.01643920893306,50.0
22846,38.38791,-78.79239,Penn Laird,VA,Virginia,True,,1843.0,64.0,51165,Rockingham,"{""51165"": 100}",Rockingham,51165,False,False,America/New_York,"(38.38791, -78.79239)",42.07533387729748,3821896.0,353_0_no,38.42090064597568,-78.01643920893306,50.0
22847,38.71792,-78.70972,Quicksburg,VA,Virginia,True,,718.0,19.3,51171,Shenandoah,"{""51171"": 100}",Shenandoah,51171,False,False,America/New_York,"(38.71792, -78.70972)",42.70559431064677,3821896.0,353_0_no,38.42090064597568,-78.01643920893306,50.0
22849,38.5256,-78.6253,Shenandoah,VA,Virginia,True,,4957.0,41.5,51139,Page,"{""51139"": 87.96, ""51165"": 12.04}",Page|Rockingham,51139|51165,False,False,America/New_York,"(38.5256, -78.6253)",33.72022627865274,3821896.0,353_0_no,38.42090064597568,-78.01643920893306,50.0
22850,38.56668,-78.92048,Singers Glen,VA,Virginia,True,,1302.0,37.5,51165,Rockingham,"{""51165"": 100}",Rockingham,51165,False,False,America/New_York,"(38.56668, -78.92048)",49.9150623216278,3821896.0,353_0_no,38.42090064597568,-78.01643920893306,50.0
22851,38.56061,-78.51061,Stanley,VA,Virginia,True,,6002.0,42.1,51139,Page,"{""51139"": 100}",Page,51139,False,False,America/New_York,"(38.56061, -78.51061)",28.414618486467965,3821896.0,353_0_no,38.42090064597568,-78.01643920893306,50.0
22853,38.65156,-78.76406,Timberville,VA,Virginia,True,,4339.0,43.0,51165,Rockingham,"{""51165"": 91.5, ""51171"": 8.5}",Rockingham|Shenandoah,51165|51171,False,False,America/New_York,"(38.65156, -78.76406)",43.435050402254106,3821896.0,353_0_no,38.42090064597568,-78.01643920893306,50.0
22901,38.08874,-78.55569,Charlottesville,VA,Virginia,True,,34687.0,256.7,51003,Albemarle,"{""51003"": 94.71, ""51540"": 5.29}",Albemarle|Charlottesville,51003|51540,False,False,America/New_York,"(38.08874, -78.55569)",37.18501133501713,3821896.0,353_0_no,38.42090064597568,-78.01643920893306,50.0
22902,37.95566,-78.46883,Charlottesville,VA,Virginia,True,,25815.0,155.0,51003,Albemarle,"{""51003"": 94.38, ""51540"": 4.27, ""51065"": 1.35}",Albemarle|Charlottesville|Fluvanna,51003|51540|51065,False,False,America/New_York,"(37.95566, -78.46883)",40.45818313216295,3821896.0,353_0_no,38.42090064597568,-78.01643920893306,50.0
22903,38.01239,-78.60159,Charlottesville,VA,Virginia,True,,40192.0,224.9,51003,Albemarle,"{""51003"": 93.31, ""51540"": 6.69}",Albemarle|Charlottesville,51003|51540,False,False,America/New_York,"(38.01239, -78.60159)",42.493195147034896,3821896.0,353_0_no,38.42090064597568,-78.01643920893306,50.0
22904,38.03492,-78.51161,Charlottesville,VA,Virginia,True,,5634.0,8336.8,51003,Albemarle,"{""51003"": 89.88, ""51540"": 10.12}",Albemarle|Charlottesville,51003|51540,False,False,America/New_York,"(38.03492, -78.51161)",37.86216870704043,3821896.0,353_0_no,38.42090064597568,-78.01643920893306,50.0
22911,38.09522,-78.4078,Charlottesville,VA,Virginia,True,,18610.0,139.8,51003,Albemarle,"{""51003"": 100}",Albemarle,51003,False,False,America/New_York,"(38.09522, -78.4078)",30.93852732572106,3821896.0,353_0_no,38.42090064597568,-78.01643920893306,50.0
22920,37.97294,-78.81276,Afton,VA,Virginia,True,,3731.0,18.6,51125,Nelson,"{""51125"": 58.21, ""51003"": 37.02, ""51015"": 4.77}",Nelson|Albemarle|Augusta,51125|51003|51015,False,False,America/New_York,"(37.97294, -78.81276)",53.175550197814474,3821896.0,353_0_no,38.42090064597568,-78.01643920893306,50.0
22923,38.18671,-78.32405,Barboursville,VA,Virginia,True,,5766.0,47.0,51003,Albemarle,"{""51003"": 43.13, ""51137"": 41.95, ""51079"": 14.91}",Albemarle|Orange|Greene,51003|51137|51079,False,False,America/New_York,"(38.18671, -78.32405)",23.237952526433205,3821896.0,353_0_no,38.42090064597568,-78.01643920893306,50.0
22931,37.90374,-78.71696,Covesville,VA,Virginia,True,,188.0,5.2,51003,Albemarle,"{""51003"": 100}",Albemarle,51003,False,False,America/New_York,"(37.90374, -78.71696)",52.201973290918396,3821896.0,353_0_no,38.42090064597568,-78.01643920893306,50.0
22932,38.15037,-78.69743,Crozet,VA,Virginia,True,,7779.0,29.6,51003,Albemarle,"{""51003"": 100}",Albemarle,51003,False,False,America/New_York,"(38.15037, -78.69743)",41.393111677078025,3821896.0,353_0_no,38.42090064597568,-78.01643920893306,50.0
22935,38.25785,-78.55474,Dyke,VA,Virginia,True,,814.0,14.1,51079,Greene,"{""51079"": 62.47, ""51003"": 37.53}",Greene|Albemarle,51079|51003,False,False,America/New_York,"(38.25785, -78.55474)",31.2720294581431,3821896.0,353_0_no,38.42090064597568,-78.01643920893306,50.0
22936,38.1671,-78.49974,Earlysville,VA,Virginia,True,,4950.0,51.2,51003,Albemarle,"{""51003"": 100}",Albemarle,51003,False,False,America/New_York,"(38.1671, -78.49974)",31.533647714775245,3821896.0,353_0_no,38.42090064597568,-78.01643920893306,50.0
22937,37.81297,-78.60891,Esmont,VA,Virginia,True,,2152.0,16.6,51003,Albemarle,"{""51003"": 100}",Albemarle,51003,False,False,America/New_York,"(37.81297, -78.60891)",52.92972536423847,3821896.0,353_0_no,38.42090064597568,-78.01643920893306,50.0
22938,37.86256,-78.78248,Faber,VA,Virginia,True,,833.0,8.9,51125,Nelson,"{""51125"": 90.98, ""51003"": 9.02}",Nelson|Albemarle,51125|51003,False,False,America/New_York,"(37.86256, -78.78248)",56.75409566593214,3821896.0,353_0_no,38.42090064597568,-78.01643920893306,50.0
22940,38.20559,-78.59705,Free Union,VA,Virginia,True,,1266.0,14.0,51003,Albemarle,"{""51003"": 75.55, ""51079"": 24.45}",Albemarle|Greene,51003|51079,False,False,America/New_York,"(38.20559, -78.59705)",34.81499810314755,3821896.0,353_0_no,38.42090064597568,-78.01643920893306,50.0
22942,38.10397,-78.19684,Gordonsville,VA,Virginia,True,,10494.0,34.4,51109,Louisa,"{""51109"": 52.08, ""51137"": 34.55, ""51003"": 13.37}",Louisa|Orange|Albemarle,51109|51137|51003,False,False,America/New_York,"(38.10397, -78.19684)",23.98536123705433,3821896.0,353_0_no,38.42090064597568,-78.01643920893306,50.0
22943,38.04508,-78.78369,Greenwood,VA,Virginia,True,,549.0,18.4,51003,Albemarle,"{""51003"": 100}",Albemarle,51003,False,False,America/New_York,"(38.04508, -78.78369)",49.073536685068504,3821896.0,353_0_no,38.42090064597568,-78.01643920893306,50.0
22946,37.84789,-78.56053,Keene,VA,Virginia,True,,198.0,40.7,51003,Albemarle,"{""51003"": 100}",Albemarle,51003,False,False,America/New_York,"(37.84789, -78.56053)",49.414510622396556,3821896.0,353_0_no,38.42090064597568,-78.01643920893306,50.0
22947,38.04326,-78.32624,Keswick,VA,Virginia,True,,3837.0,30.7,51003,Albemarle,"{""51003"": 88.16, ""51109"": 6.57, ""51065"": 5.27}",Albemarle|Louisa|Fluvanna,51003|51109|51065,False,False,America/New_York,"(38.04326, -78.32624)",31.040704091590417,3821896.0,353_0_no,38.42090064597568,-78.01643920893306,50.0
22948,38.35154,-78.12264,Locust Dale,VA,Virginia,True,,143.0,8.0,51113,Madison,"{""51113"": 100}",Madison,51113,False,False,America/New_York,"(38.35154, -78.12264)",7.486545571119836,3821896.0,353_0_no,38.42090064597568,-78.01643920893306,50.0
22949,37.788,-78.88257,Lovingston,VA,Virginia,True,,1084.0,10.4,51125,Nelson,"{""51125"": 100}",Nelson,51125,False,False,America/New_York,"(37.788, -78.88257)",64.26256012896576,3821896.0,353_0_no,38.42090064597568,-78.01643920893306,50.0
22958,37.8983,-78.89611,Nellysford,VA,Virginia,True,,2082.0,28.0,51125,Nelson,"{""51125"": 97.3, ""51015"": 2.7}",Nelson|Augusta,51125|51015,False,False,America/New_York,"(37.8983, -78.89611)",59.89717584601734,3821896.0,353_0_no,38.42090064597568,-78.01643920893306,50.0
22959,37.93758,-78.64794,North Garden,VA,Virginia,True,,1679.0,14.0,51003,Albemarle,"{""51003"": 100}",Albemarle,51003,False,False,America/New_York,"(37.93758, -78.64794)",47.87018844141146,3821896.0,353_0_no,38.42090064597568,-78.01643920893306,50.0
22960,38.21992,-78.06624,Orange,VA,Virginia,True,,10319.0,32.7,51137,Orange,"{""51137"": 79.68, ""51113"": 16.22, ""51177"": 4.1}",Orange|Madison|Spotsylvania,51137|51113|51177,False,False,America/New_York,"(38.21992, -78.06624)",14.146410845310742,3821896.0,353_0_no,38.42090064597568,-78.01643920893306,50.0
22963,37.84793,-78.28524,Palmyra,VA,Virginia,True,,16170.0,50.1,51065,Fluvanna,"{""51065"": 100}",Fluvanna,51065,False,False,America/New_York,"(37.84793, -78.28524)",42.19772905971843,3821896.0,353_0_no,38.42090064597568,-78.01643920893306,50.0
22968,38.24111,-78.39407,Ruckersville,VA,Virginia,True,,10865.0,113.1,51079,Greene,"{""51079"": 91.06, ""51003"": 7.29, ""51137"": 1.65}",Greene|Albemarle|Orange,51079|51003|51137,False,False,America/New_York,"(38.24111, -78.39407)",23.942238758308743,3821896.0,353_0_no,38.42090064597568,-78.01643920893306,50.0
22969,37.79699,-78.69367,Schuyler,VA,Virginia,True,,1966.0,16.8,51125,Nelson,"{""51125"": 53.39, ""51003"": 46.61}",Nelson|Albemarle,51125|51003,False,False,America/New_York,"(37.79699, -78.69367)",56.690599048690665,3821896.0,353_0_no,38.42090064597568,-78.01643920893306,50.0
22971,37.75019,-78.80299,Shipman,VA,Virginia,True,,1921.0,13.3,51125,Nelson,"{""51125"": 100}",Nelson,51125,False,False,America/New_York,"(37.75019, -78.80299)",63.06478818289968,3821896.0,353_0_no,38.42090064597568,-78.01643920893306,50.0
22972,38.21746,-78.23451,Somerset,VA,Virginia,True,,430.0,10.1,51137,Orange,"{""51137"": 95.24, ""51113"": 4.76}",Orange|Madison,51137|51113,False,False,America/New_York,"(38.21746, -78.23451)",18.366417889446925,3821896.0,353_0_no,38.42090064597568,-78.01643920893306,50.0
22973,38.33588,-78.46915,Stanardsville,VA,Virginia,True,,5750.0,21.5,51079,Greene,"{""51079"": 89.63, ""51113"": 10.37}",Greene|Madison,51079|51113,False,False,America/New_York,"(38.33588, -78.46915)",25.214543969036857,3821896.0,353_0_no,38.42090064597568,-78.01643920893306,50.0
22974,37.96207,-78.2753,Troy,VA,Virginia,True,,5180.0,55.5,51065,Fluvanna,"{""51065"": 76.74, ""51109"": 14.8, ""51003"": 8.46}",Fluvanna|Louisa|Albemarle,51065|51109|51003,False,False,America/New_York,"(37.96207, -78.2753)",34.67893233071576,3821896.0,353_0_no,38.42090064597568,-78.01643920893306,50.0
22980,38.09588,-78.88585,Waynesboro,VA,Virginia,True,,31800.0,164.7,51015,Augusta,"{""51015"": 79.85, ""51820"": 20.15}",Augusta|Waynesboro,51015|51820,False,False,America/New_York,"(38.09588, -78.88585)",52.24162085154001,3821896.0,353_0_no,38.42090064597568,-78.01643920893306,50.0
22989,38.29328,-78.11943,Woodberry Forest,VA,Virginia,True,,19.0,4.2,51113,Madison,"{""51113"": 100}",Madison,51113,False,False,America/New_York,"(38.29328, -78.11943)",10.43502229875843,3821896.0,353_0_no,38.42090064597568,-78.01643920893306,50.0
23005,37.75982,-77.4826,Ashland,VA,Virginia,True,,18059.0,100.6,51085,Hanover,"{""51085"": 100}",Hanover,51085,False,False,America/New_York,"(37.75982, -77.4826)",54.12045756845503,3821896.0,353_0_no,38.42090064597568,-78.01643920893306,50.0
23009,37.81038,-77.18717,Aylett,VA,Virginia,True,,6955.0,33.1,51101,King William,"{""51101"": 100}",King William,51101,False,False,America/New_York,"(37.81038, -77.18717)",61.737233141516754,3821896.0,353_0_no,38.42090064597568,-78.01643920893306,50.0
23015,37.93127,-77.63124,Beaverdam,VA,Virginia,True,,4101.0,18.2,51085,Hanover,"{""51085"": 76.89, ""51177"": 14.5, ""51033"": 7.68, ""51109"": 0.93}",Hanover|Spotsylvania|Caroline|Louisa,51085|51177|51033|51109,False,False,America/New_York,"(37.93127, -77.63124)",39.77710338195219,3821896.0,353_0_no,38.42090064597568,-78.01643920893306,50.0
23022,37.7353,-78.26432,Bremo Bluff,VA,Virginia,True,,798.0,11.9,51065,Fluvanna,"{""51065"": 100}",Fluvanna,51065,False,False,America/New_York,"(37.7353, -78.26432)",49.25156635687652,3821896.0,353_0_no,38.42090064597568,-78.01643920893306,50.0
23024,37.92448,-77.77554,Bumpass,VA,Virginia,True,,9492.0,34.0,51109,Louisa,"{""51109"": 80.4, ""51177"": 15.16, ""51085"": 4.44}",Louisa|Spotsylvania|Hanover,51109|51177|51085,False,False,America/New_York,"(37.92448, -77.77554)",36.710577877747994,3821896.0,353_0_no,38.42090064597568,-78.01643920893306,50.0
23038,37.75627,-78.14552,Columbia,VA,Virginia,True,,1612.0,8.3,51075,Goochland,"{""51075"": 40.72, ""51049"": 39.3, ""51065"": 19.98}",Goochland|Cumberland|Fluvanna,51075|51049|51065,False,False,America/New_York,"(37.75627, -78.14552)",46.45498057988856,3821896.0,353_0_no,38.42090064597568,-78.01643920893306,50.0
23047,37.84765,-77.48973,Doswell,VA,Virginia,True,,1628.0,14.6,51085,Hanover,"{""51085"": 88.39, ""51033"": 11.61}",Hanover|Caroline,51085|51033,False,False,America/New_York,"(37.84765, -77.48973)",48.86859622381292,3821896.0,353_0_no,38.42090064597568,-78.01643920893306,50.0
23055,37.7706,-78.21852,Fork Union,VA,Virginia,True,,1198.0,33.1,51065,Fluvanna,"{""51065"": 100}",Fluvanna,51065,False,False,America/New_York,"(37.7706, -78.21852)",46.25554727674147,3821896.0,353_0_no,38.42090064597568,-78.01643920893306,50.0
23059,37.70424,-77.56539,Glen Allen,VA,Virginia,True,,39602.0,333.6,51085,Hanover,"{""51085"": 59.12, ""51087"": 39.03, ""51075"": 1.85}",Hanover|Henrico|Goochland,51085|51087|51075,False,False,America/New_York,"(37.70424, -77.56539)",55.26236493077771,3821896.0,353_0_no,38.42090064597568,-78.01643920893306,50.0
23063,37.71694,-77.99882,Goochland,VA,Virginia,True,,4610.0,17.4,51075,Goochland,"{""51075"": 100}",Goochland,51075,False,False,America/New_York,"(37.71694, -77.99882)",48.64848891457892,3821896.0,353_0_no,38.42090064597568,-78.01643920893306,50.0
23065,37.8016,-77.92979,Gum Spring,VA,Virginia,True,,1956.0,44.4,51075,Goochland,"{""51075"": 76.2, ""51109"": 23.8}",Goochland|Louisa,51075|51109,False,False,America/New_York,"(37.8016, -77.92979)",43.048096569829006,3821896.0,353_0_no,38.42090064597568,-78.01643920893306,50.0
23069,37.76924,-77.32874,Hanover,VA,Virginia,True,,2817.0,15.7,51085,Hanover,"{""51085"": 41.69, ""51101"": 35.39, ""51033"": 22.92}",Hanover|King William|Caroline,51085|51101|51033,False,False,America/New_York,"(37.76924, -77.32874)",58.52831433814396,3821896.0,353_0_no,38.42090064597568,-78.01643920893306,50.0
23084,37.8864,-78.11162,Kents Store,VA,Virginia,True,,1504.0,14.9,51065,Fluvanna,"{""51065"": 73.71, ""51075"": 19.21, ""51109"": 7.08}",Fluvanna|Goochland|Louisa,51065|51075|51109,False,False,America/New_York,"(37.8864, -78.11162)",37.290785188936475,3821896.0,353_0_no,38.42090064597568,-78.01643920893306,50.0
23093,38.00153,-78.03595,Louisa,VA,Virginia,True,,13441.0,25.5,51109,Louisa,"{""51109"": 94.97, ""51075"": 4.24, ""51065"": 0.79}",Louisa|Goochland|Fluvanna,51109|51075|51065,False,False,America/New_York,"(38.00153, -78.03595)",28.995105317410605,3821896.0,353_0_no,38.42090064597568,-78.01643920893306,50.0
23102,37.71053,-77.83325,Maidens,VA,Virginia,True,,3562.0,50.1,51075,Goochland,"{""51075"": 76.06, ""51109"": 17.55, ""51085"": 6.39}",Goochland|Louisa|Hanover,51075|51109|51085,False,False,America/New_York,"(37.71053, -77.83325)",50.08327968092787,3821896.0,353_0_no,38.42090064597568,-78.01643920893306,50.0
23106,37.71524,-77.2062,Manquin,VA,Virginia,True,,1381.0,22.4,51101,King William,"{""51101"": 100}",King William,51101,False,False,America/New_York,"(37.71524, -77.2062)",65.72363845491829,3821896.0,353_0_no,38.42090064597568,-78.01643920893306,50.0
23117,37.97736,-77.87365,Mineral,VA,Virginia,True,,9817.0,26.5,51109,Louisa,"{""51109"": 88.46, ""51177"": 8.46, ""51075"": 3.08}",Louisa|Spotsylvania|Goochland,51109|51177|51075,False,False,America/New_York,"(37.97736, -77.87365)",31.611272185715205,3821896.0,353_0_no,38.42090064597568,-78.01643920893306,50.0
23126,37.92285,-77.1448,Newtown,VA,Virginia,True,,505.0,8.8,51097,King and Queen,"{""51097"": 100}",King and Queen,51097,False,False,America/New_York,"(37.92285, -77.1448)",58.53022689865287,3821896.0,353_0_no,38.42090064597568,-78.01643920893306,50.0
23129,37.705,-77.78261,Oilville,VA,Virginia,True,,542.0,52.2,51075,Goochland,"{""51075"": 100}",Goochland,51075,False,False,America/New_York,"(37.705, -77.78261)",51.073352604128345,3821896.0,353_0_no,38.42090064597568,-78.01643920893306,50.0
23146,37.7273,-77.70928,Rockville,VA,Virginia,True,,3356.0,40.2,51085,Hanover,"{""51085"": 78.47, ""51075"": 21.53}",Hanover|Goochland,51085|51075,False,False,America/New_York,"(37.7273, -77.70928)",50.7517857606608,3821896.0,353_0_no,38.42090064597568,-78.01643920893306,50.0
23153,37.77641,-77.95719,Sandy Hook,VA,Virginia,True,,1245.0,36.2,51075,Goochland,"{""51075"": 99.71, ""51109"": 0.29}",Goochland|Louisa,51075|51109,False,False,America/New_York,"(37.77641, -77.95719)",44.646439658327026,3821896.0,353_0_no,38.42090064597568,-78.01643920893306,50.0
23192,37.81732,-77.68209,Montpelier,VA,Virginia,True,,6785.0,38.6,51085,Hanover,"{""51085"": 95.94, ""51109"": 4.06}",Hanover|Louisa,51085|51109,False,False,America/New_York,"(37.81732, -77.68209)",45.49154670983397,3821896.0,353_0_no,38.42090064597568,-78.01643920893306,50.0
24431,38.16897,-78.83924,Crimora,VA,Virginia,True,,2567.0,66.4,51015,Augusta,"{""51015"": 100}",Augusta,51015,False,False,America/New_York,"(38.16897, -78.83924)",47.892752729340195,3821896.0,353_0_no,38.42090064597568,-78.01643920893306,50.0
24437,38.2116,-78.933,Fort Defiance,VA,Virginia,True,,1520.0,53.6,51015,Augusta,"{""51015"": 100}",Augusta,51015,False,False,America/New_York,"(38.2116, -78.933)",51.74883670658932,3821896.0,353_0_no,38.42090064597568,-78.01643920893306,50.0
24441,38.22823,-78.8109,Grottoes,VA,Virginia,True,,5765.0,42.0,51015,Augusta,"{""51015"": 65.52, ""51165"": 34.48}",Augusta|Rockingham,51015|51165,False,False,America/New_York,"(38.22823, -78.8109)",45.073867064442865,3821896.0,353_0_no,38.42090064597568,-78.01643920893306,50.0
24471,38.30837,-78.79645,Port Republic,VA,Virginia,True,,1623.0,38.0,51165,Rockingham,"{""51165"": 100}",Rockingham,51165,False,False,America/New_York,"(38.30837, -78.79645)",42.96593059730141,3821896.0,353_0_no,38.42090064597568,-78.01643920893306,50.0
24486,38.29366,-78.92925,Weyers Cave,VA,Virginia,True,,3269.0,52.2,51015,Augusta,"{""51015"": 90.8, ""51165"": 9.2}",Augusta|Rockingham,51015|51165,False,False,America/New_York,"(38.29366, -78.92925)",50.2312274907199,3821896.0,353_0_no,38.42090064597568,-78.01643920893306,50.0
24562,37.70577,-78.62241,Howardsville,VA,Virginia,True,,661.0,11.2,51029,Buckingham,"{""51029"": 64.72, ""51125"": 27.28, ""51003"": 8.0}",Buckingham|Nelson|Albemarle,51029|51125|51003,False,False,America/New_York,"(37.70577, -78.62241)",59.39727460982392,3821896.0,353_0_no,38.42090064597568,-78.01643920893306,50.0
24590,37.79353,-78.47767,Scottsville,VA,Virginia,True,,8179.0,19.5,51029,Buckingham,"{""51029"": 35.8, ""51003"": 35.59, ""51065"": 28.62}",Buckingham|Albemarle|Fluvanna,51029|51003|51065,False,False,America/New_York,"(37.79353, -78.47767)",50.077377453554725,3821896.0,353_0_no,38.42090064597568,-78.01643920893306,50.0
26801,39.05694,-78.79374,Baker,WV,West Virginia,True,,649.0,3.1,54031,Hardy,"{""54031"": 100}",Hardy,54031,False,False,America/New_York,"(39.05694, -78.79374)",60.7130733854732,3821896.0,353_0_no,38.42090064597568,-78.01643920893306,50.0
26810,38.97721,-78.74853,Lost City,WV,West Virginia,True,,398.0,4.7,54031,Hardy,"{""54031"": 100}",Hardy,54031,False,False,America/New_York,"(38.97721, -78.74853)",55.09807623060144,3821896.0,353_0_no,38.42090064597568,-78.01643920893306,50.0
26812,38.88184,-78.87688,Mathias,WV,West Virginia,True,,1690.0,6.3,54031,Hardy,"{""54031"": 100}",Hardy,54031,False,False,America/New_York,"(38.88184, -78.87688)",56.30155837453531,3821896.0,353_0_no,38.42090064597568,-78.01643920893306,50.0
26823,39.13033,-78.51139,Capon Springs,WV,West Virginia,True,,68.0,1.9,54027,Hampshire,"{""54027"": 100}",Hampshire,54027,False,False,America/New_York,"(39.13033, -78.51139)",55.79808242886011,3821896.0,353_0_no,38.42090064597568,-78.01643920893306,50.0
26851,39.04801,-78.62878,Wardensville,WV,West Virginia,True,,1868.0,7.1,54031,Hardy,"{""54031"": 93.83, ""54027"": 6.17}",Hardy|Hampshire,54031|54027,False,False,America/New_York,"(39.04801, -78.62878)",54.46633757575897,3821896.0,353_0_no,38.42090064597568,-78.01643920893306,50.0
