zip,lat,lng,city,state_id,state_name,zcta,parent_zcta,population,density,county_fips,county_name,county_weights,county_names_all,county_fips_all,imprecise,military,timezone,Coord,distance_miles,market_total_population,market_id,market_center_lat,market_center_lng,radius_miles
80106,39.17646,-104.52975,Elbert,CO,Colorado,True,,6120.0,13.7,8039,Elbert,"{""08039"": 79.72, ""08041"": 16.66, ""08035"": 3.62}",Elbert|El Paso|Douglas,08039|08041|08035,False,False,America/Denver,"(39.17646, -104.52975)",52.74684975338724,569364.0,367_0_no,38.62450767081546,-103.85205821449355,50.0
80116,39.30711,-104.71947,Franktown,CO,Colorado,True,,4263.0,17.9,8035,Douglas,"{""08035"": 100}",Douglas,08035,False,False,America/Denver,"(39.30711, -104.71947)",66.30031131007442,569364.0,367_0_no,38.62450767081546,-103.85205821449355,50.0
80808,39.00043,-104.30638,Calhan,CO,Colorado,True,,5963.0,5.9,8041,El Paso,"{""08041"": 83.69, ""08039"": 16.31}",El Paso|Elbert,08041|08039,False,False,America/Denver,"(39.00043, -104.30638)",35.67776106127548,569364.0,367_0_no,38.62450767081546,-103.85205821449355,50.0
80817,38.58347,-104.67412,Fountain,CO,Colorado,True,,31426.0,105.4,8041,El Paso,"{""08041"": 76.51, ""08101"": 23.49}",El Paso|Pueblo,08041|08101,False,False,America/Denver,"(38.58347, -104.67412)",44.47748088851538,569364.0,367_0_no,38.62450767081546,-103.85205821449355,50.0
80821,38.97366,-103.43248,Hugo,CO,Colorado,True,,1102.0,0.6,8073,Lincoln,"{""08073"": 100}",Lincoln,08073,False,False,America/Denver,"(38.97366, -103.43248)",33.05190504237976,569364.0,367_0_no,38.62450767081546,-103.85205821449355,50.0
80823,38.69026,-103.46738,Karval,CO,Colorado,True,,222.0,0.3,8073,Lincoln,"{""08073"": 100}",Lincoln,08073,False,False,America/Denver,"(38.69026, -103.46738)",21.24657964876184,569364.0,367_0_no,38.62450767081546,-103.85205821449355,50.0
80828,39.26643,-103.70983,Limon,CO,Colorado,True,,3711.0,3.3,8073,Lincoln,"{""08073"": 53.55, ""08039"": 46.45}",Lincoln|Elbert,08073|08039,False,False,America/Denver,"(39.26643, -103.70983)",45.00629191652671,569364.0,367_0_no,38.62450767081546,-103.85205821449355,50.0
80830,39.11313,-103.91139,Matheson,CO,Colorado,True,,170.0,0.4,8039,Elbert,"{""08039"": 100}",Elbert,08039,False,False,America/Denver,"(39.11313, -103.91139)",33.91112494786288,569364.0,367_0_no,38.62450767081546,-103.85205821449355,50.0
80831,38.98867,-104.51172,Peyton,CO,Colorado,True,,27786.0,56.9,8041,El Paso,"{""08041"": 94.85, ""08039"": 5.15}",El Paso|Elbert,08041|08039,False,False,America/Denver,"(38.98867, -104.51172)",43.52665132943298,569364.0,367_0_no,38.62450767081546,-103.85205821449355,50.0
80832,39.06344,-104.02769,Ramah,CO,Colorado,True,,775.0,1.0,8039,Elbert,"{""08039"": 80.88, ""08041"": 14.45, ""08073"": 4.67}",Elbert|El Paso|Lincoln,08039|08041|08073,False,False,America/Denver,"(39.06344, -104.02769)",31.765947879438084,569364.0,367_0_no,38.62450767081546,-103.85205821449355,50.0
80833,38.73874,-103.93699,Rush,CO,Colorado,True,,1042.0,0.8,8073,Lincoln,"{""08073"": 77.49, ""08041"": 19.96, ""08039"": 2.55}",Lincoln|El Paso|Elbert,08073|08041|08039,False,False,America/Denver,"(38.73874, -103.93699)",9.125763026370194,569364.0,367_0_no,38.62450767081546,-103.85205821449355,50.0
80835,39.20933,-104.07223,Simla,CO,Colorado,True,,821.0,2.3,8039,Elbert,"{""08039"": 94.13, ""08041"": 5.87}",Elbert|El Paso,08039|08041,False,False,America/Denver,"(39.20933, -104.07223)",42.105183425607095,569364.0,367_0_no,38.62450767081546,-103.85205821449355,50.0
80862,38.90926,-103.06782,Wild Horse,CO,Colorado,True,,37.0,0.1,8017,Cheyenne,"{""08017"": 100}",Cheyenne,08017,False,False,America/Denver,"(38.90926, -103.06782)",46.604807464438075,569364.0,367_0_no,38.62450767081546,-103.85205821449355,50.0
80864,38.69923,-104.18757,Yoder,CO,Colorado,True,,1412.0,2.2,8041,El Paso,"{""08041"": 100}",El Paso,08041,False,False,America/Denver,"(38.69923, -104.18757)",18.823169311453782,569364.0,367_0_no,38.62450767081546,-103.85205821449355,50.0
80908,39.0463,-104.69094,Colorado Springs,CO,Colorado,True,,19628.0,80.0,8041,El Paso,"{""08041"": 100}",El Paso,08041,False,False,America/Denver,"(39.0463, -104.69094)",53.73734698519035,569364.0,367_0_no,38.62450767081546,-103.85205821449355,50.0
80909,38.85255,-104.77434,Colorado Springs,CO,Colorado,True,,38826.0,1890.5,8041,El Paso,"{""08041"": 100}",El Paso,08041,False,False,America/Denver,"(38.85255, -104.77434)",52.14229035795878,569364.0,367_0_no,38.62450767081546,-103.85205821449355,50.0
80910,38.81178,-104.7743,Colorado Springs,CO,Colorado,True,,31619.0,1998.1,8041,El Paso,"{""08041"": 100}",El Paso,08041,False,False,America/Denver,"(38.81178, -104.7743)",51.37298815083601,569364.0,367_0_no,38.62450767081546,-103.85205821449355,50.0
80911,38.75325,-104.71955,Colorado Springs,CO,Colorado,True,,35597.0,1237.1,8041,El Paso,"{""08041"": 100}",El Paso,08041,False,False,America/Denver,"(38.75325, -104.71955)",47.62261687112571,569364.0,367_0_no,38.62450767081546,-103.85205821449355,50.0
80913,38.70005,-104.76268,Colorado Springs,CO,Colorado,True,,4165.0,67.3,8041,El Paso,"{""08041"": 100}",El Paso,08041,False,False,America/Denver,"(38.70005, -104.76268)",49.405257904205925,569364.0,367_0_no,38.62450767081546,-103.85205821449355,50.0
80914,38.82401,-104.70546,Colorado Springs,CO,Colorado,True,,323.0,188.5,8041,El Paso,"{""08041"": 100}",El Paso,08041,False,False,America/Denver,"(38.82401, -104.70546)",48.02262412992792,569364.0,367_0_no,38.62450767081546,-103.85205821449355,50.0
80915,38.85271,-104.71652,Colorado Springs,CO,Colorado,True,,22474.0,1104.4,8041,El Paso,"{""08041"": 100}",El Paso,08041,False,False,America/Denver,"(38.85271, -104.71652)",49.18438842051072,569364.0,367_0_no,38.62450767081546,-103.85205821449355,50.0
80916,38.80327,-104.71208,Colorado Springs,CO,Colorado,True,,41173.0,864.5,8041,El Paso,"{""08041"": 100}",El Paso,08041,False,False,America/Denver,"(38.80327, -104.71208)",47.982322819536876,569364.0,367_0_no,38.62450767081546,-103.85205821449355,50.0
80917,38.88684,-104.74049,Colorado Springs,CO,Colorado,True,,31648.0,2176.7,8041,El Paso,"{""08041"": 100}",El Paso,08041,False,False,America/Denver,"(38.88684, -104.74049)",51.18560221047041,569364.0,367_0_no,38.62450767081546,-103.85205821449355,50.0
80920,38.95579,-104.77191,Colorado Springs,CO,Colorado,True,,38558.0,1199.0,8041,El Paso,"{""08041"": 100}",El Paso,08041,False,False,America/Denver,"(38.95579, -104.77191)",54.57032552953065,569364.0,367_0_no,38.62450767081546,-103.85205821449355,50.0
80922,38.88996,-104.70084,Colorado Springs,CO,Colorado,True,,29598.0,1960.9,8041,El Paso,"{""08041"": 100}",El Paso,08041,False,False,America/Denver,"(38.88996, -104.70084)",49.272416024002474,569364.0,367_0_no,38.62450767081546,-103.85205821449355,50.0
80923,38.92673,-104.71433,Colorado Springs,CO,Colorado,True,,30932.0,1709.8,8041,El Paso,"{""08041"": 100}",El Paso,08041,False,False,America/Denver,"(38.92673, -104.71433)",50.92454143642486,569364.0,367_0_no,38.62450767081546,-103.85205821449355,50.0
80924,38.96727,-104.72199,Colorado Springs,CO,Colorado,True,,11873.0,783.4,8041,El Paso,"{""08041"": 100}",El Paso,08041,False,False,America/Denver,"(38.96727, -104.72199)",52.491723713250245,569364.0,367_0_no,38.62450767081546,-103.85205821449355,50.0
80925,38.76156,-104.64441,Colorado Springs,CO,Colorado,True,,13752.0,184.9,8041,El Paso,"{""08041"": 100}",El Paso,08041,False,False,America/Denver,"(38.76156, -104.64441)",43.76636363398293,569364.0,367_0_no,38.62450767081546,-103.85205821449355,50.0
80927,38.92833,-104.65878,Colorado Springs,CO,Colorado,True,,4491.0,385.8,8041,El Paso,"{""08041"": 100}",El Paso,08041,False,False,America/Denver,"(38.92833, -104.65878)",48.258634696940995,569364.0,367_0_no,38.62450767081546,-103.85205821449355,50.0
80928,38.64517,-104.44268,Colorado Springs,CO,Colorado,True,,1165.0,1.5,8041,El Paso,"{""08041"": 100}",El Paso,08041,False,False,America/Denver,"(38.64517, -104.44268)",31.908759600064005,569364.0,367_0_no,38.62450767081546,-103.85205821449355,50.0
80929,38.82453,-104.60833,Colorado Springs,CO,Colorado,True,,58.0,0.9,8041,El Paso,"{""08041"": 100}",El Paso,08041,False,False,America/Denver,"(38.82453, -104.60833)",43.04490774159455,569364.0,367_0_no,38.62450767081546,-103.85205821449355,50.0
80930,38.80507,-104.50644,Colorado Springs,CO,Colorado,True,,1794.0,20.2,8041,El Paso,"{""08041"": 100}",El Paso,08041,False,False,America/Denver,"(38.80507, -104.50644)",37.419496921643244,569364.0,367_0_no,38.62450767081546,-103.85205821449355,50.0
80938,38.90157,-104.65926,Colorado Springs,CO,Colorado,True,,462.0,33.5,8041,El Paso,"{""08041"": 100}",El Paso,08041,False,False,America/Denver,"(38.90157, -104.65926)",47.51470483763529,569364.0,367_0_no,38.62450767081546,-103.85205821449355,50.0
80951,38.88396,-104.6558,Colorado Springs,CO,Colorado,True,,4574.0,603.6,8041,El Paso,"{""08041"": 100}",El Paso,08041,False,False,America/Denver,"(38.88396, -104.6558)",46.87034614839116,569364.0,367_0_no,38.62450767081546,-103.85205821449355,50.0
81001,38.29525,-104.5378,Pueblo,CO,Colorado,True,,29997.0,361.4,8101,Pueblo,"{""08101"": 100}",Pueblo,08101,False,False,America/Denver,"(38.29525, -104.5378)",43.520044906792286,569364.0,367_0_no,38.62450767081546,-103.85205821449355,50.0
81003,38.27782,-104.65668,Pueblo,CO,Colorado,True,,14824.0,468.6,8101,Pueblo,"{""08101"": 100}",Pueblo,08101,False,False,America/Denver,"(38.27782, -104.65668)",49.69207536691773,569364.0,367_0_no,38.62450767081546,-103.85205821449355,50.0
81004,38.05121,-104.71595,Pueblo,CO,Colorado,True,,27159.0,65.2,8101,Pueblo,"{""08101"": 100}",Pueblo,08101,False,False,America/Denver,"(38.05121, -104.71595)",61.32632989089926,569364.0,367_0_no,38.62450767081546,-103.85205821449355,50.0
81006,38.24059,-104.47413,Pueblo,CO,Colorado,True,,12120.0,41.6,8101,Pueblo,"{""08101"": 100}",Pueblo,08101,False,False,America/Denver,"(38.24059, -104.47413)",42.862694579002415,569364.0,367_0_no,38.62450767081546,-103.85205821449355,50.0
81008,38.40765,-104.59354,Pueblo,CO,Colorado,True,,11659.0,44.0,8101,Pueblo,"{""08101"": 98.14, ""08041"": 1.86}",Pueblo|El Paso,08101|08041,False,False,America/Denver,"(38.40765, -104.59354)",42.793880561968706,569364.0,367_0_no,38.62450767081546,-103.85205821449355,50.0
81021,38.43332,-103.36732,Arlington,CO,Colorado,True,,19.0,0.0,8061,Kiowa,"{""08061"": 67.95, ""08073"": 32.05}",Kiowa|Lincoln,08061|08073,False,False,America/Denver,"(38.43332, -103.36732)",29.342383560630466,569364.0,367_0_no,38.62450767081546,-103.85205821449355,50.0
81022,38.03279,-104.43768,Avondale,CO,Colorado,True,,1545.0,1.6,8101,Pueblo,"{""08101"": 100}",Pueblo,08101,False,False,America/Denver,"(38.03279, -104.43768)",51.758885593897574,569364.0,367_0_no,38.62450767081546,-103.85205821449355,50.0
81025,38.34567,-104.26422,Boone,CO,Colorado,True,,685.0,0.5,8101,Pueblo,"{""08101"": 100}",Pueblo,08101,False,False,America/Denver,"(38.34567, -104.26422)",29.46317607538876,569364.0,367_0_no,38.62450767081546,-103.85205821449355,50.0
81030,38.10322,-103.51876,Cheraw,CO,Colorado,True,,131.0,137.7,8089,Otero,"{""08089"": 100}",Otero,08089,False,False,America/Denver,"(38.10322, -103.51876)",40.29011042243829,569364.0,367_0_no,38.62450767081546,-103.85205821449355,50.0
81033,38.19575,-103.85557,Crowley,CO,Colorado,True,,153.0,95.9,8025,Crowley,"{""08025"": 100}",Crowley,08025,False,False,America/Denver,"(38.19575, -103.85557)",29.624943507130794,569364.0,367_0_no,38.62450767081546,-103.85205821449355,50.0
81039,37.94079,-104.08615,Fowler,CO,Colorado,True,,1531.0,1.0,8101,Pueblo,"{""08101"": 57.15, ""08089"": 42.25, ""08025"": 0.6}",Pueblo|Otero|Crowley,08101|08089|08025,False,False,America/Denver,"(37.94079, -104.08615)",48.91668080192256,569364.0,367_0_no,38.62450767081546,-103.85205821449355,50.0
81044,37.90328,-102.93628,Hasty,CO,Colorado,True,,193.0,0.2,8011,Bent,"{""08011"": 100}",Bent,08011,False,False,America/Denver,"(37.90328, -102.93628)",70.36553711437337,569364.0,367_0_no,38.62450767081546,-103.85205821449355,50.0
81045,38.55956,-103.16093,Haswell,CO,Colorado,True,,74.0,0.1,8061,Kiowa,"{""08061"": 58.37, ""08017"": 24.99, ""08073"": 16.64}",Kiowa|Cheyenne|Lincoln,08061|08017|08073,False,False,America/Denver,"(38.55956, -103.16093)",37.59233335533213,569364.0,367_0_no,38.62450767081546,-103.85205821449355,50.0
81050,37.92266,-103.51528,La Junta,CO,Colorado,True,,9511.0,7.2,8089,Otero,"{""08089"": 96.69, ""08011"": 3.31}",Otero|Bent,08089|08011,False,False,America/Denver,"(37.92266, -103.51528)",51.81963070935471,569364.0,367_0_no,38.62450767081546,-103.85205821449355,50.0
81058,38.10727,-103.88161,Manzanola,CO,Colorado,True,,1261.0,9.9,8089,Otero,"{""08089"": 70.11, ""08025"": 29.89}",Otero|Crowley,08089|08025,False,False,America/Denver,"(38.10727, -103.88161)",35.77355843103739,569364.0,367_0_no,38.62450767081546,-103.85205821449355,50.0
81062,38.29345,-103.94995,Olney Springs,CO,Colorado,True,,1750.0,2.9,8025,Crowley,"{""08025"": 100}",Crowley,08025,False,False,America/Denver,"(38.29345, -103.94995)",23.47906300193437,569364.0,367_0_no,38.62450767081546,-103.85205821449355,50.0
81063,38.45232,-103.78494,Ordway,CO,Colorado,True,,3186.0,3.1,8025,Crowley,"{""08025"": 63.14, ""08073"": 36.86}",Crowley|Lincoln,08025|08073,False,False,America/Denver,"(38.45232, -103.78494)",12.437728527806174,569364.0,367_0_no,38.62450767081546,-103.85205821449355,50.0
81067,38.01674,-103.72326,Rocky Ford,CO,Colorado,True,,5436.0,9.7,8089,Otero,"{""08089"": 100}",Otero,08089,False,False,America/Denver,"(38.01674, -103.72326)",42.569182497134946,569364.0,367_0_no,38.62450767081546,-103.85205821449355,50.0
81076,38.32338,-103.6167,Sugar City,CO,Colorado,True,,570.0,0.8,8025,Crowley,"{""08025"": 100}",Crowley,08025,False,False,America/Denver,"(38.32338, -103.6167)",24.391966313026952,569364.0,367_0_no,38.62450767081546,-103.85205821449355,50.0
