zip,lat,lng,city,state_id,state_name,zcta,parent_zcta,population,density,county_fips,county_name,county_weights,county_names_all,county_fips_all,imprecise,military,timezone,Coord,distance_miles,market_total_population,market_id,market_center_lat,market_center_lng,radius_miles
81220,38.29861,-107.48414,Cimarron,CO,Colorado,True,,118.0,0.2,8051,Gunnison,"{""08051"": 74.43, ""08085"": 25.57}",Gunnison|Montrose,08051|08085,False,False,America/Denver,"(38.29861, -107.48414)",24.783642322554854,154192.0,369_0_no,38.65371516256427,-107.54882396228204,50.0
81224,38.87985,-106.90957,Crested Butte,CO,Colorado,True,,3291.0,4.8,8051,Gunnison,"{""08051"": 100}",Gunnison,08051,False,False,America/Denver,"(38.87985, -106.90957)",37.81654609273405,154192.0,369_0_no,38.65371516256427,-107.54882396228204,50.0
81225,38.94115,-107.00664,Crested Butte,CO,Colorado,True,,1328.0,17.8,8051,Gunnison,"{""08051"": 100}",Gunnison,08051,False,False,America/Denver,"(38.94115, -107.00664)",35.31031465567011,154192.0,369_0_no,38.65371516256427,-107.54882396228204,50.0
81230,38.40752,-106.98372,Gunnison,CO,Colorado,True,,10110.0,2.3,8051,Gunnison,"{""08051"": 61.48, ""08109"": 38.52}",Gunnison|Saguache,08051|08109,False,False,America/Denver,"(38.40752, -106.98372)",34.96111524471495,154192.0,369_0_no,38.65371516256427,-107.54882396228204,50.0
81235,37.99363,-107.33098,Lake City,CO,Colorado,True,,740.0,0.5,8053,Hinsdale,"{""08053"": 100}",Hinsdale,08053,False,False,America/Denver,"(37.99363, -107.33098)",47.111342227719916,154192.0,369_0_no,38.65371516256427,-107.54882396228204,50.0
81243,38.26041,-107.17654,Powderhorn,CO,Colorado,True,,65.0,0.1,8051,Gunnison,"{""08051"": 100}",Gunnison,08051,False,False,America/Denver,"(38.26041, -107.17654)",33.82582012815167,154192.0,369_0_no,38.65371516256427,-107.54882396228204,50.0
81401,38.51559,-107.78472,Montrose,CO,Colorado,True,,22715.0,43.8,8085,Montrose,"{""08085"": 100}",Montrose,08085,False,False,America/Denver,"(38.51559, -107.78472)",15.918611933743408,154192.0,369_0_no,38.65371516256427,-107.54882396228204,50.0
81403,38.32308,-107.92816,Montrose,CO,Colorado,True,,11501.0,8.8,8085,Montrose,"{""08085"": 66.88, ""08091"": 33.12}",Montrose|Ouray,08085|08091,False,False,America/Denver,"(38.32308, -107.92816)",30.7042200134597,154192.0,369_0_no,38.65371516256427,-107.54882396228204,50.0
81410,38.81261,-107.97595,Austin,CO,Colorado,True,,1510.0,17.1,8029,Delta,"{""08029"": 100}",Delta,08029,False,False,America/Denver,"(38.81261, -107.97595)",25.504839912901307,154192.0,369_0_no,38.65371516256427,-107.54882396228204,50.0
81413,38.97171,-107.90845,Cedaredge,CO,Colorado,True,,5633.0,14.2,8029,Delta,"{""08029"": 100}",Delta,08029,False,False,America/Denver,"(38.97171, -107.90845)",29.284803154571154,154192.0,369_0_no,38.65371516256427,-107.54882396228204,50.0
81415,38.64027,-107.6368,Crawford,CO,Colorado,True,,1732.0,2.4,8085,Montrose,"{""08085"": 60.44, ""08029"": 39.56}",Montrose|Delta,08085|08029,False,False,America/Denver,"(38.64027, -107.6368)",4.837447758409436,154192.0,369_0_no,38.65371516256427,-107.54882396228204,50.0
81416,38.66482,-108.20403,Delta,CO,Colorado,True,,13793.0,9.3,8029,Delta,"{""08029"": 56.93, ""08085"": 43.07}",Delta|Montrose,08029|08085,False,False,America/Denver,"(38.66482, -108.20403)",35.35878035004034,154192.0,369_0_no,38.65371516256427,-107.54882396228204,50.0
81418,38.90479,-108.05687,Eckert,CO,Colorado,True,,1787.0,9.7,8029,Delta,"{""08029"": 100}",Delta,08029,False,False,America/Denver,"(38.90479, -108.05687)",32.40008785266909,154192.0,369_0_no,38.65371516256427,-107.54882396228204,50.0
81419,38.86332,-107.74872,Hotchkiss,CO,Colorado,True,,3235.0,6.0,8029,Delta,"{""08029"": 100}",Delta,08029,False,False,America/Denver,"(38.86332, -107.74872)",18.048042891597433,154192.0,369_0_no,38.65371516256427,-107.54882396228204,50.0
81423,38.03835,-108.45816,Norwood,CO,Colorado,True,,1782.0,1.2,8113,San Miguel,"{""08113"": 89.97, ""08085"": 10.03}",San Miguel|Montrose,08113|08085,False,False,America/Denver,"(38.03835, -108.45816)",65.0825895383139,154192.0,369_0_no,38.65371516256427,-107.54882396228204,50.0
81425,38.49363,-108.10469,Olathe,CO,Colorado,True,,5664.0,10.0,8085,Montrose,"{""08085"": 100}",Montrose,08085,False,False,America/Denver,"(38.49363, -108.10469)",31.998989011001527,154192.0,369_0_no,38.65371516256427,-107.54882396228204,50.0
81427,37.99301,-107.64387,Ouray,CO,Colorado,True,,1233.0,6.4,8091,Ouray,"{""08091"": 100}",Ouray,08091,False,False,America/Denver,"(37.99301, -107.64387)",45.94017227639532,154192.0,369_0_no,38.65371516256427,-107.54882396228204,50.0
81428,38.95928,-107.59899,Paonia,CO,Colorado,True,,3666.0,7.5,8029,Delta,"{""08029"": 100}",Delta,08029,False,False,America/Denver,"(38.95928, -107.59899)",21.28459762357231,154192.0,369_0_no,38.65371516256427,-107.54882396228204,50.0
81430,38.04013,-108.05764,Placerville,CO,Colorado,True,,841.0,1.5,8113,San Miguel,"{""08113"": 100}",San Miguel,08113,False,False,America/Denver,"(38.04013, -108.05764)",50.57154984478361,154192.0,369_0_no,38.65371516256427,-107.54882396228204,50.0
81432,38.12494,-107.74273,Ridgway,CO,Colorado,True,,3130.0,4.0,8091,Ouray,"{""08091"": 99.31, ""08113"": 0.69}",Ouray|San Miguel,08091|08113,False,False,America/Denver,"(38.12494, -107.74273)",38.01408086215942,154192.0,369_0_no,38.65371516256427,-107.54882396228204,50.0
81434,38.95384,-107.35954,Somerset,CO,Colorado,True,,271.0,0.2,8051,Gunnison,"{""08051"": 91.77, ""08029"": 8.23}",Gunnison|Delta,08051|08029,False,False,America/Denver,"(38.95384, -107.35954)",23.105884739336872,154192.0,369_0_no,38.65371516256427,-107.54882396228204,50.0
81520,39.10962,-108.43561,Clifton,CO,Colorado,True,,14337.0,269.4,8077,Mesa,"{""08077"": 100}",Mesa,08077,False,False,America/Denver,"(39.10962, -108.43561)",57.158697726588095,154192.0,369_0_no,38.65371516256427,-107.54882396228204,50.0
81526,39.07741,-108.33056,Palisade,CO,Colorado,True,,5789.0,30.9,8077,Mesa,"{""08077"": 100}",Mesa,08077,False,False,America/Denver,"(39.07741, -108.33056)",51.24087080965943,154192.0,369_0_no,38.65371516256427,-107.54882396228204,50.0
81611,39.14561,-106.74885,Aspen,CO,Colorado,True,,10814.0,13.7,8097,Pitkin,"{""08097"": 100}",Pitkin,08097,False,False,America/Denver,"(39.14561, -106.74885)",54.82175973628053,154192.0,369_0_no,38.65371516256427,-107.54882396228204,50.0
81615,39.21437,-106.94172,Snowmass Village,CO,Colorado,True,,2786.0,42.5,8097,Pitkin,"{""08097"": 100}",Pitkin,08097,False,False,America/Denver,"(39.21437, -106.94172)",50.64815487679568,154192.0,369_0_no,38.65371516256427,-107.54882396228204,50.0
81621,39.37803,-106.8772,Basalt,CO,Colorado,True,,6344.0,9.5,8037,Eagle,"{""08037"": 64.87, ""08097"": 35.13}",Eagle|Pitkin,08037|08097,False,False,America/Denver,"(39.37803, -106.8772)",61.68031804569881,154192.0,369_0_no,38.65371516256427,-107.54882396228204,50.0
81623,39.2451,-107.20921,Carbondale,CO,Colorado,True,,16166.0,14.4,8097,Pitkin,"{""08097"": 53.89, ""08051"": 23.92, ""08045"": 16.56, ""08037"": 5.63}",Pitkin|Gunnison|Garfield|Eagle,08097|08051|08045|08037,False,False,America/Denver,"(39.2451, -107.20921)",44.750594844219556,154192.0,369_0_no,38.65371516256427,-107.54882396228204,50.0
81624,39.24611,-107.77259,Collbran,CO,Colorado,True,,1470.0,1.0,8077,Mesa,"{""08077"": 100}",Mesa,08077,False,False,America/Denver,"(39.24611, -107.77259)",42.66005033030102,154192.0,369_0_no,38.65371516256427,-107.54882396228204,50.0
81643,39.11968,-108.15001,Mesa,CO,Colorado,True,,430.0,1.1,8077,Mesa,"{""08077"": 100}",Mesa,08077,False,False,America/Denver,"(39.11968, -108.15001)",45.62793640192363,154192.0,369_0_no,38.65371516256427,-107.54882396228204,50.0
81646,39.10875,-107.99199,Molina,CO,Colorado,True,,182.0,1.0,8077,Mesa,"{""08077"": 100}",Mesa,08077,False,False,America/Denver,"(39.10875, -107.99199)",39.453930508449346,154192.0,369_0_no,38.65371516256427,-107.54882396228204,50.0
81654,39.21462,-107.02597,Snowmass,CO,Colorado,True,,1729.0,6.5,8097,Pitkin,"{""08097"": 100}",Pitkin,08097,False,False,America/Denver,"(39.21462, -107.02597)",47.87053341026981,154192.0,369_0_no,38.65371516256427,-107.54882396228204,50.0
