zip,lat,lng,city,state_id,state_name,zcta,parent_zcta,population,density,county_fips,county_name,county_weights,county_names_all,county_fips_all,imprecise,military,timezone,Coord,distance_miles,market_total_population,market_id,market_center_lat,market_center_lng,radius_miles
89402,39.23075,-120.00259,Crystal Bay,NV,Nevada,True,,17.0,24.7,32031,Washoe,"{""32031"": 99.4, ""06061"": 0.6}",Washoe|Placer,32031|06061,False,False,America/Los_Angeles,"(39.23075, -120.00259)",42.270425539549,2042818.0,376_0_no,38.75618084099958,-120.49935633260922,50.0
89411,39.01837,-119.85301,Genoa,NV,Nevada,True,,776.0,14.0,32005,Douglas,"{""32005"": 100}",Douglas,32005,False,False,America/Los_Angeles,"(39.01837, -119.85301)",39.198272320362776,2042818.0,376_0_no,38.75618084099958,-120.49935633260922,50.0
89413,39.07389,-119.92095,Glenbrook,NV,Nevada,True,,723.0,17.7,32005,Douglas,"{""32005"": 100}",Douglas,32005,False,False,America/Los_Angeles,"(39.07389, -119.92095)",38.06274809043244,2042818.0,376_0_no,38.75618084099958,-120.49935633260922,50.0
89423,39.01561,-119.74636,Minden,NV,Nevada,True,,10636.0,54.9,32005,Douglas,"{""32005"": 100}",Douglas,32005,False,False,America/Los_Angeles,"(39.01561, -119.74636)",44.28715224042123,2042818.0,376_0_no,38.75618084099958,-120.49935633260922,50.0
89428,39.25691,-119.63099,Silver City,NV,Nevada,True,,115.0,28.9,32019,Lyon,"{""32019"": 100}",Lyon,32019,False,False,America/Los_Angeles,"(39.25691, -119.63099)",58.05707363164299,2042818.0,376_0_no,38.75618084099958,-120.49935633260922,50.0
89440,39.29597,-119.66212,Virginia City,NV,Nevada,True,,747.0,23.1,32029,Storey,"{""32029"": 100}",Storey,32029,False,False,America/Los_Angeles,"(39.29597, -119.66212)",58.3992561515067,2042818.0,376_0_no,38.75618084099958,-120.49935633260922,50.0
89448,39.00789,-119.92412,Zephyr Cove,NV,Nevada,True,,1776.0,55.8,32005,Douglas,"{""32005"": 100}",Douglas,32005,False,False,America/Los_Angeles,"(39.00789, -119.92412)",35.492036290691075,2042818.0,376_0_no,38.75618084099958,-120.49935633260922,50.0
89449,38.96433,-119.90688,Stateline,NV,Nevada,True,,2973.0,114.4,32005,Douglas,"{""32005"": 100}",Douglas,32005,False,False,America/Los_Angeles,"(38.96433, -119.90688)",34.970225342160525,2042818.0,376_0_no,38.75618084099958,-120.49935633260922,50.0
89450,39.24135,-119.93832,Incline Village,NV,Nevada,True,,18.0,672.7,32031,Washoe,"{""32031"": 100}",Washoe,32031,False,False,America/Los_Angeles,"(39.24135, -119.93832)",45.069568019070076,2042818.0,376_0_no,38.75618084099958,-120.49935633260922,50.0
89451,39.26775,-119.94534,Incline Village,NV,Nevada,True,,9304.0,85.1,32031,Washoe,"{""32031"": 99.19, ""06061"": 0.65, ""06057"": 0.16}",Washoe|Placer|Nevada,32031|06061|06057,False,False,America/Los_Angeles,"(39.26775, -119.94534)",46.195072383702865,2042818.0,376_0_no,38.75618084099958,-120.49935633260922,50.0
89460,38.90136,-119.79085,Gardnerville,NV,Nevada,True,,13727.0,96.0,32005,Douglas,"{""32005"": 100}",Douglas,32005,False,False,America/Los_Angeles,"(38.90136, -119.79085)",39.43267015287368,2042818.0,376_0_no,38.75618084099958,-120.49935633260922,50.0
89511,39.40747,-119.88822,Reno,NV,Nevada,True,,27874.0,81.8,32031,Washoe,"{""32031"": 99.65, ""06057"": 0.35}",Washoe|Nevada,32031|06057,False,False,America/Los_Angeles,"(39.40747, -119.88822)",55.67136125619112,2042818.0,376_0_no,38.75618084099958,-120.49935633260922,50.0
89521,39.37215,-119.67611,Reno,NV,Nevada,True,,34101.0,141.6,32031,Washoe,"{""32031"": 57.17, ""32029"": 42.83}",Washoe|Storey,32031|32029,False,False,America/Los_Angeles,"(39.37215, -119.67611)",61.33311322882107,2042818.0,376_0_no,38.75618084099958,-120.49935633260922,50.0
89701,39.13944,-119.72087,Carson City,NV,Nevada,True,,27328.0,303.0,32510,Carson City,"{""32510"": 100}",Carson City,32510,False,False,America/Los_Angeles,"(39.13944, -119.72087)",49.50885347436388,2042818.0,376_0_no,38.75618084099958,-120.49935633260922,50.0
89703,39.15359,-119.8486,Carson City,NV,Nevada,True,,10062.0,87.8,32510,Carson City,"{""32510"": 98.34, ""32031"": 1.66}",Carson City|Washoe,32510|32031,False,False,America/Los_Angeles,"(39.15359, -119.8486)",44.45781881414748,2042818.0,376_0_no,38.75618084099958,-120.49935633260922,50.0
89704,39.26789,-119.81712,Washoe Valley,NV,Nevada,True,,4411.0,22.3,32031,Washoe,"{""32031"": 100}",Washoe,32031,False,False,America/Los_Angeles,"(39.26789, -119.81712)",50.907027984803534,2042818.0,376_0_no,38.75618084099958,-120.49935633260922,50.0
89705,39.09003,-119.83689,Carson City,NV,Nevada,True,,5315.0,88.4,32005,Douglas,"{""32005"": 95.93, ""32510"": 4.07}",Douglas|Carson City,32005|32510,False,False,America/Los_Angeles,"(39.09003, -119.83689)",42.42813416707528,2042818.0,376_0_no,38.75618084099958,-120.49935633260922,50.0
89706,39.22002,-119.69974,Carson City,NV,Nevada,True,,19447.0,217.6,32510,Carson City,"{""32510"": 52.62, ""32019"": 47.38}",Carson City|Lyon,32510|32019,False,False,America/Los_Angeles,"(39.22002, -119.69974)",53.58322681813992,2042818.0,376_0_no,38.75618084099958,-120.49935633260922,50.0
95209,38.04717,-121.35121,Stockton,CA,California,True,,44325.0,2077.4,6077,San Joaquin,"{""06077"": 100}",San Joaquin,06077,False,False,America/Los_Angeles,"(38.04717, -121.35121)",67.28490876704933,2042818.0,376_0_no,38.75618084099958,-120.49935633260922,50.0
95210,38.03215,-121.29782,Stockton,CA,California,True,,41641.0,2114.3,6077,San Joaquin,"{""06077"": 100}",San Joaquin,06077,False,False,America/Los_Angeles,"(38.03215, -121.29782)",66.12173032771977,2042818.0,376_0_no,38.75618084099958,-120.49935633260922,50.0
95212,38.04897,-121.22684,Stockton,CA,California,True,,28281.0,515.5,6077,San Joaquin,"{""06077"": 100}",San Joaquin,06077,False,False,America/Los_Angeles,"(38.04897, -121.22684)",62.76299595027284,2042818.0,376_0_no,38.75618084099958,-120.49935633260922,50.0
95220,38.19779,-121.23603,Acampo,CA,California,True,,8228.0,54.7,6077,San Joaquin,"{""06077"": 100}",San Joaquin,06077,False,False,America/Los_Angeles,"(38.19779, -121.23603)",55.463835307169774,2042818.0,376_0_no,38.75618084099958,-120.49935633260922,50.0
95222,38.06127,-120.61791,Angels Camp,CA,California,True,,5418.0,13.8,6009,Calaveras,"{""06009"": 100}",Calaveras,06009,False,False,America/Los_Angeles,"(38.06127, -120.61791)",48.44088827482024,2042818.0,376_0_no,38.75618084099958,-120.49935633260922,50.0
95223,38.4644,-119.85939,Arnold,CA,California,True,,2602.0,2.4,6003,Alpine,"{""06003"": 80.96, ""06009"": 17.26, ""06109"": 1.78}",Alpine|Calaveras|Tuolumne,06003|06009|06109,False,False,America/Los_Angeles,"(38.4644, -119.85939)",40.00315351838325,2042818.0,376_0_no,38.75618084099958,-120.49935633260922,50.0
95224,38.22706,-120.32562,Avery,CA,California,True,,195.0,6.5,6009,Calaveras,"{""06009"": 100}",Calaveras,06009,False,False,America/Los_Angeles,"(38.22706, -120.32562)",37.74676191837125,2042818.0,376_0_no,38.75618084099958,-120.49935633260922,50.0
95225,38.20399,-120.86488,Burson,CA,California,True,,618.0,24.6,6009,Calaveras,"{""06009"": 100}",Calaveras,06009,False,False,America/Los_Angeles,"(38.20399, -120.86488)",42.97085111500596,2042818.0,376_0_no,38.75618084099958,-120.49935633260922,50.0
95227,38.20678,-121.04615,Clements,CA,California,True,,734.0,7.4,6077,San Joaquin,"{""06077"": 100}",San Joaquin,06077,False,False,America/Los_Angeles,"(38.20678, -121.04615)",48.12051826683975,2042818.0,376_0_no,38.75618084099958,-120.49935633260922,50.0
95232,38.36051,-120.57722,Glencoe,CA,California,True,,203.0,15.8,6009,Calaveras,"{""06009"": 100}",Calaveras,06009,False,False,America/Los_Angeles,"(38.36051, -120.57722)",27.660041733053497,2042818.0,376_0_no,38.75618084099958,-120.49935633260922,50.0
95233,38.18622,-120.36859,Hathaway Pines,CA,California,True,,381.0,91.3,6009,Calaveras,"{""06009"": 100}",Calaveras,06009,False,False,America/Los_Angeles,"(38.18622, -120.36859)",40.01079995029229,2042818.0,376_0_no,38.75618084099958,-120.49935633260922,50.0
95236,38.04218,-121.03176,Linden,CA,California,True,,4458.0,13.5,6077,San Joaquin,"{""06077"": 98.09, ""06009"": 1.91}",San Joaquin|Calaveras,06077|06009,False,False,America/Los_Angeles,"(38.04218, -121.03176)",57.13839622842932,2042818.0,376_0_no,38.75618084099958,-120.49935633260922,50.0
95237,38.15953,-121.14845,Lockeford,CA,California,True,,3655.0,190.3,6077,San Joaquin,"{""06077"": 100}",San Joaquin,06077,False,False,America/Los_Angeles,"(38.15953, -121.14845)",54.15514207676425,2042818.0,376_0_no,38.75618084099958,-120.49935633260922,50.0
95240,38.1177,-121.1627,Lodi,CA,California,True,,49439.0,279.9,6077,San Joaquin,"{""06077"": 100}",San Joaquin,06077,False,False,America/Los_Angeles,"(38.1177, -121.1627)",56.876296521300716,2042818.0,376_0_no,38.75618084099958,-120.49935633260922,50.0
95242,38.13204,-121.38875,Lodi,CA,California,True,,27340.0,116.2,6077,San Joaquin,"{""06077"": 100}",San Joaquin,06077,False,False,America/Los_Angeles,"(38.13204, -121.38875)",64.62236509516647,2042818.0,376_0_no,38.75618084099958,-120.49935633260922,50.0
95245,38.30189,-120.61975,Mokelumne Hill,CA,California,True,,1650.0,9.1,6009,Calaveras,"{""06009"": 100}",Calaveras,06009,False,False,America/Los_Angeles,"(38.30189, -120.61975)",32.05595733622284,2042818.0,376_0_no,38.75618084099958,-120.49935633260922,50.0
95246,38.23662,-120.49589,Mountain Ranch,CA,California,True,,1234.0,6.9,6009,Calaveras,"{""06009"": 100}",Calaveras,06009,False,False,America/Los_Angeles,"(38.23662, -120.49589)",35.898724238852736,2042818.0,376_0_no,38.75618084099958,-120.49935633260922,50.0
95247,38.14264,-120.44359,Murphys,CA,California,True,,3853.0,31.6,6009,Calaveras,"{""06009"": 100}",Calaveras,06009,False,False,America/Los_Angeles,"(38.14264, -120.44359)",42.498896049529804,2042818.0,376_0_no,38.75618084099958,-120.49935633260922,50.0
95248,38.32433,-120.46051,Rail Road Flat,CA,California,True,,108.0,1.3,6009,Calaveras,"{""06009"": 100}",Calaveras,06009,False,False,America/Los_Angeles,"(38.32433, -120.46051)",29.911813232027534,2042818.0,376_0_no,38.75618084099958,-120.49935633260922,50.0
95249,38.18986,-120.61784,San Andreas,CA,California,True,,5988.0,28.5,6009,Calaveras,"{""06009"": 100}",Calaveras,06009,False,False,America/Los_Angeles,"(38.18986, -120.61784)",39.65045483236786,2042818.0,376_0_no,38.75618084099958,-120.49935633260922,50.0
95251,38.08024,-120.45769,Vallecito,CA,California,True,,496.0,15.7,6009,Calaveras,"{""06009"": 100}",Calaveras,06009,False,False,America/Los_Angeles,"(38.08024, -120.45769)",46.7574982751904,2042818.0,376_0_no,38.75618084099958,-120.49935633260922,50.0
95252,38.15871,-120.84214,Valley Springs,CA,California,True,,15779.0,53.4,6009,Calaveras,"{""06009"": 100}",Calaveras,06009,False,False,America/Los_Angeles,"(38.15871, -120.84214)",45.25596373458765,2042818.0,376_0_no,38.75618084099958,-120.49935633260922,50.0
95254,38.20323,-120.95857,Wallace,CA,California,True,,721.0,57.1,6009,Calaveras,"{""06009"": 100}",Calaveras,06009,False,False,America/Los_Angeles,"(38.20323, -120.95857)",45.56926292619978,2042818.0,376_0_no,38.75618084099958,-120.49935633260922,50.0
95255,38.42055,-120.47506,West Point,CA,California,True,,1591.0,13.9,6009,Calaveras,"{""06009"": 100}",Calaveras,06009,False,False,America/Los_Angeles,"(38.42055, -120.47506)",23.226975747732773,2042818.0,376_0_no,38.75618084099958,-120.49935633260922,50.0
95257,38.38068,-120.45255,Wilseyville,CA,California,True,,386.0,12.7,6009,Calaveras,"{""06009"": 100}",Calaveras,06009,False,False,America/Los_Angeles,"(38.38068, -120.45255)",26.067560578025166,2042818.0,376_0_no,38.75618084099958,-120.49935633260922,50.0
95258,38.16811,-121.31011,Woodbridge,CA,California,True,,3820.0,458.2,6077,San Joaquin,"{""06077"": 100}",San Joaquin,06077,False,False,America/Los_Angeles,"(38.16811, -121.31011)",59.790001324532504,2042818.0,376_0_no,38.75618084099958,-120.49935633260922,50.0
95310,38.09944,-120.36171,Columbia,CA,California,True,,1654.0,14.3,6109,Tuolumne,"{""06109"": 100}",Tuolumne,06109,False,False,America/Los_Angeles,"(38.09944, -120.36171)",45.9840291473396,2042818.0,376_0_no,38.75618084099958,-120.49935633260922,50.0
95335,38.11894,-120.09239,Long Barn,CA,California,True,,88.0,0.8,6109,Tuolumne,"{""06109"": 100}",Tuolumne,06109,False,False,America/Los_Angeles,"(38.11894, -120.09239)",49.230585512850475,2042818.0,376_0_no,38.75618084099958,-120.49935633260922,50.0
95346,38.07045,-120.17291,Mi Wuk Village,CA,California,True,,1159.0,87.6,6109,Tuolumne,"{""06109"": 100}",Tuolumne,06109,False,False,America/Los_Angeles,"(38.07045, -120.17291)",50.56823204530464,2042818.0,376_0_no,38.75618084099958,-120.49935633260922,50.0
95375,38.21493,-119.97031,Strawberry,CA,California,True,,5.0,0.1,6109,Tuolumne,"{""06109"": 100}",Tuolumne,06109,False,False,America/Los_Angeles,"(38.21493, -119.97031)",47.08719522583065,2042818.0,376_0_no,38.75618084099958,-120.49935633260922,50.0
95383,38.09534,-120.22602,Twain Harte,CA,California,True,,3816.0,22.2,6109,Tuolumne,"{""06109"": 100}",Tuolumne,06109,False,False,America/Los_Angeles,"(38.09534, -120.22602)",47.99696302529396,2042818.0,376_0_no,38.75618084099958,-120.49935633260922,50.0
95601,38.42713,-120.82997,Amador City,CA,California,True,,136.0,25.5,6005,Amador,"{""06005"": 100}",Amador,06005,False,False,America/Los_Angeles,"(38.42713, -120.82997)",28.908004033143847,2042818.0,376_0_no,38.75618084099958,-120.49935633260922,50.0
95602,38.99039,-121.10991,Auburn,CA,California,True,,18588.0,144.5,6061,Placer,"{""06061"": 78.02, ""06057"": 21.98}",Placer|Nevada,06061|06057,False,False,America/Los_Angeles,"(38.99039, -121.10991)",36.61288242907939,2042818.0,376_0_no,38.75618084099958,-120.49935633260922,50.0
95603,38.91167,-121.08559,Auburn,CA,California,True,,29930.0,323.1,6061,Placer,"{""06061"": 99.61, ""06017"": 0.39}",Placer|El Dorado,06061|06017,False,False,America/Los_Angeles,"(38.91167, -121.08559)",33.330754767796655,2042818.0,376_0_no,38.75618084099958,-120.49935633260922,50.0
95604,38.9112,-121.0982,Auburn,CA,California,True,,62.0,479.6,6061,Placer,"{""06061"": 100}",Placer,06061,False,False,America/Los_Angeles,"(38.9112, -121.0982)",33.96376828908051,2042818.0,376_0_no,38.75618084099958,-120.49935633260922,50.0
95608,38.62611,-121.32886,Carmichael,CA,California,True,,62330.0,1819.3,6067,Sacramento,"{""06067"": 100}",Sacramento,06067,False,False,America/Los_Angeles,"(38.62611, -121.32886)",45.62816478028188,2042818.0,376_0_no,38.75618084099958,-120.49935633260922,50.0
95610,38.69494,-121.27219,Citrus Heights,CA,California,True,,46924.0,2285.2,6067,Sacramento,"{""06067"": 100}",Sacramento,06067,False,False,America/Los_Angeles,"(38.69494, -121.27219)",41.8725200628197,2042818.0,376_0_no,38.75618084099958,-120.49935633260922,50.0
95614,38.88649,-120.98896,Cool,CA,California,True,,4446.0,54.1,6017,El Dorado,"{""06017"": 100}",El Dorado,06017,False,False,America/Los_Angeles,"(38.88649, -120.98896)",27.851241250403735,2042818.0,376_0_no,38.75618084099958,-120.49935633260922,50.0
95619,38.68218,-120.81401,Diamond Springs,CA,California,True,,6504.0,423.0,6017,El Dorado,"{""06017"": 100}",El Dorado,06017,False,False,America/Los_Angeles,"(38.68218, -120.81401)",17.71623227334315,2042818.0,376_0_no,38.75618084099958,-120.49935633260922,50.0
95621,38.69551,-121.30862,Citrus Heights,CA,California,True,,41755.0,2415.1,6067,Sacramento,"{""06067"": 100}",Sacramento,06067,False,False,America/Los_Angeles,"(38.69551, -121.30862)",43.82263906277457,2042818.0,376_0_no,38.75618084099958,-120.49935633260922,50.0
95623,38.6075,-120.84873,El Dorado,CA,California,True,,3949.0,34.1,6017,El Dorado,"{""06017"": 100}",El Dorado,06017,False,False,America/Los_Angeles,"(38.6075, -120.84873)",21.46215637109163,2042818.0,376_0_no,38.75618084099958,-120.49935633260922,50.0
95624,38.43203,-121.30506,Elk Grove,CA,California,True,,67017.0,568.0,6067,Sacramento,"{""06067"": 100}",Sacramento,06067,False,False,America/Los_Angeles,"(38.43203, -121.30506)",48.935630635310766,2042818.0,376_0_no,38.75618084099958,-120.49935633260922,50.0
95628,38.65212,-121.2543,Fair Oaks,CA,California,True,,40922.0,1225.6,6067,Sacramento,"{""06067"": 100}",Sacramento,06067,False,False,America/Los_Angeles,"(38.65212, -121.2543)",41.33613719678072,2042818.0,376_0_no,38.75618084099958,-120.49935633260922,50.0
95629,38.51277,-120.6875,Fiddletown,CA,California,True,,511.0,3.5,6005,Amador,"{""06005"": 60.81, ""06017"": 39.19}",Amador|El Dorado,06005|06017,False,False,America/Los_Angeles,"(38.51277, -120.6875)",19.64589369466143,2042818.0,376_0_no,38.75618084099958,-120.49935633260922,50.0
95630,38.66558,-121.141,Folsom,CA,California,True,,79584.0,1173.2,6067,Sacramento,"{""06067"": 100}",Sacramento,06067,False,False,America/Los_Angeles,"(38.66558, -121.141)",35.15557319412037,2042818.0,376_0_no,38.75618084099958,-120.49935633260922,50.0
95631,39.05453,-120.75365,Foresthill,CA,California,True,,6604.0,14.7,6061,Placer,"{""06061"": 100}",Placer,06061,False,False,America/Los_Angeles,"(39.05453, -120.75365)",24.736153077554846,2042818.0,376_0_no,38.75618084099958,-120.49935633260922,50.0
95632,38.27705,-121.26128,Galt,CA,California,True,,32039.0,109.2,6067,Sacramento,"{""06067"": 69.5, ""06077"": 30.5}",Sacramento|San Joaquin,06067|06077,False,False,America/Los_Angeles,"(38.27705, -121.26128)",52.84419314757835,2042818.0,376_0_no,38.75618084099958,-120.49935633260922,50.0
95633,38.84919,-120.82328,Garden Valley,CA,California,True,,4482.0,43.9,6017,El Dorado,"{""06017"": 100}",El Dorado,06017,False,False,America/Los_Angeles,"(38.84919, -120.82328)",18.587899536599824,2042818.0,376_0_no,38.75618084099958,-120.49935633260922,50.0
95634,38.9123,-120.69443,Georgetown,CA,California,True,,3921.0,12.8,6017,El Dorado,"{""06017"": 100}",El Dorado,06017,False,False,America/Los_Angeles,"(38.9123, -120.69443)",15.052780472918133,2042818.0,376_0_no,38.75618084099958,-120.49935633260922,50.0
95635,38.91111,-120.90043,Greenwood,CA,California,True,,801.0,10.5,6017,El Dorado,"{""06017"": 100}",El Dorado,06017,False,False,America/Los_Angeles,"(38.91111, -120.90043)",24.094853442060572,2042818.0,376_0_no,38.75618084099958,-120.49935633260922,50.0
95636,38.6274,-120.51852,Grizzly Flats,CA,California,True,,1382.0,46.5,6017,El Dorado,"{""06017"": 100}",El Dorado,06017,False,False,America/Los_Angeles,"(38.6274, -120.51852)",8.957725361323329,2042818.0,376_0_no,38.75618084099958,-120.49935633260922,50.0
95638,38.33969,-121.11481,Herald,CA,California,True,,2142.0,10.3,6067,Sacramento,"{""06067"": 100}",Sacramento,06067,False,False,America/Los_Angeles,"(38.33969, -121.11481)",43.978783643388866,2042818.0,376_0_no,38.75618084099958,-120.49935633260922,50.0
95640,38.33922,-120.94024,Ione,CA,California,True,,11872.0,34.9,6005,Amador,"{""06005"": 99.69, ""06067"": 0.31}",Amador|Sacramento,06005|06067,False,False,America/Los_Angeles,"(38.33922, -120.94024)",37.383875358035105,2042818.0,376_0_no,38.75618084099958,-120.49935633260922,50.0
95642,38.3434,-120.76398,Jackson,CA,California,True,,6547.0,38.0,6005,Amador,"{""06005"": 100}",Amador,06005,False,False,America/Los_Angeles,"(38.3434, -120.76398)",31.904193415286432,2042818.0,376_0_no,38.75618084099958,-120.49935633260922,50.0
95648,38.92643,-121.31101,Lincoln,CA,California,True,,52777.0,141.2,6061,Placer,"{""06061"": 100}",Placer,06061,False,False,America/Los_Angeles,"(38.92643, -121.31101)",45.23588133272514,2042818.0,376_0_no,38.75618084099958,-120.49935633260922,50.0
95650,38.81339,-121.16831,Loomis,CA,California,True,,15172.0,256.1,6061,Placer,"{""06061"": 100}",Placer,06061,False,False,America/Los_Angeles,"(38.81339, -121.16831)",36.24501999047911,2042818.0,376_0_no,38.75618084099958,-120.49935633260922,50.0
95651,38.82088,-120.93515,Lotus,CA,California,True,,480.0,13.9,6017,El Dorado,"{""06017"": 100}",El Dorado,06017,False,False,America/Los_Angeles,"(38.82088, -120.93515)",23.89191749665372,2042818.0,376_0_no,38.75618084099958,-120.49935633260922,50.0
95652,38.66265,-121.40079,Mcclellan,CA,California,True,,635.0,65.6,6067,Sacramento,"{""06067"": 100}",Sacramento,06067,False,False,America/Los_Angeles,"(38.66265, -121.40079)",49.02880014197677,2042818.0,376_0_no,38.75618084099958,-120.49935633260922,50.0
95655,38.54976,-121.27898,Mather,CA,California,True,,4334.0,175.6,6067,Sacramento,"{""06067"": 100}",Sacramento,06067,False,False,America/Los_Angeles,"(38.54976, -121.27898)",44.41877481168755,2042818.0,376_0_no,38.75618084099958,-120.49935633260922,50.0
95658,38.87938,-121.15173,Newcastle,CA,California,True,,6491.0,107.5,6061,Placer,"{""06061"": 100}",Placer,06061,False,False,America/Los_Angeles,"(38.87938, -121.15173)",36.13645911048849,2042818.0,376_0_no,38.75618084099958,-120.49935633260922,50.0
95660,38.67883,-121.3805,North Highlands,CA,California,True,,36820.0,2237.1,6067,Sacramento,"{""06067"": 100}",Sacramento,06067,False,False,America/Los_Angeles,"(38.67883, -121.3805)",47.80144248615186,2042818.0,376_0_no,38.75618084099958,-120.49935633260922,50.0
95661,38.74129,-121.24925,Roseville,CA,California,True,,31851.0,1373.4,6061,Placer,"{""06061"": 100}",Placer,06061,False,False,America/Los_Angeles,"(38.74129, -121.24925)",40.421632731665014,2042818.0,376_0_no,38.75618084099958,-120.49935633260922,50.0
95662,38.68917,-121.21988,Orangevale,CA,California,True,,32363.0,1156.3,6067,Sacramento,"{""06067"": 100}",Sacramento,06067,False,False,America/Los_Angeles,"(38.68917, -121.21988)",39.11507588102019,2042818.0,376_0_no,38.75618084099958,-120.49935633260922,50.0
95663,38.85739,-121.18251,Penryn,CA,California,True,,2787.0,123.7,6061,Placer,"{""06061"": 100}",Placer,06061,False,False,America/Los_Angeles,"(38.85739, -121.18251)",37.44108667583569,2042818.0,376_0_no,38.75618084099958,-120.49935633260922,50.0
95664,38.79755,-121.05136,Pilot Hill,CA,California,True,,1280.0,13.5,6017,El Dorado,"{""06017"": 100}",El Dorado,06017,False,False,America/Los_Angeles,"(38.79755, -121.05136)",29.870483494376888,2042818.0,376_0_no,38.75618084099958,-120.49935633260922,50.0
95665,38.39587,-120.65238,Pine Grove,CA,California,True,,3729.0,71.1,6005,Amador,"{""06005"": 100}",Amador,06005,False,False,America/Los_Angeles,"(38.39587, -120.65238)",26.231428536922255,2042818.0,376_0_no,38.75618084099958,-120.49935633260922,50.0
95666,38.54113,-120.33076,Pioneer,CA,California,True,,4692.0,21.6,6005,Amador,"{""06005"": 100}",Amador,06005,False,False,America/Los_Angeles,"(38.54113, -120.33076)",17.422552761398595,2042818.0,376_0_no,38.75618084099958,-120.49935633260922,50.0
95667,38.73407,-120.79216,Placerville,CA,California,True,,35452.0,81.0,6017,El Dorado,"{""06017"": 100}",El Dorado,06017,False,False,America/Los_Angeles,"(38.73407, -120.79216)",15.85254707724987,2042818.0,376_0_no,38.75618084099958,-120.49935633260922,50.0
95669,38.49522,-120.89157,Plymouth,CA,California,True,,4899.0,25.0,6005,Amador,"{""06005"": 100}",Amador,06005,False,False,America/Los_Angeles,"(38.49522, -120.89157)",27.808621062936805,2042818.0,376_0_no,38.75618084099958,-120.49935633260922,50.0
95670,38.60461,-121.27963,Rancho Cordova,CA,California,True,,57222.0,1710.4,6067,Sacramento,"{""06067"": 100}",Sacramento,06067,False,False,America/Los_Angeles,"(38.60461, -121.27963)",43.36917348592105,2042818.0,376_0_no,38.75618084099958,-120.49935633260922,50.0
95672,38.72664,-120.99638,Rescue,CA,California,True,,6543.0,116.2,6017,El Dorado,"{""06017"": 100}",El Dorado,06017,False,False,America/Los_Angeles,"(38.72664, -120.99638)",26.862905785891275,2042818.0,376_0_no,38.75618084099958,-120.49935633260922,50.0
95675,38.54548,-120.74277,River Pines,CA,California,True,,420.0,800.9,6005,Amador,"{""06005"": 96.96, ""06017"": 3.04}",Amador|El Dorado,06005|06017,False,False,America/Los_Angeles,"(38.54548, -120.74277)",19.60743418355785,2042818.0,376_0_no,38.75618084099958,-120.49935633260922,50.0
95677,38.79298,-121.23133,Rocklin,CA,California,True,,26872.0,1067.0,6061,Placer,"{""06061"": 100}",Placer,06061,False,False,America/Los_Angeles,"(38.79298, -121.23133)",39.51052060799366,2042818.0,376_0_no,38.75618084099958,-120.49935633260922,50.0
95678,38.76536,-121.28847,Roseville,CA,California,True,,43078.0,1455.8,6061,Placer,"{""06061"": 100}",Placer,06061,False,False,America/Los_Angeles,"(38.76536, -121.28847)",42.51948200612574,2042818.0,376_0_no,38.75618084099958,-120.49935633260922,50.0
95681,38.99809,-121.35422,Sheridan,CA,California,True,,1023.0,25.3,6061,Placer,"{""06061"": 100}",Placer,06061,False,False,America/Los_Angeles,"(38.99809, -121.35422)",48.9254130921989,2042818.0,376_0_no,38.75618084099958,-120.49935633260922,50.0
95682,38.60537,-120.96175,Shingle Springs,CA,California,True,,29556.0,127.0,6017,El Dorado,"{""06017"": 100}",El Dorado,06017,False,False,America/Los_Angeles,"(38.60537, -120.96175)",27.029372575846427,2042818.0,376_0_no,38.75618084099958,-120.49935633260922,50.0
95683,38.51018,-121.09894,Sloughhouse,CA,California,True,,6084.0,27.2,6067,Sacramento,"{""06067"": 100}",Sacramento,06067,False,False,America/Los_Angeles,"(38.51018, -121.09894)",36.55331165282562,2042818.0,376_0_no,38.75618084099958,-120.49935633260922,50.0
95684,38.59098,-120.55066,Somerset,CA,California,True,,2857.0,6.9,6017,El Dorado,"{""06017"": 100}",El Dorado,06017,False,False,America/Los_Angeles,"(38.59098, -120.55066)",11.744990249247993,2042818.0,376_0_no,38.75618084099958,-120.49935633260922,50.0
95685,38.42716,-120.76698,Sutter Creek,CA,California,True,,4796.0,46.3,6005,Amador,"{""06005"": 100}",Amador,06005,False,False,America/Los_Angeles,"(38.42716, -120.76698)",26.938426273308604,2042818.0,376_0_no,38.75618084099958,-120.49935633260922,50.0
95689,38.47088,-120.61566,Volcano,CA,California,True,,1454.0,22.2,6005,Amador,"{""06005"": 100}",Amador,06005,False,False,America/Los_Angeles,"(38.47088, -120.61566)",20.688266694597292,2042818.0,376_0_no,38.75618084099958,-120.49935633260922,50.0
95692,39.04699,-121.40471,Wheatland,CA,California,True,,4924.0,33.2,6115,Yuba,"{""06115"": 97.71, ""06101"": 2.29}",Yuba|Sutter,06115|06101,False,False,America/Los_Angeles,"(39.04699, -121.40471)",52.66446186512254,2042818.0,376_0_no,38.75618084099958,-120.49935633260922,50.0
95693,38.39851,-121.21956,Wilton,CA,California,True,,6404.0,42.2,6067,Sacramento,"{""06067"": 100}",Sacramento,06067,False,False,America/Los_Angeles,"(38.39851, -121.21956)",46.087346587801854,2042818.0,376_0_no,38.75618084099958,-120.49935633260922,50.0
95699,38.44074,-120.85702,Drytown,CA,California,True,,13.0,1.4,6005,Amador,"{""06005"": 100}",Amador,06005,False,False,America/Los_Angeles,"(38.44074, -120.85702)",29.120876961423516,2042818.0,376_0_no,38.75618084099958,-120.49935633260922,50.0
95701,39.22633,-120.76741,Alta,CA,California,True,,1064.0,12.9,6061,Placer,"{""06061"": 100}",Placer,06061,False,False,America/Los_Angeles,"(39.22633, -120.76741)",35.530823238041165,2042818.0,376_0_no,38.75618084099958,-120.49935633260922,50.0
95703,38.99156,-120.9864,Applegate,CA,California,True,,910.0,39.6,6061,Placer,"{""06061"": 100}",Placer,06061,False,False,America/Los_Angeles,"(38.99156, -120.9864)",30.83597130553444,2042818.0,376_0_no,38.75618084099958,-120.49935633260922,50.0
95709,38.74886,-120.68134,Camino,CA,California,True,,5634.0,91.4,6017,El Dorado,"{""06017"": 100}",El Dorado,06017,False,False,America/Los_Angeles,"(38.74886, -120.68134)",9.818858650481594,2042818.0,376_0_no,38.75618084099958,-120.49935633260922,50.0
95713,39.08477,-120.92788,Colfax,CA,California,True,,10545.0,67.0,6061,Placer,"{""06061"": 100}",Placer,06061,False,False,America/Los_Angeles,"(39.08477, -120.92788)",32.343167769851036,2042818.0,376_0_no,38.75618084099958,-120.49935633260922,50.0
95714,39.2013,-120.83677,Dutch Flat,CA,California,True,,445.0,47.8,6061,Placer,"{""06061"": 100}",Placer,06061,False,False,America/Los_Angeles,"(39.2013, -120.83677)",35.697329591152304,2042818.0,376_0_no,38.75618084099958,-120.49935633260922,50.0
95715,39.27495,-120.64388,Emigrant Gap,CA,California,True,,101.0,1.2,6061,Placer,"{""06061"": 100}",Placer,06061,False,False,America/Los_Angeles,"(39.27495, -120.64388)",36.673606904033754,2042818.0,376_0_no,38.75618084099958,-120.49935633260922,50.0
95717,39.14258,-120.84268,Gold Run,CA,California,True,,150.0,3.0,6061,Placer,"{""06061"": 100}",Placer,06061,False,False,America/Los_Angeles,"(39.14258, -120.84268)",32.45142408768842,2042818.0,376_0_no,38.75618084099958,-120.49935633260922,50.0
95720,38.84536,-120.26021,Kyburz,CA,California,True,,108.0,0.3,6017,El Dorado,"{""06017"": 100}",El Dorado,06017,False,False,America/Los_Angeles,"(38.84536, -120.26021)",14.275455448612261,2042818.0,376_0_no,38.75618084099958,-120.49935633260922,50.0
95722,39.00467,-121.02891,Meadow Vista,CA,California,True,,4969.0,183.7,6061,Placer,"{""06061"": 100}",Placer,06061,False,False,America/Los_Angeles,"(39.00467, -121.02891)",33.25708039225877,2042818.0,376_0_no,38.75618084099958,-120.49935633260922,50.0
95726,38.75418,-120.41989,Pollock Pines,CA,California,True,,8207.0,22.2,6017,El Dorado,"{""06017"": 100}",El Dorado,06017,False,False,America/Los_Angeles,"(38.75418, -120.41989)",4.283954530241436,2042818.0,376_0_no,38.75618084099958,-120.49935633260922,50.0
95728,39.29673,-120.40358,Soda Springs,CA,California,True,,328.0,4.5,6061,Placer,"{""06061"": 76.85, ""06057"": 23.15}",Placer|Nevada,06061|06057,False,False,America/Los_Angeles,"(39.29673, -120.40358)",37.70053003195836,2042818.0,376_0_no,38.75618084099958,-120.49935633260922,50.0
95735,38.82986,-120.17936,Twin Bridges,CA,California,True,,33.0,0.3,6017,El Dorado,"{""06017"": 100}",El Dorado,06017,False,False,America/Los_Angeles,"(38.82986, -120.17936)",17.968770870141437,2042818.0,376_0_no,38.75618084099958,-120.49935633260922,50.0
95736,39.03905,-120.97738,Weimar,CA,California,True,,277.0,462.5,6061,Placer,"{""06061"": 100}",Placer,06061,False,False,America/Los_Angeles,"(39.03905, -120.97738)",32.29117590815105,2042818.0,376_0_no,38.75618084099958,-120.49935633260922,50.0
95742,38.5735,-121.19854,Rancho Cordova,CA,California,True,,12643.0,96.8,6067,Sacramento,"{""06067"": 100}",Sacramento,06067,False,False,America/Los_Angeles,"(38.5735, -121.19854)",39.775986412236946,2042818.0,376_0_no,38.75618084099958,-120.49935633260922,50.0
95746,38.75009,-121.16712,Granite Bay,CA,California,True,,23208.0,487.0,6061,Placer,"{""06061"": 100}",Placer,06061,False,False,America/Los_Angeles,"(38.75009, -121.16712)",35.98316941974079,2042818.0,376_0_no,38.75618084099958,-120.49935633260922,50.0
95747,38.77963,-121.36798,Roseville,CA,California,True,,68541.0,628.4,6061,Placer,"{""06061"": 100}",Placer,06061,False,False,America/Los_Angeles,"(38.77963, -121.36798)",46.82180834657428,2042818.0,376_0_no,38.75618084099958,-120.49935633260922,50.0
95762,38.67694,-121.05755,El Dorado Hills,CA,California,True,,43396.0,402.9,6017,El Dorado,"{""06017"": 100}",El Dorado,06017,False,False,America/Los_Angeles,"(38.67694, -121.05755)",30.586243368540302,2042818.0,376_0_no,38.75618084099958,-120.49935633260922,50.0
95765,38.81982,-121.27772,Rocklin,CA,California,True,,39992.0,1233.1,6061,Placer,"{""06061"": 100}",Placer,06061,False,False,America/Los_Angeles,"(38.81982, -121.27772)",42.14954687775738,2042818.0,376_0_no,38.75618084099958,-120.49935633260922,50.0
95821,38.62541,-121.38479,Sacramento,CA,California,True,,36434.0,1992.0,6067,Sacramento,"{""06067"": 100}",Sacramento,06067,False,False,America/Los_Angeles,"(38.62541, -121.38479)",48.59813981914704,2042818.0,376_0_no,38.75618084099958,-120.49935633260922,50.0
95825,38.5901,-121.40644,Sacramento,CA,California,True,,37268.0,3090.7,6067,Sacramento,"{""06067"": 100}",Sacramento,06067,False,False,America/Los_Angeles,"(38.5901, -121.40644)",50.257981344459445,2042818.0,376_0_no,38.75618084099958,-120.49935633260922,50.0
95826,38.54554,-121.37885,Sacramento,CA,California,True,,39210.0,1436.6,6067,Sacramento,"{""06067"": 100}",Sacramento,06067,False,False,America/Los_Angeles,"(38.54554, -121.37885)",49.638423354033335,2042818.0,376_0_no,38.75618084099958,-120.49935633260922,50.0
95827,38.55151,-121.3253,Sacramento,CA,California,True,,21325.0,920.5,6067,Sacramento,"{""06067"": 100}",Sacramento,06067,False,False,America/Los_Angeles,"(38.55151, -121.3253)",46.755395713924564,2042818.0,376_0_no,38.75618084099958,-120.49935633260922,50.0
95828,38.48943,-121.39598,Sacramento,CA,California,True,,59139.0,1841.0,6067,Sacramento,"{""06067"": 100}",Sacramento,06067,False,False,America/Los_Angeles,"(38.48943, -121.39598)",51.79055964899974,2042818.0,376_0_no,38.75618084099958,-120.49935633260922,50.0
95829,38.48759,-121.33326,Sacramento,CA,California,True,,29014.0,551.6,6067,Sacramento,"{""06067"": 100}",Sacramento,06067,False,False,America/Los_Angeles,"(38.48759, -121.33326)",48.690342150841104,2042818.0,376_0_no,38.75618084099958,-120.49935633260922,50.0
95830,38.49415,-121.27229,Sacramento,CA,California,True,,670.0,19.9,6067,Sacramento,"{""06067"": 100}",Sacramento,06067,False,False,America/Los_Angeles,"(38.49415, -121.27229)",45.48073671889978,2042818.0,376_0_no,38.75618084099958,-120.49935633260922,50.0
95841,38.66031,-121.34812,Sacramento,CA,California,True,,20063.0,1987.4,6067,Sacramento,"{""06067"": 100}",Sacramento,06067,False,False,America/Los_Angeles,"(38.66031, -121.34812)",46.23902024461337,2042818.0,376_0_no,38.75618084099958,-120.49935633260922,50.0
95842,38.687,-121.34889,Sacramento,CA,California,True,,33287.0,3235.9,6067,Sacramento,"{""06067"": 100}",Sacramento,06067,False,False,America/Los_Angeles,"(38.687, -121.34889)",46.04384514726256,2042818.0,376_0_no,38.75618084099958,-120.49935633260922,50.0
95843,38.71532,-121.36366,Antelope,CA,California,True,,47928.0,2839.6,6067,Sacramento,"{""06067"": 100}",Sacramento,06067,False,False,America/Los_Angeles,"(38.71532, -121.36366)",46.66749836529042,2042818.0,376_0_no,38.75618084099958,-120.49935633260922,50.0
95864,38.58512,-121.37655,Sacramento,CA,California,True,,25001.0,1537.1,6067,Sacramento,"{""06067"": 100}",Sacramento,06067,False,False,America/Los_Angeles,"(38.58512, -121.37655)",48.77346505443308,2042818.0,376_0_no,38.75618084099958,-120.49935633260922,50.0
95903,39.11337,-121.37192,Beale Afb,CA,California,True,,1601.0,30.2,6115,Yuba,"{""06115"": 100}",Yuba,06115,False,False,America/Los_Angeles,"(39.11337, -121.37192)",52.993166488787736,2042818.0,376_0_no,38.75618084099958,-120.49935633260922,50.0
95910,39.46742,-120.83158,Alleghany,CA,California,True,,157.0,1.8,6091,Sierra,"{""06091"": 100}",Sierra,06091,False,False,America/Los_Angeles,"(39.46742, -120.83158)",52.26988745475578,2042818.0,376_0_no,38.75618084099958,-120.49935633260922,50.0
95914,39.40756,-121.37878,Bangor,CA,California,True,,660.0,11.6,6007,Butte,"{""06007"": 88.11, ""06115"": 11.89}",Butte|Yuba,06007|06115,False,False,America/Los_Angeles,"(39.40756, -121.37878)",65.19307098153362,2042818.0,376_0_no,38.75618084099958,-120.49935633260922,50.0
95918,39.301,-121.34547,Browns Valley,CA,California,True,,2613.0,18.1,6115,Yuba,"{""06115"": 100}",Yuba,06115,False,False,America/Los_Angeles,"(39.301, -121.34547)",58.9866299508732,2042818.0,376_0_no,38.75618084099958,-120.49935633260922,50.0
95919,39.43445,-121.26554,Brownsville,CA,California,True,,1306.0,18.8,6115,Yuba,"{""06115"": 100}",Yuba,06115,False,False,America/Los_Angeles,"(39.43445, -121.26554)",62.323020459678325,2042818.0,376_0_no,38.75618084099958,-120.49935633260922,50.0
95922,39.47033,-121.07736,Camptonville,CA,California,True,,512.0,3.8,6115,Yuba,"{""06115"": 83.15, ""06091"": 16.85}",Yuba|Sierra,06115|06091,False,False,America/Los_Angeles,"(39.47033, -121.07736)",58.265415318860995,2042818.0,376_0_no,38.75618084099958,-120.49935633260922,50.0
95925,39.46798,-121.18006,Challenge,CA,California,True,,261.0,2.9,6115,Yuba,"{""06115"": 100}",Yuba,06115,False,False,America/Los_Angeles,"(39.46798, -121.18006)",61.240570168600854,2042818.0,376_0_no,38.75618084099958,-120.49935633260922,50.0
95935,39.37369,-121.19615,Dobbins,CA,California,True,,113.0,1.7,6115,Yuba,"{""06115"": 100}",Yuba,06115,False,False,America/Los_Angeles,"(39.37369, -121.19615)",56.72409075577779,2042818.0,376_0_no,38.75618084099958,-120.49935633260922,50.0
95945,39.19426,-120.98199,Grass Valley,CA,California,True,,26281.0,166.0,6057,Nevada,"{""06057"": 100}",Nevada,06057,False,False,America/Los_Angeles,"(39.19426, -120.98199)",39.85271800450985,2042818.0,376_0_no,38.75618084099958,-120.49935633260922,50.0
95946,39.21052,-121.20467,Penn Valley,CA,California,True,,8335.0,72.0,6057,Nevada,"{""06057"": 100}",Nevada,06057,False,False,America/Los_Angeles,"(39.21052, -121.20467)",49.19760091423234,2042818.0,376_0_no,38.75618084099958,-120.49935633260922,50.0
95949,39.102,-121.13343,Grass Valley,CA,California,True,,20763.0,58.5,6057,Nevada,"{""06057"": 100}",Nevada,06057,False,False,America/Los_Angeles,"(39.102, -121.13343)",41.62237093951166,2042818.0,376_0_no,38.75618084099958,-120.49935633260922,50.0
95959,39.34509,-120.86797,Nevada City,CA,California,True,,17838.0,22.1,6057,Nevada,"{""06057"": 100}",Nevada,06057,False,False,America/Los_Angeles,"(39.34509, -120.86797)",45.24207248032881,2042818.0,376_0_no,38.75618084099958,-120.49935633260922,50.0
95960,39.39121,-121.0583,North San Juan,CA,California,True,,592.0,5.5,6091,Sierra,"{""06091"": 39.04, ""06057"": 37.19, ""06115"": 23.77}",Sierra|Nevada|Yuba,06091|06057|06115,False,False,America/Los_Angeles,"(39.39121, -121.0583)",53.141294379064924,2042818.0,376_0_no,38.75618084099958,-120.49935633260922,50.0
95962,39.32669,-121.26876,Oregon House,CA,California,True,,1053.0,10.7,6115,Yuba,"{""06115"": 100}",Yuba,06115,False,False,America/Los_Angeles,"(39.32669, -121.26876)",57.083959536274385,2042818.0,376_0_no,38.75618084099958,-120.49935633260922,50.0
95975,39.22436,-121.15367,Rough And Ready,CA,California,True,,1736.0,71.0,6057,Nevada,"{""06057"": 100}",Nevada,06057,False,False,America/Los_Angeles,"(39.22436, -121.15367)",47.76084179591103,2042818.0,376_0_no,38.75618084099958,-120.49935633260922,50.0
95977,39.17967,-121.29007,Smartsville,CA,California,True,,1586.0,16.3,6115,Yuba,"{""06115"": 61.21, ""06057"": 38.79}",Yuba|Nevada,06115|06057,False,False,America/Los_Angeles,"(39.17967, -121.29007)",51.57943277472891,2042818.0,376_0_no,38.75618084099958,-120.49935633260922,50.0
95986,39.36149,-120.7652,Washington,CA,California,True,,123.0,4.4,6057,Nevada,"{""06057"": 100}",Nevada,06057,False,False,America/Los_Angeles,"(39.36149, -120.7652)",44.187942482046566,2042818.0,376_0_no,38.75618084099958,-120.49935633260922,50.0
96111,39.41571,-120.01648,Floriston,CA,California,True,,111.0,9.0,6057,Nevada,"{""06057"": 100}",Nevada,06057,False,False,America/Los_Angeles,"(39.41571, -120.01648)",52.413433653635806,2042818.0,376_0_no,38.75618084099958,-120.49935633260922,50.0
96120,38.745,-119.82485,Markleeville,CA,California,True,,927.0,1.6,6003,Alpine,"{""06003"": 100}",Alpine,06003,False,False,America/Los_Angeles,"(38.745, -119.82485)",36.353522492690935,2042818.0,376_0_no,38.75618084099958,-120.49935633260922,50.0
96140,39.23244,-120.10364,Carnelian Bay,CA,California,True,,1345.0,50.2,6061,Placer,"{""06061"": 100}",Placer,06061,False,False,America/Los_Angeles,"(39.23244, -120.10364)",39.17118734336866,2042818.0,376_0_no,38.75618084099958,-120.49935633260922,50.0
96141,39.10297,-120.19872,Homewood,CA,California,True,,463.0,6.2,6061,Placer,"{""06061"": 100}",Placer,06061,False,False,America/Los_Angeles,"(39.10297, -120.19872)",28.900355324606796,2042818.0,376_0_no,38.75618084099958,-120.49935633260922,50.0
96142,39.0138,-120.09592,Tahoma,CA,California,True,,934.0,22.6,6017,El Dorado,"{""06017"": 99.15, ""06061"": 0.85}",El Dorado|Placer,06017|06061,False,False,America/Los_Angeles,"(39.0138, -120.09592)",28.06475632984212,2042818.0,376_0_no,38.75618084099958,-120.49935633260922,50.0
96143,39.26174,-120.02817,Kings Beach,CA,California,True,,3356.0,140.4,6061,Placer,"{""06061"": 100}",Placer,06061,False,False,America/Los_Angeles,"(39.26174, -120.02817)",43.128985360579605,2042818.0,376_0_no,38.75618084099958,-120.49935633260922,50.0
96145,39.18203,-120.15143,Tahoe City,CA,California,True,,2664.0,58.1,6061,Placer,"{""06061"": 100}",Placer,06061,False,False,America/Los_Angeles,"(39.18203, -120.15143)",34.85766509304408,2042818.0,376_0_no,38.75618084099958,-120.49935633260922,50.0
96146,39.22556,-120.23681,Olympic Valley,CA,California,True,,1096.0,10.5,6061,Placer,"{""06061"": 100}",Placer,06061,False,False,America/Los_Angeles,"(39.22556, -120.23681)",35.36326753674546,2042818.0,376_0_no,38.75618084099958,-120.49935633260922,50.0
96148,39.24978,-120.05767,Tahoe Vista,CA,California,True,,679.0,125.5,6061,Placer,"{""06061"": 100}",Placer,06061,False,False,America/Los_Angeles,"(39.24978, -120.05767)",41.53954920923554,2042818.0,376_0_no,38.75618084099958,-120.49935633260922,50.0
96150,38.88971,-120.04409,South Lake Tahoe,CA,California,True,,30369.0,71.9,6017,El Dorado,"{""06017"": 100}",El Dorado,06017,False,False,America/Los_Angeles,"(38.88971, -120.04409)",26.18595637781639,2042818.0,376_0_no,38.75618084099958,-120.49935633260922,50.0
96161,39.34848,-120.22603,Truckee,CA,California,True,,18782.0,27.6,6057,Nevada,"{""06057"": 70.01, ""06061"": 29.99}",Nevada|Placer,06057|06061,False,False,America/Los_Angeles,"(39.34848, -120.22603)",43.472347804230864,2042818.0,376_0_no,38.75618084099958,-120.49935633260922,50.0
