zip,lat,lng,city,state_id,state_name,zcta,parent_zcta,population,density,county_fips,county_name,county_weights,county_names_all,county_fips_all,imprecise,military,timezone,Coord,distance_miles,market_total_population,market_id,market_center_lat,market_center_lng,radius_miles
83302,42.10012,-114.82857,Rogerson,ID,Idaho,True,,243.0,0.3,16083,Twin Falls,"{""16083"": 74.28, ""16073"": 25.72}",Twin Falls|Owyhee,16083|16073,False,False,America/Boise,"(42.10012, -114.82857)",37.321848038661294,5467.0,435_0_no,41.60305636411748,-114.5447101477408,50.0
83312,42.10296,-113.6319,Almo,ID,Idaho,True,,74.0,0.3,16031,Cassia,"{""16031"": 100}",Cassia,16031,False,False,America/Boise,"(42.10296, -113.6319)",58.308195481041636,5467.0,435_0_no,41.60305636411748,-114.5447101477408,50.0
83346,42.19491,-113.9046,Oakley,ID,Idaho,True,,1981.0,2.5,16031,Cassia,"{""16031"": 100}",Cassia,16031,False,False,America/Boise,"(42.19491, -113.9046)",52.496741054159735,5467.0,435_0_no,41.60305636411748,-114.5447101477408,50.0
84313,41.34615,-113.71268,Grouse Creek,UT,Utah,True,,62.0,0.0,49003,Box Elder,"{""49003"": 100}",Box Elder,49003,False,False,America/Denver,"(41.34615, -113.71268)",46.58663633536598,5467.0,435_0_no,41.60305636411748,-114.5447101477408,50.0
89823,40.96431,-115.22821,Deeth,NV,Nevada,True,,363.0,0.6,32007,Elko,"{""32007"": 100}",Elko,32007,False,False,America/Los_Angeles,"(40.96431, -115.22821)",56.6308692447454,5467.0,435_0_no,41.60305636411748,-114.5447101477408,50.0
89825,41.90422,-114.71103,Jackpot,NV,Nevada,True,,1101.0,6.7,32007,Elko,"{""32007"": 100}",Elko,32007,False,False,America/Los_Angeles,"(41.90422, -114.71103)",22.505217024327788,5467.0,435_0_no,41.60305636411748,-114.5447101477408,50.0
89830,41.32794,-114.22677,Montello,NV,Nevada,True,,99.0,0.2,32007,Elko,"{""32007"": 100}",Elko,32007,False,False,America/Los_Angeles,"(41.32794, -114.22677)",25.145790724844087,5467.0,435_0_no,41.60305636411748,-114.5447101477408,50.0
89835,41.2848,-114.87765,Wells,NV,Nevada,True,,1544.0,0.3,32007,Elko,"{""32007"": 100}",Elko,32007,False,False,America/Los_Angeles,"(41.2848, -114.87765)",27.944267448202563,5467.0,435_0_no,41.60305636411748,-114.5447101477408,50.0
