zip,lat,lng,city,state_id,state_name,zcta,parent_zcta,population,density,county_fips,county_name,county_weights,county_names_all,county_fips_all,imprecise,military,timezone,Coord,distance_miles,market_total_population,market_id,market_center_lat,market_center_lng,radius_miles
83301,42.39472,-114.52203,Twin Falls,ID,Idaho,True,,58230.0,76.0,16083,Twin Falls,"{""16083"": 99.26, ""16053"": 0.74}",Twin Falls|Jerome,16083|16053,False,False,America/Boise,"(42.39472, -114.52203)",36.51500336983091,136371.0,442_0_yes,42.32755204212979,-115.23145539641048,50.0
83302,42.10012,-114.82857,Rogerson,ID,Idaho,True,,243.0,0.3,16083,Twin Falls,"{""16083"": 74.28, ""16073"": 25.72}",Twin Falls|Owyhee,16083|16073,False,False,America/Boise,"(42.10012, -114.82857)",25.922810100885183,136371.0,442_0_yes,42.32755204212979,-115.23145539641048,50.0
83314,42.97376,-114.95228,Bliss,ID,Idaho,True,,1006.0,3.0,16047,Gooding,"{""16047"": 99.13, ""16083"": 0.87}",Gooding|Twin Falls,16047|16083,False,False,America/Boise,"(42.97376, -114.95228)",46.84843403441816,136371.0,442_0_yes,42.32755204212979,-115.23145539641048,50.0
83316,42.60622,-114.88507,Buhl,ID,Idaho,True,,10057.0,13.2,16083,Twin Falls,"{""16083"": 84.93, ""16073"": 14.32, ""16047"": 0.75}",Twin Falls|Owyhee|Gooding,16083|16073|16047,False,False,America/Boise,"(42.60622, -114.88507)",26.122830376053038,136371.0,442_0_yes,42.32755204212979,-115.23145539641048,50.0
83321,42.35955,-114.86312,Castleford,ID,Idaho,True,,499.0,1.1,16083,Twin Falls,"{""16083"": 100}",Twin Falls,16083,False,False,America/Boise,"(42.35955, -114.86312)",18.939719506724465,136371.0,442_0_yes,42.32755204212979,-115.23145539641048,50.0
83324,42.87725,-114.2615,Dietrich,ID,Idaho,True,,758.0,3.5,16063,Lincoln,"{""16063"": 100}",Lincoln,16063,False,False,America/Boise,"(42.87725, -114.2615)",62.25614223403605,136371.0,442_0_yes,42.32755204212979,-115.23145539641048,50.0
83328,42.56962,-114.61665,Filer,ID,Idaho,True,,5956.0,34.2,16083,Twin Falls,"{""16083"": 100}",Twin Falls,16083,False,False,America/Boise,"(42.56962, -114.61665)",35.52755363234139,136371.0,442_0_yes,42.32755204212979,-115.23145539641048,50.0
83330,42.94207,-114.69291,Gooding,ID,Idaho,True,,6421.0,16.7,16047,Gooding,"{""16047"": 99.05, ""16063"": 0.95}",Gooding|Lincoln,16047|16063,False,False,America/Boise,"(42.94207, -114.69291)",50.518631098548795,136371.0,442_0_yes,42.32755204212979,-115.23145539641048,50.0
83332,42.79758,-114.92962,Hagerman,ID,Idaho,True,,2609.0,11.4,16083,Twin Falls,"{""16083"": 60.16, ""16047"": 39.84}",Twin Falls|Gooding,16083|16047,False,False,America/Boise,"(42.79758, -114.92962)",35.925161772718646,136371.0,442_0_yes,42.32755204212979,-115.23145539641048,50.0
83334,42.4243,-114.29126,Hansen,ID,Idaho,True,,2304.0,10.1,16083,Twin Falls,"{""16083"": 100}",Twin Falls,16083,False,False,America/Boise,"(42.4243, -114.29126)",48.452497772844104,136371.0,442_0_yes,42.32755204212979,-115.23145539641048,50.0
83338,42.72501,-114.43273,Jerome,ID,Idaho,True,,21733.0,30.4,16053,Jerome,"{""16053"": 95.36, ""16047"": 3.43, ""16063"": 1.21}",Jerome|Gooding|Lincoln,16053|16047|16063,False,False,America/Boise,"(42.72501, -114.43273)",49.07364692382668,136371.0,442_0_yes,42.32755204212979,-115.23145539641048,50.0
83341,42.42875,-114.37052,Kimberly,ID,Idaho,True,,8084.0,36.6,16083,Twin Falls,"{""16083"": 100}",Twin Falls,16083,False,False,America/Boise,"(42.42875, -114.37052)",44.4948976116244,136371.0,442_0_yes,42.32755204212979,-115.23145539641048,50.0
83352,43.05133,-114.40584,Shoshone,ID,Idaho,True,,3366.0,6.0,16063,Lincoln,"{""16063"": 87.04, ""16025"": 10.91, ""16013"": 2.05}",Lincoln|Camas|Blaine,16063|16025|16013,False,False,America/Boise,"(43.05133, -114.40584)",65.25994076184193,136371.0,442_0_yes,42.32755204212979,-115.23145539641048,50.0
83355,42.75515,-114.72676,Wendell,ID,Idaho,True,,5002.0,16.6,16047,Gooding,"{""16047"": 100}",Gooding,16047,False,False,America/Boise,"(42.75515, -114.72676)",39.15305031320422,136371.0,442_0_yes,42.32755204212979,-115.23145539641048,50.0
83604,42.52727,-115.84966,Bruneau,ID,Idaho,True,,554.0,0.3,16073,Owyhee,"{""16073"": 100}",Owyhee,16073,False,False,America/Boise,"(42.52727, -115.84966)",34.41593184905377,136371.0,442_0_yes,42.32755204212979,-115.23145539641048,50.0
83623,43.04932,-115.39485,Glenns Ferry,ID,Idaho,True,,1493.0,2.3,16039,Elmore,"{""16039"": 100}",Elmore,16039,False,False,America/Boise,"(43.04932, -115.39485)",50.555099868968384,136371.0,442_0_yes,42.32755204212979,-115.23145539641048,50.0
83624,42.92441,-116.14266,Grand View,ID,Idaho,True,,1528.0,2.2,16073,Owyhee,"{""16073"": 77.31, ""16039"": 22.69}",Owyhee|Elmore,16073|16039,False,False,America/Boise,"(42.92441, -116.14266)",62.01999407028806,136371.0,442_0_yes,42.32755204212979,-115.23145539641048,50.0
83627,42.91336,-115.53238,Hammett,ID,Idaho,True,,466.0,2.1,16073,Owyhee,"{""16073"": 72.37, ""16039"": 27.63}",Owyhee|Elmore,16073|16039,False,False,America/Boise,"(42.91336, -115.53238)",43.27056326607565,136371.0,442_0_yes,42.32755204212979,-115.23145539641048,50.0
83633,43.0297,-115.21253,King Hill,ID,Idaho,True,,720.0,1.9,16039,Elmore,"{""16039"": 100}",Elmore,16039,False,False,America/Boise,"(43.0297, -115.21253)",48.52332615140741,136371.0,442_0_yes,42.32755204212979,-115.23145539641048,50.0
83648,43.04962,-115.86554,Mountain Home Afb,ID,Idaho,True,,3151.0,122.0,16039,Elmore,"{""16039"": 100}",Elmore,16039,False,False,America/Boise,"(43.04962, -115.86554)",59.38035322277794,136371.0,442_0_yes,42.32755204212979,-115.23145539641048,50.0
89825,41.90422,-114.71103,Jackpot,NV,Nevada,True,,1101.0,6.7,32007,Elko,"{""32007"": 100}",Elko,32007,False,False,America/Los_Angeles,"(41.90422, -114.71103)",39.58510105457625,136371.0,442_0_yes,42.32755204212979,-115.23145539641048,50.0
89831,41.75992,-116.03935,Mountain City,NV,Nevada,True,,11.0,0.0,32007,Elko,"{""32007"": 100}",Elko,32007,False,False,America/Los_Angeles,"(41.75992, -116.03935)",57.06619419757742,136371.0,442_0_yes,42.32755204212979,-115.23145539641048,50.0
89832,41.98001,-116.19537,Owyhee,NV,Nevada,True,,1079.0,2.4,32007,Elko,"{""32007"": 66.92, ""16073"": 33.08}",Elko|Owyhee,32007|16073,False,False,America/Los_Angeles,"(41.98001, -116.19537)",54.90296493476626,136371.0,442_0_yes,42.32755204212979,-115.23145539641048,50.0
