zip,lat,lng,city,state_id,state_name,zcta,parent_zcta,population,density,county_fips,county_name,county_weights,county_names_all,county_fips_all,imprecise,military,timezone,Coord,distance_miles,market_total_population,market_id,market_center_lat,market_center_lng,radius_miles
50006,42.51354,-93.40227,Alden,IA,Iowa,True,,1596.0,5.0,19083,Hardin,"{""19083"": 68.81, ""19069"": 30.32, ""19079"": 0.87}",Hardin|Franklin|Hamilton,19083|19069|19079,False,False,America/Chicago,"(42.51354, -93.40227)",46.09106910848026,413199.0,454_0_no,42.86075976649568,-92.62737398895526,50.0
50041,42.63429,-93.24662,Bradford,IA,Iowa,True,,61.0,166.2,19069,Franklin,"{""19069"": 100}",Franklin,19069,False,False,America/Chicago,"(42.63429, -93.24662)",35.10048892457279,413199.0,454_0_no,42.86075976649568,-92.62737398895526,50.0
50051,42.13875,-93.13736,Clemons,IA,Iowa,True,,277.0,4.7,19127,Marshall,"{""19127"": 100}",Marshall,19127,False,False,America/Chicago,"(42.13875, -93.13736)",56.245143263850544,413199.0,454_0_no,42.86075976649568,-92.62737398895526,50.0
50071,42.64931,-93.50597,Dows,IA,Iowa,True,,919.0,3.2,19197,Wright,"{""19197"": 55.85, ""19069"": 44.15}",Wright|Franklin,19197|19069,False,False,America/Chicago,"(42.64931, -93.50597)",46.90654024427645,413199.0,454_0_no,42.86075976649568,-92.62737398895526,50.0
50075,42.33516,-93.56054,Ellsworth,IA,Iowa,True,,793.0,6.5,19079,Hamilton,"{""19079"": 100}",Hamilton,19079,False,False,America/Chicago,"(42.33516, -93.56054)",59.76090345022823,413199.0,454_0_no,42.86075976649568,-92.62737398895526,50.0
50102,42.24554,-93.40022,Garden City,IA,Iowa,True,,150.0,114.9,19083,Hardin,"{""19083"": 100}",Hardin,19083,False,False,America/Chicago,"(42.24554, -93.40022)",57.91513519738427,413199.0,454_0_no,42.86075976649568,-92.62737398895526,50.0
50122,42.30218,-93.3087,Hubbard,IA,Iowa,True,,1438.0,6.6,19083,Hardin,"{""19083"": 100}",Hardin,19083,False,False,America/Chicago,"(42.30218, -93.3087)",51.87424946102259,413199.0,454_0_no,42.86075976649568,-92.62737398895526,50.0
50126,42.50875,-93.24815,Iowa Falls,IA,Iowa,True,,6412.0,18.1,19083,Hardin,"{""19083"": 74.33, ""19069"": 25.67}",Hardin|Franklin,19083|19069,False,False,America/Chicago,"(42.50875, -93.24815)",39.81988000770488,413199.0,454_0_no,42.86075976649568,-92.62737398895526,50.0
50148,42.18142,-92.99567,Liscomb,IA,Iowa,True,,419.0,8.6,19127,Marshall,"{""19127"": 100}",Marshall,19127,False,False,America/Chicago,"(42.18142, -92.99567)",50.54605486764603,413199.0,454_0_no,42.86075976649568,-92.62737398895526,50.0
50154,42.17625,-93.39068,McCallsburg,IA,Iowa,True,,540.0,8.8,19169,Story,"{""19169"": 84.35, ""19083"": 15.65}",Story|Hardin,19169|19083,False,False,America/Chicago,"(42.17625, -93.39068)",61.219219052088704,413199.0,454_0_no,42.86075976649568,-92.62737398895526,50.0
50206,42.25018,-93.18941,New Providence,IA,Iowa,True,,531.0,4.5,19083,Hardin,"{""19083"": 81.17, ""19127"": 16.15, ""19169"": 2.68}",Hardin|Marshall|Story,19083|19127|19169,False,False,America/Chicago,"(42.25018, -93.18941)",50.97036226620558,413199.0,454_0_no,42.86075976649568,-92.62737398895526,50.0
50227,42.59388,-93.42818,Popejoy,IA,Iowa,True,,76.0,41.6,19069,Franklin,"{""19069"": 100}",Franklin,19069,False,False,America/Chicago,"(42.59388, -93.42818)",44.63219397394848,413199.0,454_0_no,42.86075976649568,-92.62737398895526,50.0
50230,42.30655,-93.44718,Radcliffe,IA,Iowa,True,,1015.0,4.4,19083,Hardin,"{""19083"": 61.02, ""19079"": 38.43, ""19169"": 0.55}",Hardin|Hamilton|Story,19083|19079|19169,False,False,America/Chicago,"(42.30655, -93.44718)",56.618115644829345,413199.0,454_0_no,42.86075976649568,-92.62737398895526,50.0
50231,42.23765,-93.60257,Randall,IA,Iowa,True,,154.0,133.0,19079,Hamilton,"{""19079"": 100}",Hamilton,19079,False,False,America/Chicago,"(42.23765, -93.60257)",65.70689601044235,413199.0,454_0_no,42.86075976649568,-92.62737398895526,50.0
50236,42.1675,-93.4834,Roland,IA,Iowa,True,,1689.0,19.2,19169,Story,"{""19169"": 100}",Story,19169,False,False,America/Chicago,"(42.1675, -93.4834)",64.76865404906998,413199.0,454_0_no,42.86075976649568,-92.62737398895526,50.0
50239,42.14431,-93.20144,Saint Anthony,IA,Iowa,True,,44.0,0.8,19127,Marshall,"{""19127"": 93.99, ""19169"": 6.01}",Marshall|Story,19127|19169,False,False,America/Chicago,"(42.14431, -93.20144)",57.49360929042915,413199.0,454_0_no,42.86075976649568,-92.62737398895526,50.0
50258,42.22781,-93.07788,Union,IA,Iowa,True,,1068.0,7.6,19083,Hardin,"{""19083"": 71.49, ""19127"": 28.51}",Hardin|Marshall,19083|19127,False,False,America/Chicago,"(42.22781, -93.07788)",49.380633130222,413199.0,454_0_no,42.86075976649568,-92.62737398895526,50.0
50271,42.48444,-93.54489,Williams,IA,Iowa,True,,535.0,3.1,19079,Hamilton,"{""19079"": 93.58, ""19197"": 6.42}",Hamilton|Wright,19079|19197,False,False,America/Chicago,"(42.48444, -93.54489)",53.37136949165943,413199.0,454_0_no,42.86075976649568,-92.62737398895526,50.0
50278,42.1528,-93.29926,Zearing,IA,Iowa,True,,747.0,6.2,19169,Story,"{""19169"": 100}",Story,19169,False,False,America/Chicago,"(42.1528, -93.29926)",59.69804721753591,413199.0,454_0_no,42.86075976649568,-92.62737398895526,50.0
50401,43.15389,-93.20006,Mason City,IA,Iowa,True,,28647.0,74.7,19033,Cerro Gordo,"{""19033"": 100}",Cerro Gordo,19033,False,False,America/Chicago,"(43.15389, -93.20006)",35.319179157810055,413199.0,454_0_no,42.86075976649568,-92.62737398895526,50.0
50420,42.80621,-93.45677,Alexander,IA,Iowa,True,,324.0,2.6,19069,Franklin,"{""19069"": 84.85, ""19197"": 15.15}",Franklin|Wright,19069|19197,False,False,America/Chicago,"(42.80621, -93.45677)",42.19272272610964,413199.0,454_0_no,42.86075976649568,-92.62737398895526,50.0
50428,43.13573,-93.38815,Clear Lake,IA,Iowa,True,,9064.0,29.8,19033,Cerro Gordo,"{""19033"": 100}",Cerro Gordo,19033,False,False,America/Chicago,"(43.13573, -93.38815)",42.882414900079816,413199.0,454_0_no,42.86075976649568,-92.62737398895526,50.0
50431,42.73648,-93.36989,Coulter,IA,Iowa,True,,203.0,104.9,19069,Franklin,"{""19069"": 100}",Franklin,19069,False,False,America/Chicago,"(42.73648, -93.36989)",38.61018725582087,413199.0,454_0_no,42.86075976649568,-92.62737398895526,50.0
50433,42.92852,-93.04774,Dougherty,IA,Iowa,True,,194.0,1.6,19033,Cerro Gordo,"{""19033"": 53.01, ""19067"": 20.57, ""19069"": 19.32, ""19023"": 7.1}",Cerro Gordo|Floyd|Franklin|Butler,19033|19067|19069|19023,False,False,America/Chicago,"(42.92852, -93.04774)",21.78715707639932,413199.0,454_0_no,42.86075976649568,-92.62737398895526,50.0
50434,43.25857,-93.45758,Fertile,IA,Iowa,True,,448.0,17.2,19195,Worth,"{""19195"": 58.84, ""19033"": 41.16}",Worth|Cerro Gordo,19195|19033,False,False,America/Chicago,"(43.25857, -93.45758)",50.11960332418065,413199.0,454_0_no,42.86075976649568,-92.62737398895526,50.0
50435,43.15752,-92.76877,Floyd,IA,Iowa,True,,606.0,5.8,19067,Floyd,"{""19067"": 100}",Floyd,19067,False,False,America/Chicago,"(43.15752, -92.76877)",21.713050388314578,413199.0,454_0_no,42.86075976649568,-92.62737398895526,50.0
50440,43.33213,-93.06891,Grafton,IA,Iowa,True,,368.0,4.9,19195,Worth,"{""19195"": 100}",Worth,19195,False,False,America/Chicago,"(43.33213, -93.06891)",39.45813839107674,413199.0,454_0_no,42.86075976649568,-92.62737398895526,50.0
50441,42.73938,-93.22146,Hampton,IA,Iowa,True,,5251.0,13.7,19069,Franklin,"{""19069"": 100}",Franklin,19069,False,False,America/Chicago,"(42.73938, -93.22146)",31.26347115601715,413199.0,454_0_no,42.86075976649568,-92.62737398895526,50.0
50444,43.29258,-93.38601,Hanlontown,IA,Iowa,True,,284.0,5.2,19195,Worth,"{""19195"": 94.29, ""19033"": 5.71}",Worth|Cerro Gordo,19195|19033,False,False,America/Chicago,"(43.29258, -93.38601)",48.5393313188034,413199.0,454_0_no,42.86075976649568,-92.62737398895526,50.0
50446,43.33821,-93.45394,Joice,IA,Iowa,True,,526.0,5.2,19195,Worth,"{""19195"": 88.5, ""19189"": 11.5}",Worth|Winnebago,19195|19189,False,False,America/Chicago,"(43.33821, -93.45394)",53.170494195038266,413199.0,454_0_no,42.86075976649568,-92.62737398895526,50.0
50448,43.35053,-93.24753,Kensett,IA,Iowa,True,,651.0,4.0,19195,Worth,"{""19195"": 100}",Worth,19195,False,False,America/Chicago,"(43.35053, -93.24753)",46.084461249564896,413199.0,454_0_no,42.86075976649568,-92.62737398895526,50.0
50449,43.00129,-93.55629,Klemme,IA,Iowa,True,,830.0,7.8,19081,Hancock,"{""19081"": 90.12, ""19033"": 9.88}",Hancock|Cerro Gordo,19081|19033,False,False,America/Chicago,"(43.00129, -93.55629)",47.98475793342441,413199.0,454_0_no,42.86075976649568,-92.62737398895526,50.0
50450,43.42045,-93.51998,Lake Mills,IA,Iowa,True,,2890.0,13.2,19189,Winnebago,"{""19189"": 67.62, ""19195"": 32.38}",Winnebago|Worth,19189|19195,False,False,America/Chicago,"(43.42045, -93.51998)",59.333826896296166,413199.0,454_0_no,42.86075976649568,-92.62737398895526,50.0
50452,42.77969,-93.37542,Latimer,IA,Iowa,True,,1121.0,9.1,19069,Franklin,"{""19069"": 100}",Franklin,19069,False,False,America/Chicago,"(42.77969, -93.37542)",38.321913752927166,413199.0,454_0_no,42.86075976649568,-92.62737398895526,50.0
50454,43.38505,-92.73935,Little Cedar,IA,Iowa,True,,48.0,1.3,19131,Mitchell,"{""19131"": 100}",Mitchell,19131,False,False,America/Chicago,"(43.38505, -92.73935)",36.66249959996481,413199.0,454_0_no,42.86075976649568,-92.62737398895526,50.0
50455,43.45695,-92.64981,McIntire,IA,Iowa,True,,506.0,6.0,19131,Mitchell,"{""19131"": 100}",Mitchell,19131,False,False,America/Chicago,"(43.45695, -92.64981)",41.208339038228424,413199.0,454_0_no,42.86075976649568,-92.62737398895526,50.0
50456,43.28812,-93.21579,Manly,IA,Iowa,True,,1854.0,14.3,19195,Worth,"{""19195"": 98.17, ""19033"": 1.83}",Worth|Cerro Gordo,19195|19033,False,False,America/Chicago,"(43.28812, -93.21579)",41.87864026135251,413199.0,454_0_no,42.86075976649568,-92.62737398895526,50.0
50457,42.91418,-93.4928,Meservey,IA,Iowa,True,,438.0,5.0,19081,Hancock,"{""19081"": 30.11, ""19033"": 29.67, ""19069"": 27.75, ""19197"": 12.48}",Hancock|Cerro Gordo|Franklin|Wright,19081|19033|19069|19197,False,False,America/Chicago,"(42.91418, -93.4928)",43.9664849611131,413199.0,454_0_no,42.86075976649568,-92.62737398895526,50.0
50458,43.15969,-93.00609,Nora Springs,IA,Iowa,True,,2404.0,13.1,19067,Floyd,"{""19067"": 53.29, ""19033"": 35.68, ""19131"": 11.03}",Floyd|Cerro Gordo|Mitchell,19067|19033|19131,False,False,America/Chicago,"(43.15969, -93.00609)",28.15489774032718,413199.0,454_0_no,42.86075976649568,-92.62737398895526,50.0
50459,43.4458,-93.25445,Northwood,IA,Iowa,True,,2967.0,8.0,19195,Worth,"{""19195"": 99.83, ""19189"": 0.17}",Worth|Winnebago,19195|19189,False,False,America/Chicago,"(43.4458, -93.25445)",51.312832218207376,413199.0,454_0_no,42.86075976649568,-92.62737398895526,50.0
50460,43.2259,-92.6902,Orchard,IA,Iowa,True,,357.0,3.9,19131,Mitchell,"{""19131"": 77.8, ""19067"": 22.2}",Mitchell|Floyd,19131|19067,False,False,America/Chicago,"(43.2259, -92.6902)",25.42746791722795,413199.0,454_0_no,42.86075976649568,-92.62737398895526,50.0
50461,43.29995,-92.81412,Osage,IA,Iowa,True,,5488.0,11.9,19131,Mitchell,"{""19131"": 99.84, ""19067"": 0.16}",Mitchell|Floyd,19131|19067,False,False,America/Chicago,"(43.29995, -92.81412)",31.774884090151502,413199.0,454_0_no,42.86075976649568,-92.62737398895526,50.0
50464,43.25146,-93.0765,Plymouth,IA,Iowa,True,,601.0,9.4,19033,Cerro Gordo,"{""19033"": 54.98, ""19195"": 42.36, ""19131"": 2.66}",Cerro Gordo|Worth|Mitchell,19033|19195|19131,False,False,America/Chicago,"(43.25146, -93.0765)",35.253921279102514,413199.0,454_0_no,42.86075976649568,-92.62737398895526,50.0
50466,43.38782,-92.53815,Riceville,IA,Iowa,True,,1921.0,5.3,19089,Howard,"{""19089"": 60.36, ""19131"": 39.64}",Howard|Mitchell,19089|19131,False,False,America/Chicago,"(43.38782, -92.53815)",36.693307295699896,413199.0,454_0_no,42.86075976649568,-92.62737398895526,50.0
50468,43.04631,-92.95703,Rockford,IA,Iowa,True,,1304.0,5.1,19067,Floyd,"{""19067"": 75.25, ""19033"": 24.75}",Floyd|Cerro Gordo,19067|19033,False,False,America/Chicago,"(43.04631, -92.95703)",21.030226553423365,413199.0,454_0_no,42.86075976649568,-92.62737398895526,50.0
50469,42.99922,-93.19767,Rockwell,IA,Iowa,True,,1540.0,6.9,19033,Cerro Gordo,"{""19033"": 100}",Cerro Gordo,19033,False,False,America/Chicago,"(42.99922, -93.19767)",30.395541283174484,413199.0,454_0_no,42.86075976649568,-92.62737398895526,50.0
50470,42.74652,-93.55374,Rowan,IA,Iowa,True,,219.0,3.6,19197,Wright,"{""19197"": 96.45, ""19069"": 3.55}",Wright|Franklin,19197|19069,False,False,America/Chicago,"(42.74652, -93.55374)",47.618677993622924,413199.0,454_0_no,42.86075976649568,-92.62737398895526,50.0
50471,43.16486,-92.87834,Rudd,IA,Iowa,True,,648.0,5.8,19067,Floyd,"{""19067"": 93.99, ""19131"": 6.01}",Floyd|Mitchell,19067|19131,False,False,America/Chicago,"(43.16486, -92.87834)",24.54045462320466,413199.0,454_0_no,42.86075976649568,-92.62737398895526,50.0
50472,43.42265,-92.94644,Saint Ansgar,IA,Iowa,True,,2398.0,7.5,19131,Mitchell,"{""19131"": 84.7, ""19195"": 15.18, ""27099"": 0.12}",Mitchell|Worth|Mower,19131|19195|27099,False,False,America/Chicago,"(43.42265, -92.94644)",42.02334520960805,413199.0,454_0_no,42.86075976649568,-92.62737398895526,50.0
50475,42.87902,-93.21852,Sheffield,IA,Iowa,True,,1411.0,5.7,19069,Franklin,"{""19069"": 76.81, ""19033"": 23.19}",Franklin|Cerro Gordo,19069|19033,False,False,America/Chicago,"(42.87902, -93.21852)",29.961322395515143,413199.0,454_0_no,42.86075976649568,-92.62737398895526,50.0
50476,43.4527,-92.76311,Stacyville,IA,Iowa,True,,668.0,6.7,19131,Mitchell,"{""19131"": 99.8, ""27099"": 0.2}",Mitchell|Mower,19131|27099,False,False,America/Chicago,"(43.4527, -92.76311)",41.467414181039686,413199.0,454_0_no,42.86075976649568,-92.62737398895526,50.0
50477,42.98743,-93.32731,Swaledale,IA,Iowa,True,,306.0,6.3,19033,Cerro Gordo,"{""19033"": 100}",Cerro Gordo,19033,False,False,America/Chicago,"(42.98743, -93.32731)",36.47800508258555,413199.0,454_0_no,42.86075976649568,-92.62737398895526,50.0
50479,42.94121,-93.4082,Thornton,IA,Iowa,True,,644.0,4.3,19033,Cerro Gordo,"{""19033"": 72.51, ""19069"": 27.49}",Cerro Gordo|Franklin,19033|19069,False,False,America/Chicago,"(42.94121, -93.4082)",39.90886058128186,413199.0,454_0_no,42.86075976649568,-92.62737398895526,50.0
50482,43.12356,-93.48167,Ventura,IA,Iowa,True,,750.0,9.7,19033,Cerro Gordo,"{""19033"": 79.05, ""19081"": 20.95}",Cerro Gordo|Hancock,19033|19081,False,False,America/Chicago,"(43.12356, -93.48167)",46.83715833103285,413199.0,454_0_no,42.86075976649568,-92.62737398895526,50.0
50601,42.56612,-93.05665,Ackley,IA,Iowa,True,,2571.0,7.1,19069,Franklin,"{""19069"": 36.48, ""19083"": 29.82, ""19023"": 17.74, ""19075"": 15.97}",Franklin|Hardin|Butler|Grundy,19069|19083|19023|19075,False,False,America/Chicago,"(42.56612, -93.05665)",29.82218772284571,413199.0,454_0_no,42.86075976649568,-92.62737398895526,50.0
50602,42.74036,-92.80581,Allison,IA,Iowa,True,,1545.0,7.6,19023,Butler,"{""19023"": 100}",Butler,19023,False,False,America/Chicago,"(42.74036, -92.80581)",12.289467173530186,413199.0,454_0_no,42.86075976649568,-92.62737398895526,50.0
50603,43.18893,-92.45834,Alta Vista,IA,Iowa,True,,418.0,3.6,19037,Chickasaw,"{""19037"": 83.24, ""19089"": 16.76}",Chickasaw|Howard,19037|19089,False,False,America/Chicago,"(43.18893, -92.45834)",24.228648375214384,413199.0,454_0_no,42.86075976649568,-92.62737398895526,50.0
50604,42.60484,-92.90299,Aplington,IA,Iowa,True,,1643.0,8.9,19023,Butler,"{""19023"": 79.53, ""19075"": 20.47}",Butler|Grundy,19023|19075,False,False,America/Chicago,"(42.60484, -92.90299)",22.546011045168267,413199.0,454_0_no,42.86075976649568,-92.62737398895526,50.0
50605,42.83559,-93.03276,Aredale,IA,Iowa,True,,232.0,5.3,19069,Franklin,"{""19069"": 61.07, ""19023"": 38.93}",Franklin|Butler,19069|19023,False,False,America/Chicago,"(42.83559, -93.03276)",20.608887646212892,413199.0,454_0_no,42.86075976649568,-92.62737398895526,50.0
50606,42.74669,-91.68299,Arlington,IA,Iowa,True,,893.0,5.1,19065,Fayette,"{""19065"": 95.64, ""19043"": 4.36}",Fayette|Clayton,19065|19043,False,False,America/Chicago,"(42.74669, -91.68299)",48.51767404885402,413199.0,454_0_no,42.86075976649568,-92.62737398895526,50.0
50607,42.60872,-91.74747,Aurora,IA,Iowa,True,,366.0,3.0,19019,Buchanan,"{""19019"": 70.37, ""19065"": 29.63}",Buchanan|Fayette,19019|19065,False,False,America/Chicago,"(42.60872, -91.74747)",47.9297059152579,413199.0,454_0_no,42.86075976649568,-92.62737398895526,50.0
50609,42.23066,-92.81046,Beaman,IA,Iowa,True,,287.0,3.4,19075,Grundy,"{""19075"": 65.84, ""19127"": 30.65, ""19171"": 3.51}",Grundy|Marshall|Tama,19075|19127|19171,False,False,America/Chicago,"(42.23066, -92.81046)",44.52208655688292,413199.0,454_0_no,42.86075976649568,-92.62737398895526,50.0
50611,42.8193,-92.91114,Bristow,IA,Iowa,True,,340.0,4.1,19023,Butler,"{""19023"": 100}",Butler,19023,False,False,America/Chicago,"(42.8193, -92.91114)",14.659072656620642,413199.0,454_0_no,42.86075976649568,-92.62737398895526,50.0
50612,42.28546,-92.38687,Buckingham,IA,Iowa,True,,331.0,4.6,19171,Tama,"{""19171"": 72.6, ""19013"": 27.4}",Tama|Black Hawk,19171|19013,False,False,America/Chicago,"(42.28546, -92.38687)",41.59039648178029,413199.0,454_0_no,42.86075976649568,-92.62737398895526,50.0
50613,42.53358,-92.49069,Cedar Falls,IA,Iowa,True,,43945.0,133.0,19013,Black Hawk,"{""19013"": 80.92, ""19075"": 15.27, ""19023"": 3.81}",Black Hawk|Grundy|Butler,19013|19075|19023,False,False,America/Chicago,"(42.53358, -92.49069)",23.64750249462222,413199.0,454_0_no,42.86075976649568,-92.62737398895526,50.0
50616,43.07978,-92.66104,Charles City,IA,Iowa,True,,10031.0,22.0,19067,Floyd,"{""19067"": 93.72, ""19037"": 6.28}",Floyd|Chickasaw,19067|19037,False,False,America/Chicago,"(43.07978, -92.66104)",15.228270710440665,413199.0,454_0_no,42.86075976649568,-92.62737398895526,50.0
50619,42.79725,-92.66266,Clarksville,IA,Iowa,True,,2126.0,9.8,19023,Butler,"{""19023"": 100}",Butler,19023,False,False,America/Chicago,"(42.79725, -92.66266)",4.738405580668595,413199.0,454_0_no,42.86075976649568,-92.62737398895526,50.0
50620,43.15712,-92.5912,Colwell,IA,Iowa,True,,46.0,122.2,19067,Floyd,"{""19067"": 100}",Floyd,19067,False,False,America/Chicago,"(43.15712, -92.5912)",20.55794511737756,413199.0,454_0_no,42.86075976649568,-92.62737398895526,50.0
50621,42.24738,-92.91904,Conrad,IA,Iowa,True,,1632.0,10.0,19075,Grundy,"{""19075"": 83.77, ""19127"": 16.23}",Grundy|Marshall,19075|19127,False,False,America/Chicago,"(42.24738, -92.91904)",44.90513158091892,413199.0,454_0_no,42.86075976649568,-92.62737398895526,50.0
50622,42.67358,-92.33358,Denver,IA,Iowa,True,,3067.0,46.2,19017,Bremer,"{""19017"": 100}",Bremer,19017,False,False,America/Chicago,"(42.67358, -92.33358)",19.73144405549159,413199.0,454_0_no,42.86075976649568,-92.62737398895526,50.0
50624,42.46874,-92.65879,Dike,IA,Iowa,True,,1460.0,11.0,19075,Grundy,"{""19075"": 100}",Grundy,19075,False,False,America/Chicago,"(42.46874, -92.65879)",27.13297374408518,413199.0,454_0_no,42.86075976649568,-92.62737398895526,50.0
50625,42.75071,-92.98691,Dumont,IA,Iowa,True,,1023.0,6.5,19023,Butler,"{""19023"": 82.78, ""19069"": 17.22}",Butler|Franklin,19023|19069,False,False,America/Chicago,"(42.75071, -92.98691)",19.747852451621895,413199.0,454_0_no,42.86075976649568,-92.62737398895526,50.0
50626,42.58028,-92.17049,Dunkerton,IA,Iowa,True,,1660.0,12.7,19013,Black Hawk,"{""19013"": 99.58, ""19019"": 0.42}",Black Hawk|Buchanan,19013|19019,False,False,America/Chicago,"(42.58028, -92.17049)",30.222765782930207,413199.0,454_0_no,42.86075976649568,-92.62737398895526,50.0
50627,42.34982,-93.095,Eldora,IA,Iowa,True,,3165.0,11.6,19083,Hardin,"{""19083"": 82.73, ""19075"": 17.27}",Hardin|Grundy,19083|19075,False,False,America/Chicago,"(42.34982, -93.095)",42.56526860818043,413199.0,454_0_no,42.86075976649568,-92.62737398895526,50.0
50628,43.26655,-92.39134,Elma,IA,Iowa,True,,1136.0,3.9,19089,Howard,"{""19089"": 93.05, ""19131"": 6.95}",Howard|Mitchell,19089|19131,False,False,America/Chicago,"(43.26655, -92.39134)",30.464059783777017,413199.0,454_0_no,42.86075976649568,-92.62737398895526,50.0
50629,42.64222,-92.081,Fairbank,IA,Iowa,True,,2645.0,13.6,19019,Buchanan,"{""19019"": 32.25, ""19017"": 29.43, ""19065"": 21.97, ""19013"": 16.34}",Buchanan|Bremer|Fayette|Black Hawk,19019|19017|19065|19013,False,False,America/Chicago,"(42.64222, -92.081)",31.566232951649223,413199.0,454_0_no,42.86075976649568,-92.62737398895526,50.0
50630,42.95651,-92.21346,Fredericksburg,IA,Iowa,True,,1576.0,7.2,19037,Chickasaw,"{""19037"": 89.69, ""19017"": 10.31}",Chickasaw|Bremer,19037|19017,False,False,America/Chicago,"(42.95651, -92.21346)",21.9667363800247,413199.0,454_0_no,42.86075976649568,-92.62737398895526,50.0
50633,42.67203,-93.12664,Geneva,IA,Iowa,True,,446.0,4.1,19069,Franklin,"{""19069"": 100}",Franklin,19069,False,False,America/Chicago,"(42.67203, -93.12664)",28.484500922851225,413199.0,454_0_no,42.86075976649568,-92.62737398895526,50.0
50634,42.4181,-92.21422,Gilbertville,IA,Iowa,True,,771.0,831.6,19013,Black Hawk,"{""19013"": 100}",Black Hawk,19013,False,False,America/Chicago,"(42.4181, -92.21422)",37.09992652414707,413199.0,454_0_no,42.86075976649568,-92.62737398895526,50.0
50635,42.19886,-92.69896,Gladbrook,IA,Iowa,True,,1445.0,6.7,19171,Tama,"{""19171"": 95.96, ""19127"": 4.04}",Tama|Marshall,19171|19127,False,False,America/Chicago,"(42.19886, -92.69896)",45.87793297789472,413199.0,454_0_no,42.86075976649568,-92.62737398895526,50.0
50636,42.89439,-92.80745,Greene,IA,Iowa,True,,1868.0,6.2,19023,Butler,"{""19023"": 62.25, ""19067"": 37.75}",Butler|Floyd,19023|19067,False,False,America/Chicago,"(42.89439, -92.80745)",9.409089809730213,413199.0,454_0_no,42.86075976649568,-92.62737398895526,50.0
50638,42.35654,-92.79495,Grundy Center,IA,Iowa,True,,3307.0,13.6,19075,Grundy,"{""19075"": 100}",Grundy,19075,False,False,America/Chicago,"(42.35654, -92.79495)",35.86532593585668,413199.0,454_0_no,42.86075976649568,-92.62737398895526,50.0
50641,42.59746,-91.91961,Hazleton,IA,Iowa,True,,1358.0,11.6,19019,Buchanan,"{""19019"": 100}",Buchanan,19019,False,False,America/Chicago,"(42.59746, -91.91961)",40.26562358624899,413199.0,454_0_no,42.86075976649568,-92.62737398895526,50.0
50642,42.44024,-92.81243,Holland,IA,Iowa,True,,636.0,7.8,19075,Grundy,"{""19075"": 100}",Grundy,19075,False,False,America/Chicago,"(42.44024, -92.81243)",30.539147337928956,413199.0,454_0_no,42.86075976649568,-92.62737398895526,50.0
50643,42.36413,-92.47402,Hudson,IA,Iowa,True,,2847.0,19.1,19013,Black Hawk,"{""19013"": 90.66, ""19075"": 9.34}",Black Hawk|Grundy,19013|19075,False,False,America/Chicago,"(42.36413, -92.47402)",35.18873064775713,413199.0,454_0_no,42.86075976649568,-92.62737398895526,50.0
50644,42.47751,-91.89721,Independence,IA,Iowa,True,,8863.0,23.6,19019,Buchanan,"{""19019"": 100}",Buchanan,19019,False,False,America/Chicago,"(42.47751, -91.89721)",45.57596809011319,413199.0,454_0_no,42.86075976649568,-92.62737398895526,50.0
50645,43.02174,-92.44952,Ionia,IA,Iowa,True,,1108.0,5.0,19037,Chickasaw,"{""19037"": 90.25, ""19017"": 6.81, ""19067"": 2.94}",Chickasaw|Bremer|Floyd,19037|19017|19067,False,False,America/Chicago,"(43.02174, -92.44952)",14.305213540980102,413199.0,454_0_no,42.86075976649568,-92.62737398895526,50.0
50647,42.64787,-92.48026,Janesville,IA,Iowa,True,,2403.0,30.5,19017,Bremer,"{""19017"": 61.7, ""19013"": 38.3}",Bremer|Black Hawk,19017|19013,False,False,America/Chicago,"(42.64787, -92.48026)",16.494477058906952,413199.0,454_0_no,42.86075976649568,-92.62737398895526,50.0
50648,42.45182,-92.09465,Jesup,IA,Iowa,True,,4223.0,19.6,19013,Black Hawk,"{""19013"": 58.35, ""19019"": 41.65}",Black Hawk|Buchanan,19013|19019,False,False,America/Chicago,"(42.45182, -92.09465)",39.12921737787053,413199.0,454_0_no,42.86075976649568,-92.62737398895526,50.0
50650,42.61915,-91.65429,Lamont,IA,Iowa,True,,792.0,7.5,19019,Buchanan,"{""19019"": 69.15, ""19065"": 30.85}",Buchanan|Fayette,19019|19065,False,False,America/Chicago,"(42.61915, -91.65429)",52.12432493681102,413199.0,454_0_no,42.86075976649568,-92.62737398895526,50.0
50651,42.32271,-92.19993,La Porte City,IA,Iowa,True,,3657.0,12.3,19013,Black Hawk,"{""19013"": 71.71, ""19011"": 25.54, ""19171"": 2.75}",Black Hawk|Benton|Tama,19013|19011|19171,False,False,America/Chicago,"(42.32271, -92.19993)",43.066850575504276,413199.0,454_0_no,42.86075976649568,-92.62737398895526,50.0
50652,42.26454,-92.69234,Lincoln,IA,Iowa,True,,90.0,93.1,19171,Tama,"{""19171"": 100}",Tama,19171,False,False,America/Chicago,"(42.26454, -92.69234)",41.32731207666566,413199.0,454_0_no,42.86075976649568,-92.62737398895526,50.0
50653,42.96737,-92.88927,Marble Rock,IA,Iowa,True,,713.0,5.3,19067,Floyd,"{""19067"": 100}",Floyd,19067,False,False,America/Chicago,"(42.96737, -92.88927)",15.16208259862625,413199.0,454_0_no,42.86075976649568,-92.62737398895526,50.0
50655,42.77232,-91.9016,Maynard,IA,Iowa,True,,856.0,9.2,19065,Fayette,"{""19065"": 100}",Fayette,19065,False,False,America/Chicago,"(42.77232, -91.9016)",37.2879047798158,413199.0,454_0_no,42.86075976649568,-92.62737398895526,50.0
50658,42.95024,-92.53782,Nashua,IA,Iowa,True,,2247.0,11.1,19037,Chickasaw,"{""19037"": 55.66, ""19067"": 33.66, ""19023"": 6.53, ""19017"": 4.15}",Chickasaw|Floyd|Butler|Bremer,19037|19067|19023|19017,False,False,America/Chicago,"(42.95024, -92.53782)",7.665814873058089,413199.0,454_0_no,42.86075976649568,-92.62737398895526,50.0
50659,43.08749,-92.3221,New Hampton,IA,Iowa,True,,5929.0,15.0,19037,Chickasaw,"{""19037"": 100}",Chickasaw,19037,False,False,America/Chicago,"(43.08749, -92.3221)",21.99025204865977,413199.0,454_0_no,42.86075976649568,-92.62737398895526,50.0
50660,42.58099,-92.63752,New Hartford,IA,Iowa,True,,1241.0,13.7,19023,Butler,"{""19023"": 78.92, ""19075"": 21.08}",Butler|Grundy,19023|19075,False,False,America/Chicago,"(42.58099, -92.63752)",19.337109284519517,413199.0,454_0_no,42.86075976649568,-92.62737398895526,50.0
50662,42.68748,-91.93396,Oelwein,IA,Iowa,True,,6432.0,35.3,19065,Fayette,"{""19065"": 93.73, ""19019"": 6.27}",Fayette|Buchanan,19065|19019,False,False,America/Chicago,"(42.68748, -91.93396)",37.149897922044,413199.0,454_0_no,42.86075976649568,-92.62737398895526,50.0
50665,42.58078,-92.7717,Parkersburg,IA,Iowa,True,,2871.0,11.2,19023,Butler,"{""19023"": 64.44, ""19075"": 35.56}",Butler|Grundy,19023|19075,False,False,America/Chicago,"(42.58078, -92.7717)",20.685527782506444,413199.0,454_0_no,42.86075976649568,-92.62737398895526,50.0
50666,42.85995,-92.50933,Plainfield,IA,Iowa,True,,955.0,7.5,19017,Bremer,"{""19017"": 76.21, ""19023"": 23.79}",Bremer|Butler,19017|19023,False,False,America/Chicago,"(42.85995, -92.50933)",5.978767392089769,413199.0,454_0_no,42.86075976649568,-92.62737398895526,50.0
50667,42.47003,-92.22545,Raymond,IA,Iowa,True,,818.0,166.1,19013,Black Hawk,"{""19013"": 100}",Black Hawk,19013,False,False,America/Chicago,"(42.47003, -92.22545)",33.84977230686678,413199.0,454_0_no,42.86075976649568,-92.62737398895526,50.0
50668,42.69087,-92.2265,Readlyn,IA,Iowa,True,,1118.0,12.8,19017,Bremer,"{""19017"": 100}",Bremer,19017,False,False,America/Chicago,"(42.69087, -92.2265)",23.475918881262423,413199.0,454_0_no,42.86075976649568,-92.62737398895526,50.0
50669,42.33309,-92.6124,Reinbeck,IA,Iowa,True,,2400.0,9.6,19075,Grundy,"{""19075"": 69.13, ""19171"": 29.84, ""19013"": 1.03}",Grundy|Tama|Black Hawk,19075|19171|19013,False,False,America/Chicago,"(42.33309, -92.6124)",36.46646205633492,413199.0,454_0_no,42.86075976649568,-92.62737398895526,50.0
50670,42.68425,-92.61586,Shell Rock,IA,Iowa,True,,2278.0,16.0,19023,Butler,"{""19023"": 97.21, ""19017"": 1.92, ""19013"": 0.87}",Butler|Bremer|Black Hawk,19023|19017|19013,False,False,America/Chicago,"(42.68425, -92.61586)",12.2096365133587,413199.0,454_0_no,42.86075976649568,-92.62737398895526,50.0
50671,42.6523,-91.7997,Stanley,IA,Iowa,True,,208.0,3.7,19065,Fayette,"{""19065"": 60.76, ""19019"": 39.24}",Fayette|Buchanan,19065|19019,False,False,America/Chicago,"(42.6523, -91.7997)",44.39053597881724,413199.0,454_0_no,42.86075976649568,-92.62737398895526,50.0
50672,42.4247,-93.06545,Steamboat Rock,IA,Iowa,True,,520.0,5.4,19083,Hardin,"{""19083"": 90.67, ""19075"": 9.33}",Hardin|Grundy,19083|19075,False,False,America/Chicago,"(42.4247, -93.06545)",37.462914968978126,413199.0,454_0_no,42.86075976649568,-92.62737398895526,50.0
50673,42.52505,-92.7113,Stout,IA,Iowa,True,,189.0,433.0,19075,Grundy,"{""19075"": 100}",Grundy,19075,False,False,America/Chicago,"(42.52505, -92.7113)",23.583650638129125,413199.0,454_0_no,42.86075976649568,-92.62737398895526,50.0
50674,42.84202,-92.11746,Sumner,IA,Iowa,True,,3861.0,9.4,19017,Bremer,"{""19017"": 61.82, ""19065"": 32.18, ""19037"": 6.0}",Bremer|Fayette|Chickasaw,19017|19065|19037,False,False,America/Chicago,"(42.84202, -92.11746)",25.861463753963225,413199.0,454_0_no,42.86075976649568,-92.62737398895526,50.0
50675,42.19884,-92.4928,Traer,IA,Iowa,True,,2525.0,8.7,19171,Tama,"{""19171"": 97.77, ""19013"": 2.23}",Tama|Black Hawk,19171|19013,False,False,America/Chicago,"(42.19884, -92.4928)",46.24473102524845,413199.0,454_0_no,42.86075976649568,-92.62737398895526,50.0
50676,42.7943,-92.27895,Tripoli,IA,Iowa,True,,2388.0,16.4,19017,Bremer,"{""19017"": 100}",Bremer,19017,False,False,America/Chicago,"(42.7943, -92.27895)",18.243158656254373,413199.0,454_0_no,42.86075976649568,-92.62737398895526,50.0
50677,42.76363,-92.43775,Waverly,IA,Iowa,True,,12428.0,37.3,19017,Bremer,"{""19017"": 96.97, ""19023"": 3.03}",Bremer|Butler,19017|19023,False,False,America/Chicago,"(42.76363, -92.43775)",11.72237968718143,413199.0,454_0_no,42.86075976649568,-92.62737398895526,50.0
50680,42.44956,-92.92505,Wellsburg,IA,Iowa,True,,1048.0,7.0,19075,Grundy,"{""19075"": 99.15, ""19083"": 0.85}",Grundy|Hardin,19075|19083,False,False,America/Chicago,"(42.44956, -92.92505)",32.186881780830845,413199.0,454_0_no,42.86075976649568,-92.62737398895526,50.0
50681,42.77754,-92.00931,Westgate,IA,Iowa,True,,371.0,5.9,19065,Fayette,"{""19065"": 100}",Fayette,19065,False,False,America/Chicago,"(42.77754, -92.00931)",31.84690820334611,413199.0,454_0_no,42.86075976649568,-92.62737398895526,50.0
50682,42.45241,-91.69893,Winthrop,IA,Iowa,True,,1906.0,8.5,19019,Buchanan,"{""19019"": 100}",Buchanan,19019,False,False,America/Chicago,"(42.45241, -91.69893)",54.96984295898534,413199.0,454_0_no,42.86075976649568,-92.62737398895526,50.0
50701,42.4171,-92.34448,Waterloo,IA,Iowa,True,,30515.0,148.9,19013,Black Hawk,"{""19013"": 100}",Black Hawk,19013,False,False,America/Chicago,"(42.4171, -92.34448)",33.858723960993736,413199.0,454_0_no,42.86075976649568,-92.62737398895526,50.0
50702,42.45745,-92.31283,Waterloo,IA,Iowa,True,,19833.0,783.3,19013,Black Hawk,"{""19013"": 100}",Black Hawk,19013,False,False,America/Chicago,"(42.45745, -92.31283)",32.12395409697678,413199.0,454_0_no,42.86075976649568,-92.62737398895526,50.0
50703,42.54817,-92.28195,Waterloo,IA,Iowa,True,,18906.0,78.3,19013,Black Hawk,"{""19013"": 100}",Black Hawk,19013,False,False,America/Chicago,"(42.54817, -92.28195)",27.822082956610927,413199.0,454_0_no,42.86075976649568,-92.62737398895526,50.0
50707,42.4771,-92.27918,Evansdale,IA,Iowa,True,,8132.0,382.3,19013,Black Hawk,"{""19013"": 100}",Black Hawk,19013,False,False,America/Chicago,"(42.4771, -92.27918)",31.868513390105807,413199.0,454_0_no,42.86075976649568,-92.62737398895526,50.0
52101,43.35741,-91.76494,Decorah,IA,Iowa,True,,13145.0,16.0,19191,Winneshiek,"{""19191"": 97.07, ""19005"": 2.93}",Winneshiek|Allamakee,19191|19005,False,False,America/Chicago,"(43.35741, -91.76494)",55.40734244676383,413199.0,454_0_no,42.86075976649568,-92.62737398895526,50.0
52132,43.2067,-91.91881,Calmar,IA,Iowa,True,,2049.0,12.8,19191,Winneshiek,"{""19191"": 98.34, ""19089"": 1.66}",Winneshiek|Howard,19191|19089,False,False,America/Chicago,"(43.2067, -91.91881)",43.033486087959645,413199.0,454_0_no,42.86075976649568,-92.62737398895526,50.0
52133,43.10702,-91.66854,Castalia,IA,Iowa,True,,662.0,5.8,19191,Winneshiek,"{""19191"": 70.29, ""19065"": 29.71}",Winneshiek|Fayette,19191|19065,False,False,America/Chicago,"(43.10702, -91.66854)",51.36392670861009,413199.0,454_0_no,42.86075976649568,-92.62737398895526,50.0
52134,43.47156,-92.40078,Chester,IA,Iowa,True,,272.0,3.8,19089,Howard,"{""19089"": 99.86, ""27045"": 0.14}",Howard|Fillmore,19089|27045,False,False,America/Chicago,"(43.47156, -92.40078)",43.719847510859346,413199.0,454_0_no,42.86075976649568,-92.62737398895526,50.0
52135,43.01945,-91.66204,Clermont,IA,Iowa,True,,586.0,8.1,19065,Fayette,"{""19065"": 92.49, ""19043"": 7.51}",Fayette|Clayton,19065|19043,False,False,America/Chicago,"(43.01945, -91.66204)",50.04312313689656,413199.0,454_0_no,42.86075976649568,-92.62737398895526,50.0
52136,43.37139,-92.11289,Cresco,IA,Iowa,True,,5485.0,10.1,19089,Howard,"{""19089"": 66.89, ""19191"": 33.11}",Howard|Winneshiek,19089|19191,False,False,America/Chicago,"(43.37139, -92.11289)",43.79581810688978,413199.0,454_0_no,42.86075976649568,-92.62737398895526,50.0
52142,42.82752,-91.79441,Fayette,IA,Iowa,True,,1678.0,8.6,19065,Fayette,"{""19065"": 100}",Fayette,19065,False,False,America/Chicago,"(42.82752, -91.79441)",42.26000461852435,413199.0,454_0_no,42.86075976649568,-92.62737398895526,50.0
52144,43.13961,-91.96075,Fort Atkinson,IA,Iowa,True,,1026.0,5.3,19191,Winneshiek,"{""19191"": 94.31, ""19065"": 5.69}",Winneshiek|Fayette,19191|19065,False,False,America/Chicago,"(43.13961, -91.96075)",38.806047194336244,413199.0,454_0_no,42.86075976649568,-92.62737398895526,50.0
52147,42.94957,-91.96106,Hawkeye,IA,Iowa,True,,1007.0,5.7,19065,Fayette,"{""19065"": 100}",Fayette,19065,False,False,America/Chicago,"(42.94957, -91.96106)",34.275561534049714,413199.0,454_0_no,42.86075976649568,-92.62737398895526,50.0
52154,43.12201,-92.16519,Lawler,IA,Iowa,True,,795.0,4.2,19037,Chickasaw,"{""19037"": 98.58, ""19089"": 1.42}",Chickasaw|Howard,19037|19089,False,False,America/Chicago,"(43.12201, -92.16519)",29.519974162509104,413199.0,454_0_no,42.86075976649568,-92.62737398895526,50.0
52155,43.41412,-92.29683,Lime Springs,IA,Iowa,True,,1608.0,6.0,19089,Howard,"{""19089"": 100}",Howard,19089,False,False,America/Chicago,"(43.41412, -92.29683)",41.70775307796696,413199.0,454_0_no,42.86075976649568,-92.62737398895526,50.0
52161,43.12733,-91.75623,Ossian,IA,Iowa,True,,1295.0,9.4,19191,Winneshiek,"{""19191"": 86.28, ""19065"": 13.72}",Winneshiek|Fayette,19191|19065,False,False,America/Chicago,"(43.12733, -91.75623)",47.72184107556836,413199.0,454_0_no,42.86075976649568,-92.62737398895526,50.0
52163,43.21976,-92.10315,Protivin,IA,Iowa,True,,352.0,76.7,19089,Howard,"{""19089"": 100}",Howard,19089,False,False,America/Chicago,"(43.21976, -92.10315)",36.27744193005071,413199.0,454_0_no,42.86075976649568,-92.62737398895526,50.0
52164,42.85212,-91.89941,Randalia,IA,Iowa,True,,315.0,4.8,19065,Fayette,"{""19065"": 100}",Fayette,19065,False,False,America/Chicago,"(42.85212, -91.89941)",36.87582880316675,413199.0,454_0_no,42.86075976649568,-92.62737398895526,50.0
52165,43.30671,-91.98465,Ridgeway,IA,Iowa,True,,963.0,5.6,19191,Winneshiek,"{""19191"": 100}",Winneshiek,19191,False,False,America/Chicago,"(43.30671, -91.98465)",44.73601479542175,413199.0,454_0_no,42.86075976649568,-92.62737398895526,50.0
52166,43.06791,-91.93547,Saint Lucas,IA,Iowa,True,,93.0,139.1,19065,Fayette,"{""19065"": 100}",Fayette,19065,False,False,America/Chicago,"(43.06791, -91.93547)",37.797882293664145,413199.0,454_0_no,42.86075976649568,-92.62737398895526,50.0
52168,43.20339,-91.95338,Spillville,IA,Iowa,True,,193.0,196.7,19191,Winneshiek,"{""19191"": 100}",Winneshiek,19191,False,False,America/Chicago,"(43.20339, -91.95338)",41.46272272394579,413199.0,454_0_no,42.86075976649568,-92.62737398895526,50.0
52169,42.84739,-91.65971,Wadena,IA,Iowa,True,,310.0,3.6,19065,Fayette,"{""19065"": 94.02, ""19043"": 5.98}",Fayette|Clayton,19065|19043,False,False,America/Chicago,"(42.84739, -91.65971)",49.02214104440538,413199.0,454_0_no,42.86075976649568,-92.62737398895526,50.0
52171,43.07451,-92.04808,Waucoma,IA,Iowa,True,,1144.0,5.4,19065,Fayette,"{""19065"": 50.39, ""19037"": 31.18, ""19191"": 18.43}",Fayette|Chickasaw|Winneshiek,19065|19037|19191,False,False,America/Chicago,"(43.07451, -92.04808)",32.800971714873285,413199.0,454_0_no,42.86075976649568,-92.62737398895526,50.0
52175,42.99372,-91.82389,West Union,IA,Iowa,True,,3630.0,16.4,19065,Fayette,"{""19065"": 100}",Fayette,19065,False,False,America/Chicago,"(42.99372, -91.82389)",41.67445477336754,413199.0,454_0_no,42.86075976649568,-92.62737398895526,50.0
52210,42.33905,-92.00537,Brandon,IA,Iowa,True,,903.0,10.1,19019,Buchanan,"{""19019"": 98.62, ""19011"": 1.38}",Buchanan|Benton,19019|19011,False,False,America/Chicago,"(42.33905, -92.00537)",47.95935185328068,413199.0,454_0_no,42.86075976649568,-92.62737398895526,50.0
52213,42.1995,-91.77222,Center Point,IA,Iowa,True,,3887.0,20.6,19113,Linn,"{""19113"": 76.16, ""19011"": 23.84}",Linn|Benton,19113|19011,False,False,America/Chicago,"(42.1995, -91.77222)",63.112767868010756,413199.0,454_0_no,42.86075976649568,-92.62737398895526,50.0
52224,42.16386,-92.29836,Dysart,IA,Iowa,True,,1788.0,7.0,19011,Benton,"{""19011"": 52.18, ""19171"": 47.82}",Benton|Tama,19011|19171,False,False,America/Chicago,"(42.16386, -92.29836)",50.98354200152863,413199.0,454_0_no,42.86075976649568,-92.62737398895526,50.0
52229,42.14609,-92.16884,Garrison,IA,Iowa,True,,730.0,5.4,19011,Benton,"{""19011"": 100}",Benton,19011,False,False,America/Chicago,"(42.14609, -92.16884)",54.624191170853514,413199.0,454_0_no,42.86075976649568,-92.62737398895526,50.0
52313,42.25955,-92.09726,Mount Auburn,IA,Iowa,True,,237.0,3.0,19011,Benton,"{""19011"": 100}",Benton,19011,False,False,America/Chicago,"(42.25955, -92.09726)",49.53138064502099,413199.0,454_0_no,42.86075976649568,-92.62737398895526,50.0
52326,42.39513,-91.75641,Quasqueton,IA,Iowa,True,,710.0,276.4,19019,Buchanan,"{""19019"": 100}",Buchanan,19019,False,False,America/Chicago,"(42.39513, -91.75641)",54.73044853777648,413199.0,454_0_no,42.86075976649568,-92.62737398895526,50.0
52329,42.35894,-91.85405,Rowley,IA,Iowa,True,,820.0,6.3,19019,Buchanan,"{""19019"": 100}",Buchanan,19019,False,False,America/Chicago,"(42.35894, -91.85405)",52.426699197382284,413199.0,454_0_no,42.86075976649568,-92.62737398895526,50.0
52345,42.22239,-91.89177,Urbana,IA,Iowa,True,,1462.0,177.5,19011,Benton,"{""19011"": 100}",Benton,19011,False,False,America/Chicago,"(42.22239, -91.89177)",57.85926813780254,413199.0,454_0_no,42.86075976649568,-92.62737398895526,50.0
52349,42.17246,-92.00566,Vinton,IA,Iowa,True,,7765.0,20.0,19011,Benton,"{""19011"": 100}",Benton,19011,False,False,America/Chicago,"(42.17246, -92.00566)",57.132500672236084,413199.0,454_0_no,42.86075976649568,-92.62737398895526,50.0
52352,42.28706,-91.77897,Walker,IA,Iowa,True,,1832.0,8.8,19113,Linn,"{""19113"": 47.12, ""19019"": 36.49, ""19011"": 16.38}",Linn|Buchanan|Benton,19113|19019|19011,False,False,America/Chicago,"(42.28706, -91.77897)",58.6054400767692,413199.0,454_0_no,42.86075976649568,-92.62737398895526,50.0
55909,43.56312,-92.73461,Adams,MN,Minnesota,True,,1508.0,11.1,27099,Mower,"{""27099"": 100}",Mower,27099,False,False,America/Chicago,"(43.56312, -92.73461)",48.82798427884263,413199.0,454_0_no,42.86075976649568,-92.62737398895526,50.0
55922,43.5621,-91.89562,Canton,MN,Minnesota,True,,1196.0,14.1,27045,Fillmore,"{""27045"": 100}",Fillmore,27045,False,False,America/Chicago,"(43.5621, -91.89562)",60.87674169460377,413199.0,454_0_no,42.86075976649568,-92.62737398895526,50.0
55939,43.54682,-92.08144,Harmony,MN,Minnesota,True,,1941.0,8.1,27045,Fillmore,"{""27045"": 100}",Fillmore,27045,False,False,America/Chicago,"(43.54682, -92.08144)",54.79899350614404,413199.0,454_0_no,42.86075976649568,-92.62737398895526,50.0
55951,43.53529,-92.48414,Le Roy,MN,Minnesota,True,,1579.0,8.3,27099,Mower,"{""27099"": 65.37, ""27045"": 34.63}",Mower|Fillmore,27099|27045,False,False,America/Chicago,"(43.53529, -92.48414)",47.160668195516344,413199.0,454_0_no,42.86075976649568,-92.62737398895526,50.0
55953,43.52772,-92.96521,Lyle,MN,Minnesota,True,,832.0,9.1,27099,Mower,"{""27099"": 93.24, ""27047"": 6.76}",Mower|Freeborn,27099|27047,False,False,America/Chicago,"(43.52772, -92.96521)",49.1241406347044,413199.0,454_0_no,42.86075976649568,-92.62737398895526,50.0
55954,43.56422,-91.78455,Mabel,MN,Minnesota,True,,1326.0,7.1,27045,Fillmore,"{""27045"": 87.57, ""27055"": 12.43}",Fillmore|Houston,27045|27055,False,False,America/Chicago,"(43.56422, -91.78455)",64.52597023655116,413199.0,454_0_no,42.86075976649568,-92.62737398895526,50.0
55974,43.57968,-91.64382,Spring Grove,MN,Minnesota,True,,2180.0,10.2,27055,Houston,"{""27055"": 96.03, ""27045"": 3.97}",Houston|Fillmore,27055|27045,False,False,America/Chicago,"(43.57968, -91.64382)",70.14038385557889,413199.0,454_0_no,42.86075976649568,-92.62737398895526,50.0
55977,43.55371,-92.64792,Taopi,MN,Minnesota,True,,174.0,2.8,27099,Mower,"{""27099"": 100}",Mower,27099,False,False,America/Chicago,"(43.55371, -92.64792)",47.889479855203376,413199.0,454_0_no,42.86075976649568,-92.62737398895526,50.0
56029,43.52519,-93.53003,Emmons,MN,Minnesota,True,,661.0,6.1,27047,Freeborn,"{""27047"": 100}",Freeborn,27047,False,False,America/Chicago,"(43.52519, -93.53003)",64.61323712839635,413199.0,454_0_no,42.86075976649568,-92.62737398895526,50.0
56036,43.5513,-93.22152,Glenville,MN,Minnesota,True,,1867.0,6.2,27047,Freeborn,"{""27047"": 100}",Freeborn,27047,False,False,America/Chicago,"(43.5513, -93.22152)",56.318012971637934,413199.0,454_0_no,42.86075976649568,-92.62737398895526,50.0
56089,43.55631,-93.4508,Twin Lakes,MN,Minnesota,True,,210.0,14.8,27047,Freeborn,"{""27047"": 100}",Freeborn,27047,False,False,America/Chicago,"(43.55631, -93.4508)",63.47472264875459,413199.0,454_0_no,42.86075976649568,-92.62737398895526,50.0
