zip,lat,lng,city,state_id,state_name,zcta,parent_zcta,population,density,county_fips,county_name,county_weights,county_names_all,county_fips_all,imprecise,military,timezone,Coord,distance_miles,market_total_population,market_id,market_center_lat,market_center_lng,radius_miles
57040,43.06206,-97.58582,Lesterville,SD,South Dakota,True,,314.0,1.7,46135,Yankton,"{""46135"": 96.55, ""46009"": 3.45}",Yankton|Bon Homme,46135|46009,False,False,America/Chicago,"(43.06206, -97.58582)",49.19546042726813,54711.0,457_0_no,42.91161269466565,-98.53719682280918,50.0
57052,43.29471,-97.7054,Olivet,SD,South Dakota,True,,263.0,1.2,46067,Hutchinson,"{""46067"": 100}",Hutchinson,46067,False,False,America/Chicago,"(43.29471, -97.7054)",49.61212581165585,54711.0,457_0_no,42.91161269466565,-98.53719682280918,50.0
57059,43.12476,-97.76365,Scotland,SD,South Dakota,True,,1181.0,3.1,46009,Bon Homme,"{""46009"": 78.48, ""46067"": 21.52}",Bon Homme|Hutchinson,46009|46067,False,False,America/Chicago,"(43.12476, -97.76365)",41.75988780636898,54711.0,457_0_no,42.91161269466565,-98.53719682280918,50.0
57062,42.85046,-97.95327,Springfield,SD,South Dakota,True,,2409.0,9.3,46009,Bon Homme,"{""46009"": 100}",Bon Homme,46009,False,False,America/Chicago,"(42.85046, -97.95327)",29.864243039262128,54711.0,457_0_no,42.91161269466565,-98.53719682280918,50.0
57063,42.92483,-97.68668,Tabor,SD,South Dakota,True,,818.0,3.4,46009,Bon Homme,"{""46009"": 79.93, ""46135"": 20.07}",Bon Homme|Yankton,46009|46135,False,False,America/Chicago,"(42.92483, -97.68668)",43.04474888166078,54711.0,457_0_no,42.91161269466565,-98.53719682280918,50.0
57066,42.98874,-97.86703,Tyndall,SD,South Dakota,True,,1484.0,5.0,46009,Bon Homme,"{""46009"": 100}",Bon Homme,46009,False,False,America/Chicago,"(42.98874, -97.86703)",34.308428652115076,54711.0,457_0_no,42.91161269466565,-98.53719682280918,50.0
57313,43.31085,-98.36327,Armour,SD,South Dakota,True,,1121.0,2.4,46043,Douglas,"{""46043"": 65.91, ""46023"": 34.09}",Douglas|Charles Mix,46043|46023,False,False,America/Chicago,"(43.31085, -98.36327)",28.94609783887196,54711.0,457_0_no,42.91161269466565,-98.53719682280918,50.0
57315,42.99391,-98.04852,Avon,SD,South Dakota,True,,1271.0,3.8,46009,Bon Homme,"{""46009"": 96.02, ""46023"": 3.98}",Bon Homme|Charles Mix,46009|46023,False,False,America/Chicago,"(42.99391, -98.04852)",25.358359836435078,54711.0,457_0_no,42.91161269466565,-98.53719682280918,50.0
57317,43.13153,-98.97891,Bonesteel,SD,South Dakota,True,,688.0,1.7,46053,Gregory,"{""46053"": 100}",Gregory,46053,False,False,America/Chicago,"(43.13153, -98.97891)",26.995110451709248,54711.0,457_0_no,42.91161269466565,-98.53719682280918,50.0
57328,43.43413,-98.44207,Corsica,SD,South Dakota,True,,1345.0,3.2,46043,Douglas,"{""46043"": 97.57, ""46003"": 2.43}",Douglas|Aurora,46043|46003,False,False,America/Chicago,"(43.43413, -98.44207)",36.419320329238,54711.0,457_0_no,42.91161269466565,-98.53719682280918,50.0
57329,42.97814,-98.1522,Dante,SD,South Dakota,True,,410.0,3.1,46023,Charles Mix,"{""46023"": 100}",Charles Mix,46023,False,False,America/Chicago,"(42.97814, -98.1522)",20.007165519719816,54711.0,457_0_no,42.91161269466565,-98.53719682280918,50.0
57330,43.26147,-98.16082,Delmont,SD,South Dakota,True,,455.0,1.5,46043,Douglas,"{""46043"": 60.67, ""46023"": 25.92, ""46067"": 13.41}",Douglas|Charles Mix|Hutchinson,46043|46023|46067,False,False,America/Chicago,"(43.26147, -98.16082)",30.741235949705178,54711.0,457_0_no,42.91161269466565,-98.53719682280918,50.0
57331,43.47337,-98.04619,Dimock,SD,South Dakota,True,,425.0,2.4,46067,Hutchinson,"{""46067"": 65.81, ""46043"": 23.26, ""46035"": 10.93}",Hutchinson|Douglas|Davison,46067|46043|46035,False,False,America/Chicago,"(43.47337, -98.04619)",46.024285275227776,54711.0,457_0_no,42.91161269466565,-98.53719682280918,50.0
57332,43.5465,-97.64762,Emery,SD,South Dakota,True,,876.0,3.4,46061,Hanson,"{""46061"": 51.21, ""46067"": 32.58, ""46087"": 16.21}",Hanson|Hutchinson|McCook,46061|46067|46087,False,False,America/Chicago,"(43.5465, -97.64762)",62.68794179624561,54711.0,457_0_no,42.91161269466565,-98.53719682280918,50.0
57334,43.54199,-97.99492,Ethan,SD,South Dakota,True,,921.0,3.3,46035,Davison,"{""46035"": 51.59, ""46061"": 35.66, ""46067"": 12.75}",Davison|Hanson|Hutchinson,46035|46061|46067,False,False,America/Chicago,"(43.54199, -97.99492)",51.40365843644873,54711.0,457_0_no,42.91161269466565,-98.53719682280918,50.0
57335,43.06005,-98.77255,Fairfax,SD,South Dakota,True,,261.0,1.0,46053,Gregory,"{""46053"": 100}",Gregory,46053,False,False,America/Chicago,"(43.06005, -98.77255)",15.706367620297652,54711.0,457_0_no,42.91161269466565,-98.53719682280918,50.0
57342,43.24561,-98.70054,Geddes,SD,South Dakota,True,,455.0,1.1,46023,Charles Mix,"{""46023"": 100}",Charles Mix,46023,False,False,America/Chicago,"(43.24561, -98.70054)",24.505148812321362,54711.0,457_0_no,42.91161269466565,-98.53719682280918,50.0
57344,43.45575,-98.61796,Harrison,SD,South Dakota,True,,66.0,0.7,46043,Douglas,"{""46043"": 100}",Douglas,46043,False,False,America/Chicago,"(43.45575, -98.61796)",37.81583833132801,54711.0,457_0_no,42.91161269466565,-98.53719682280918,50.0
57356,43.1468,-98.51803,Lake Andes,SD,South Dakota,True,,2139.0,4.9,46023,Charles Mix,"{""46023"": 100}",Charles Mix,46023,False,False,America/Chicago,"(43.1468, -98.51803)",16.278705333893075,54711.0,457_0_no,42.91161269466565,-98.53719682280918,50.0
57361,42.99459,-98.43463,Marty,SD,South Dakota,True,,108.0,16.8,46023,Charles Mix,"{""46023"": 100}",Charles Mix,46023,False,False,America/Chicago,"(42.99459, -98.43463)",7.731276474711537,54711.0,457_0_no,42.91161269466565,-98.53719682280918,50.0
57366,43.3855,-97.94306,Parkston,SD,South Dakota,True,,2439.0,4.3,46067,Hutchinson,"{""46067"": 88.89, ""46043"": 11.11}",Hutchinson|Douglas,46067|46043,False,False,America/Chicago,"(43.3855, -97.94306)",44.374037911121334,54711.0,457_0_no,42.91161269466565,-98.53719682280918,50.0
57367,43.06348,-98.5133,Pickstown,SD,South Dakota,True,,288.0,23.4,46023,Charles Mix,"{""46023"": 100}",Charles Mix,46023,False,False,America/Chicago,"(43.06348, -98.5133)",10.562313507853617,54711.0,457_0_no,42.91161269466565,-98.53719682280918,50.0
57369,43.42544,-98.94606,Platte,SD,South Dakota,True,,2415.0,2.1,46023,Charles Mix,"{""46023"": 75.13, ""46015"": 21.88, ""46043"": 2.07, ""46003"": 0.92}",Charles Mix|Brule|Douglas|Aurora,46023|46015|46043|46003,False,False,America/Chicago,"(43.42544, -98.94606)",41.04757766815486,54711.0,457_0_no,42.91161269466565,-98.53719682280918,50.0
57375,43.56222,-98.47877,Stickney,SD,South Dakota,True,,641.0,1.8,46003,Aurora,"{""46003"": 98.57, ""46035"": 1.43}",Aurora|Davison,46003|46035,False,False,America/Chicago,"(43.56222, -98.47877)",45.048783069844895,54711.0,457_0_no,42.91161269466565,-98.53719682280918,50.0
57376,43.21948,-97.94176,Tripp,SD,South Dakota,True,,813.0,2.1,46067,Hutchinson,"{""46067"": 78.15, ""46009"": 21.85}",Hutchinson|Bon Homme,46067|46009,False,False,America/Chicago,"(43.21948, -97.94176)",36.82190499932458,54711.0,457_0_no,42.91161269466565,-98.53719682280918,50.0
57380,43.03387,-98.28916,Wagner,SD,South Dakota,True,,3771.0,5.2,46023,Charles Mix,"{""46023"": 100}",Charles Mix,46023,False,False,America/Chicago,"(43.03387, -98.28916)",15.11913330817846,54711.0,457_0_no,42.91161269466565,-98.53719682280918,50.0
57523,43.24437,-99.23795,Burke,SD,South Dakota,True,,1023.0,1.6,46053,Gregory,"{""46053"": 100}",Gregory,46053,False,False,America/Chicago,"(43.24437, -99.23795)",42.181575429749564,54711.0,457_0_no,42.91161269466565,-98.53719682280918,50.0
57533,43.3463,-99.41692,Gregory,SD,South Dakota,True,,1848.0,1.9,46053,Gregory,"{""46053"": 71.13, ""46085"": 27.85, ""46123"": 1.02}",Gregory|Lyman|Tripp,46053|46085|46123,False,False,America/Chicago,"(43.3463, -99.41692)",53.5709467912745,54711.0,457_0_no,42.91161269466565,-98.53719682280918,50.0
57538,43.12167,-99.15551,Herrick,SD,South Dakota,True,,214.0,0.7,46053,Gregory,"{""46053"": 100}",Gregory,46053,False,False,America/Chicago,"(43.12167, -99.15551)",34.44301611062204,54711.0,457_0_no,42.91161269466565,-98.53719682280918,50.0
68711,42.2034,-99.02407,Amelia,NE,Nebraska,True,,126.0,0.2,31089,Holt,"{""31089"": 100}",Holt,31089,False,False,America/Chicago,"(42.2034, -99.02407)",54.84880610247345,54711.0,457_0_no,42.91161269466565,-98.53719682280918,50.0
68713,42.54061,-98.9718,Atkinson,NE,Nebraska,True,,2265.0,1.5,31089,Holt,"{""31089"": 100}",Holt,31089,False,False,America/Chicago,"(42.54061, -98.9718)",33.81836289812834,54711.0,457_0_no,42.91161269466565,-98.53719682280918,50.0
68714,42.36957,-99.50258,Bassett,NE,Nebraska,True,,1276.0,0.6,31149,Rock,"{""31149"": 86.25, ""31115"": 11.65, ""31017"": 2.1}",Rock|Loup|Brown,31149|31115|31017,False,False,America/Chicago,"(42.36957, -99.50258)",61.72592126651309,54711.0,457_0_no,42.91161269466565,-98.53719682280918,50.0
68718,42.6619,-97.69844,Bloomfield,NE,Nebraska,True,,1662.0,2.9,31107,Knox,"{""31107"": 100}",Knox,31107,False,False,America/Chicago,"(42.6619, -97.69844)",45.8967679187312,54711.0,457_0_no,42.91161269466565,-98.53719682280918,50.0
68719,42.96446,-98.57426,Bristow,NE,Nebraska,True,,197.0,1.5,31015,Boyd,"{""31015"": 60.08, ""46053"": 39.92}",Boyd|Gregory,31015|46053,False,False,America/Chicago,"(42.96446, -98.57426)",4.104562230854833,54711.0,457_0_no,42.91161269466565,-98.53719682280918,50.0
68720,42.34659,-98.01418,Brunswick,NE,Nebraska,True,,260.0,1.5,31003,Antelope,"{""31003"": 100}",Antelope,31003,False,False,America/Chicago,"(42.34659, -98.01418)",47.23310515226819,54711.0,457_0_no,42.91161269466565,-98.53719682280918,50.0
68722,42.92074,-98.87123,Butte,NE,Nebraska,True,,496.0,2.0,31015,Boyd,"{""31015"": 100}",Boyd,31015,False,False,America/Chicago,"(42.92074, -98.87123)",16.91403286613755,54711.0,457_0_no,42.91161269466565,-98.53719682280918,50.0
68724,42.6276,-97.88496,Center,NE,Nebraska,True,,196.0,1.8,31107,Knox,"{""31107"": 100}",Knox,31107,False,False,America/Chicago,"(42.6276, -97.88496)",38.46403122137031,54711.0,457_0_no,42.91161269466565,-98.53719682280918,50.0
68725,42.20118,-98.77703,Chambers,NE,Nebraska,True,,582.0,1.3,31089,Holt,"{""31089"": 97.4, ""31183"": 2.6}",Holt|Wheeler,31089|31183,False,False,America/Chicago,"(42.20118, -98.77703)",50.58107124480996,54711.0,457_0_no,42.91161269466565,-98.53719682280918,50.0
68729,42.47479,-97.90784,Creighton,NE,Nebraska,True,,1796.0,4.1,31107,Knox,"{""31107"": 82.02, ""31003"": 17.98}",Knox|Antelope,31107|31003,False,False,America/Chicago,"(42.47479, -97.90784)",43.959068727384356,54711.0,457_0_no,42.91161269466565,-98.53719682280918,50.0
68734,42.42528,-98.8044,Emmet,NE,Nebraska,True,,65.0,0.4,31089,Holt,"{""31089"": 100}",Holt,31089,False,False,America/Chicago,"(42.42528, -98.8044)",36.24077263662233,54711.0,457_0_no,42.91161269466565,-98.53719682280918,50.0
68742,42.3572,-98.51459,Inman,NE,Nebraska,True,,214.0,2.1,31089,Holt,"{""31089"": 100}",Holt,31089,False,False,America/Chicago,"(42.3572, -98.51459)",38.323500504170845,54711.0,457_0_no,42.91161269466565,-98.53719682280918,50.0
68746,42.80726,-98.4354,Lynch,NE,Nebraska,True,,353.0,0.6,31015,Boyd,"{""31015"": 62.22, ""31089"": 37.78}",Boyd|Holt,31015|31089,False,False,America/Chicago,"(42.80726, -98.4354)",8.863789062904441,54711.0,457_0_no,42.91161269466565,-98.53719682280918,50.0
68753,42.84464,-99.45588,Mills,NE,Nebraska,True,,175.0,0.8,31103,Keya Paha,"{""31103"": 100}",Keya Paha,31103,False,False,America/Chicago,"(42.84464, -99.45588)",46.743989376868036,54711.0,457_0_no,42.91161269466565,-98.53719682280918,50.0
68755,42.92329,-99.12963,Naper,NE,Nebraska,True,,326.0,0.9,31015,Boyd,"{""31015"": 99.57, ""46053"": 0.43}",Boyd|Gregory,31015|46053,False,False,America/Chicago,"(42.92329, -99.12963)",29.987655124411756,54711.0,457_0_no,42.91161269466565,-98.53719682280918,50.0
68759,42.75096,-99.33762,Newport,NE,Nebraska,True,,202.0,0.3,31149,Rock,"{""31149"": 56.05, ""31103"": 43.95}",Rock|Keya Paha,31149|31103,False,False,America/Chicago,"(42.75096, -99.33762)",42.04899489898981,54711.0,457_0_no,42.91161269466565,-98.53719682280918,50.0
68760,42.76616,-98.03831,Niobrara,NE,Nebraska,True,,1335.0,2.6,31107,Knox,"{""31107"": 100}",Knox,31107,False,False,America/Chicago,"(42.76616, -98.03831)",27.20023402156678,54711.0,457_0_no,42.91161269466565,-98.53719682280918,50.0
68763,42.51809,-98.58254,Oneill,NE,Nebraska,True,,4737.0,3.4,31089,Holt,"{""31089"": 98.58, ""31107"": 1.42}",Holt|Knox,31089|31107,False,False,America/Chicago,"(42.51809, -98.58254)",27.287090731917747,54711.0,457_0_no,42.91161269466565,-98.53719682280918,50.0
68764,42.39881,-98.23177,Orchard,NE,Nebraska,True,,944.0,2.8,31003,Antelope,"{""31003"": 55.32, ""31107"": 35.96, ""31089"": 8.72}",Antelope|Knox|Holt,31003|31107|31089,False,False,America/Chicago,"(42.39881, -98.23177)",38.68130186659754,54711.0,457_0_no,42.91161269466565,-98.53719682280918,50.0
68765,42.33397,-97.6232,Osmond,NE,Nebraska,True,,1231.0,3.6,31139,Pierce,"{""31139"": 100}",Pierce,31139,False,False,America/Chicago,"(42.33397, -97.6232)",61.25469214876182,54711.0,457_0_no,42.91161269466565,-98.53719682280918,50.0
68766,42.42375,-98.40321,Page,NE,Nebraska,True,,497.0,1.8,31089,Holt,"{""31089"": 100}",Holt,31089,False,False,America/Chicago,"(42.42375, -98.40321)",34.3885387739465,54711.0,457_0_no,42.91161269466565,-98.53719682280918,50.0
68769,42.3158,-97.81636,Plainview,NE,Nebraska,True,,1728.0,4.2,31139,Pierce,"{""31139"": 64.04, ""31003"": 35.48, ""31107"": 0.48}",Pierce|Antelope|Knox,31139|31003|31107,False,False,America/Chicago,"(42.3158, -97.81636)",55.11909166387423,54711.0,457_0_no,42.91161269466565,-98.53719682280918,50.0
68773,42.36245,-98.1199,Royal,NE,Nebraska,True,,164.0,1.2,31003,Antelope,"{""31003"": 100}",Antelope,31003,False,False,America/Chicago,"(42.36245, -98.1199)",43.469522975620244,54711.0,457_0_no,42.91161269466565,-98.53719682280918,50.0
68777,42.86088,-98.68504,Spencer,NE,Nebraska,True,,571.0,1.2,31015,Boyd,"{""31015"": 71.99, ""31089"": 28.01}",Boyd|Holt,31015|31089,False,False,America/Chicago,"(42.86088, -98.68504)",8.264751780755432,54711.0,457_0_no,42.91161269466565,-98.53719682280918,50.0
68780,42.64621,-99.14062,Stuart,NE,Nebraska,True,,910.0,1.2,31089,Holt,"{""31089"": 100}",Holt,31089,False,False,America/Chicago,"(42.64621, -99.14062)",35.675049746204074,54711.0,457_0_no,42.91161269466565,-98.53719682280918,50.0
68783,42.62523,-98.14612,Verdigre,NE,Nebraska,True,,852.0,1.5,31107,Knox,"{""31107"": 100}",Knox,31107,False,False,America/Chicago,"(42.62523, -98.14612)",28.017838563684606,54711.0,457_0_no,42.91161269466565,-98.53719682280918,50.0
68786,42.50351,-97.55855,Wausa,NE,Nebraska,True,,985.0,3.0,31107,Knox,"{""31107"": 78.67, ""31027"": 17.24, ""31139"": 4.09}",Knox|Cedar|Pierce,31107|31027|31139,False,False,America/Chicago,"(42.50351, -97.55855)",57.13020204886816,54711.0,457_0_no,42.91161269466565,-98.53719682280918,50.0
68789,42.53642,-97.99182,Winnetoon,NE,Nebraska,True,,104.0,1.1,31107,Knox,"{""31107"": 100}",Knox,31107,False,False,America/Chicago,"(42.53642, -97.99182)",37.92515298905252,54711.0,457_0_no,42.91161269466565,-98.53719682280918,50.0
