zip,lat,lng,city,state_id,state_name,zcta,parent_zcta,population,density,county_fips,county_name,county_weights,county_names_all,county_fips_all,imprecise,military,timezone,Coord,distance_miles,market_total_population,market_id,market_center_lat,market_center_lng,radius_miles
55321,45.08406,-94.193,Cokato,MN,Minnesota,True,,5238.0,25.0,27171,Wright,"{""27171"": 100}",Wright,27171,False,False,America/Chicago,"(45.08406, -94.193)",66.89542912976633,419943.0,514_0_no,45.76606181653875,-95.17218670070469,50.0
55324,45.05676,-94.42554,Darwin,MN,Minnesota,True,,1085.0,11.9,27093,Meeker,"{""27093"": 100}",Meeker,27093,False,False,America/Chicago,"(45.05676, -94.42554)",60.93673544613307,419943.0,514_0_no,45.76606181653875,-95.17218670070469,50.0
55325,45.08432,-94.32031,Dassel,MN,Minnesota,True,,4757.0,24.0,27093,Meeker,"{""27093"": 100}",Meeker,27093,False,False,America/Chicago,"(45.08432, -94.32031)",62.6511260413749,419943.0,514_0_no,45.76606181653875,-95.17218670070469,50.0
55329,45.30798,-94.57039,Eden Valley,MN,Minnesota,True,,2077.0,15.9,27093,Meeker,"{""27093"": 68.4, ""27145"": 31.6}",Meeker|Stearns,27093|27145,False,False,America/Chicago,"(45.30798, -94.57039)",43.01139514801128,419943.0,514_0_no,45.76606181653875,-95.17218670070469,50.0
55353,45.32034,-94.31607,Kimball,MN,Minnesota,True,,3535.0,16.8,27145,Stearns,"{""27145"": 67.05, ""27093"": 32.95}",Stearns|Meeker,27145|27093,False,False,America/Chicago,"(45.32034, -94.31607)",51.62053825183381,419943.0,514_0_no,45.76606181653875,-95.17218670070469,50.0
55355,45.09709,-94.54017,Litchfield,MN,Minnesota,True,,9581.0,21.5,27093,Meeker,"{""27093"": 100}",Meeker,27093,False,False,America/Chicago,"(45.09709, -94.54017)",55.45697160938426,419943.0,514_0_no,45.76606181653875,-95.17218670070469,50.0
55382,45.30521,-94.20438,South Haven,MN,Minnesota,True,,3455.0,17.5,27145,Stearns,"{""27145"": 49.45, ""27171"": 37.63, ""27093"": 12.92}",Stearns|Wright|Meeker,27145|27171|27093,False,False,America/Chicago,"(45.30521, -94.20438)",56.637122542913445,419943.0,514_0_no,45.76606181653875,-95.17218670070469,50.0
55389,45.2998,-94.43748,Watkins,MN,Minnesota,True,,2571.0,13.3,27093,Meeker,"{""27093"": 62.98, ""27145"": 37.02}",Meeker|Stearns,27093|27145,False,False,America/Chicago,"(45.2998, -94.43748)",47.98231463273967,419943.0,514_0_no,45.76606181653875,-95.17218670070469,50.0
56201,45.10181,-95.04226,Willmar,MN,Minnesota,True,,23465.0,76.7,27067,Kandiyohi,"{""27067"": 100}",Kandiyohi,27067,False,False,America/Chicago,"(45.10181, -95.04226)",46.325719055501935,419943.0,514_0_no,45.76606181653875,-95.17218670070469,50.0
56207,45.50266,-96.0708,Alberta,MN,Minnesota,True,,252.0,2.0,27149,Stevens,"{""27149"": 94.16, ""27151"": 5.84}",Stevens|Swift,27149|27151,False,False,America/Chicago,"(45.50266, -96.0708)",47.07420961689125,419943.0,514_0_no,45.76606181653875,-95.17218670070469,50.0
56208,45.24422,-96.00961,Appleton,MN,Minnesota,True,,1988.0,3.9,27151,Swift,"{""27151"": 81.38, ""27073"": 12.05, ""27011"": 4.46, ""27023"": 2.11}",Swift|Lac qui Parle|Big Stone|Chippewa,27151|27073|27011|27023,False,False,America/Chicago,"(45.24422, -96.00961)",54.2619818485491,419943.0,514_0_no,45.76606181653875,-95.17218670070469,50.0
56209,45.124,-94.79931,Atwater,MN,Minnesota,True,,2446.0,9.3,27067,Kandiyohi,"{""27067"": 81.14, ""27093"": 18.86}",Kandiyohi|Meeker,27067|27093,False,False,America/Chicago,"(45.124, -94.79931)",47.90316774799266,419943.0,514_0_no,45.76606181653875,-95.17218670070469,50.0
56215,45.31077,-95.57233,Benson,MN,Minnesota,True,,4258.0,7.8,27151,Swift,"{""27151"": 92.5, ""27121"": 7.5}",Swift|Pope,27151|27121,False,False,America/Chicago,"(45.31077, -95.57233)",36.940211840561254,419943.0,514_0_no,45.76606181653875,-95.17218670070469,50.0
56221,45.55583,-96.1938,Chokio,MN,Minnesota,True,,745.0,2.1,27149,Stevens,"{""27149"": 87.8, ""27011"": 10.1, ""27155"": 2.1}",Stevens|Big Stone|Traverse,27149|27011|27155,False,False,America/Chicago,"(45.55583, -96.1938)",51.42687523966197,419943.0,514_0_no,45.76606181653875,-95.17218670070469,50.0
56226,45.41065,-95.67705,Clontarf,MN,Minnesota,True,,211.0,2.3,27121,Pope,"{""27121"": 50.67, ""27151"": 49.33}",Pope|Swift,27121|27151,False,False,America/Chicago,"(45.41065, -95.67705)",34.625509485319434,419943.0,514_0_no,45.76606181653875,-95.17218670070469,50.0
56227,45.29436,-96.16938,Correll,MN,Minnesota,True,,249.0,1.7,27011,Big Stone,"{""27011"": 100}",Big Stone,27011,False,False,America/Chicago,"(45.29436, -96.16938)",58.23885491284331,419943.0,514_0_no,45.76606181653875,-95.17218670070469,50.0
56231,45.2788,-95.76381,Danvers,MN,Minnesota,True,,411.0,1.7,27151,Swift,"{""27151"": 100}",Swift,27151,False,False,America/Chicago,"(45.2788, -95.76381)",44.20017692325378,419943.0,514_0_no,45.76606181653875,-95.17218670070469,50.0
56235,45.70588,-96.01079,Donnelly,MN,Minnesota,True,,502.0,2.4,27149,Stevens,"{""27149"": 100}",Stevens,27149,False,False,America/Chicago,"(45.70588, -96.01079)",40.65453049715392,419943.0,514_0_no,45.76606181653875,-95.17218670070469,50.0
56243,45.16868,-94.6799,Grove City,MN,Minnesota,True,,1802.0,7.5,27093,Meeker,"{""27093"": 100}",Meeker,27093,False,False,America/Chicago,"(45.16868, -94.6799)",47.672284311011495,419943.0,514_0_no,45.76606181653875,-95.17218670070469,50.0
56244,45.48372,-95.77963,Hancock,MN,Minnesota,True,,1608.0,4.7,27149,Stevens,"{""27149"": 59.37, ""27121"": 34.3, ""27151"": 6.33}",Stevens|Pope|Swift,27149|27121|27151,False,False,America/Chicago,"(45.48372, -95.77963)",35.243347015446126,419943.0,514_0_no,45.76606181653875,-95.17218670070469,50.0
56248,45.79317,-96.13677,Herman,MN,Minnesota,True,,854.0,2.4,27051,Grant,"{""27051"": 69.16, ""27149"": 17.31, ""27155"": 13.53}",Grant|Stevens|Traverse,27051|27149|27155,False,False,America/Chicago,"(45.79317, -96.13677)",46.517949313804884,419943.0,514_0_no,45.76606181653875,-95.17218670070469,50.0
56249,45.31795,-95.89899,Holloway,MN,Minnesota,True,,308.0,1.8,27151,Swift,"{""27151"": 100}",Swift,27151,False,False,America/Chicago,"(45.31795, -95.89899)",46.85745041357148,419943.0,514_0_no,45.76606181653875,-95.17218670070469,50.0
56251,45.14046,-94.9198,Kandiyohi,MN,Minnesota,True,,810.0,9.3,27067,Kandiyohi,"{""27067"": 100}",Kandiyohi,27067,False,False,America/Chicago,"(45.14046, -94.9198)",44.92251765700162,419943.0,514_0_no,45.76606181653875,-95.17218670070469,50.0
56252,45.17785,-95.30397,Kerkhoven,MN,Minnesota,True,,1175.0,6.1,27151,Swift,"{""27151"": 59.72, ""27023"": 32.1, ""27067"": 8.18}",Swift|Chippewa|Kandiyohi,27151|27023|27067,False,False,America/Chicago,"(45.17785, -95.30397)",41.140080856440065,419943.0,514_0_no,45.76606181653875,-95.17218670070469,50.0
56262,45.12276,-95.86843,Milan,MN,Minnesota,True,,716.0,4.0,27023,Chippewa,"{""27023"": 80.38, ""27151"": 19.62}",Chippewa|Swift,27023|27151,False,False,America/Chicago,"(45.12276, -95.86843)",55.809480337861494,419943.0,514_0_no,45.76606181653875,-95.17218670070469,50.0
56267,45.58512,-95.9322,Morris,MN,Minnesota,True,,6955.0,13.8,27149,Stevens,"{""27149"": 100}",Stevens,27149,False,False,America/Chicago,"(45.58512, -95.9322)",38.76237529434759,419943.0,514_0_no,45.76606181653875,-95.17218670070469,50.0
56271,45.24125,-95.41288,Murdock,MN,Minnesota,True,,1202.0,3.1,27151,Swift,"{""27151"": 82.04, ""27023"": 17.96}",Swift|Chippewa,27151|27023,False,False,America/Chicago,"(45.24125, -95.41288)",38.0882135053265,419943.0,514_0_no,45.76606181653875,-95.17218670070469,50.0
56273,45.32163,-94.96777,New London,MN,Minnesota,True,,5066.0,20.2,27067,Kandiyohi,"{""27067"": 100}",Kandiyohi,27067,False,False,America/Chicago,"(45.32163, -94.96777)",32.26120324004287,419943.0,514_0_no,45.76606181653875,-95.17218670070469,50.0
56279,45.21651,-95.17585,Pennock,MN,Minnesota,True,,1272.0,7.9,27067,Kandiyohi,"{""27067"": 100}",Kandiyohi,27067,False,False,America/Chicago,"(45.21651, -95.17585)",37.97082847191004,419943.0,514_0_no,45.76606181653875,-95.17218670070469,50.0
56288,45.24218,-94.94847,Spicer,MN,Minnesota,True,,4724.0,37.4,27067,Kandiyohi,"{""27067"": 100}",Kandiyohi,27067,False,False,America/Chicago,"(45.24218, -94.94847)",37.7831523492368,419943.0,514_0_no,45.76606181653875,-95.17218670070469,50.0
56289,45.33334,-95.2236,Sunburg,MN,Minnesota,True,,656.0,4.9,27067,Kandiyohi,"{""27067"": 70.36, ""27151"": 29.64}",Kandiyohi|Swift,27067|27151,False,False,America/Chicago,"(45.33334, -95.2236)",30.001540843944362,419943.0,514_0_no,45.76606181653875,-95.17218670070469,50.0
56295,45.0437,-95.84292,Watson,MN,Minnesota,True,,262.0,4.5,27023,Chippewa,"{""27023"": 100}",Chippewa,27023,False,False,America/Chicago,"(45.0437, -95.84292)",59.579038883630076,419943.0,514_0_no,45.76606181653875,-95.17218670070469,50.0
56301,45.48718,-94.24307,Saint Cloud,MN,Minnesota,True,,34862.0,175.8,27145,Stearns,"{""27145"": 100}",Stearns,27145,False,False,America/Chicago,"(45.48718, -94.24307)",48.85424923874993,419943.0,514_0_no,45.76606181653875,-95.17218670070469,50.0
56303,45.57422,-94.21117,Saint Cloud,MN,Minnesota,True,,25086.0,883.7,27145,Stearns,"{""27145"": 100}",Stearns,27145,False,False,America/Chicago,"(45.57422, -94.21117)",48.255292548528615,419943.0,514_0_no,45.76606181653875,-95.17218670070469,50.0
56307,45.62666,-94.58769,Albany,MN,Minnesota,True,,5428.0,19.8,27145,Stearns,"{""27145"": 99.31, ""27097"": 0.69}",Stearns|Morrison,27145|27097,False,False,America/Chicago,"(45.62666, -94.58769)",29.806280583753193,419943.0,514_0_no,45.76606181653875,-95.17218670070469,50.0
56308,45.87047,-95.38985,Alexandria,MN,Minnesota,True,,25281.0,62.6,27041,Douglas,"{""27041"": 96.14, ""27121"": 3.86}",Douglas|Pope,27041|27121,False,False,America/Chicago,"(45.87047, -95.38985)",12.723916560650189,419943.0,514_0_no,45.76606181653875,-95.17218670070469,50.0
56309,46.08035,-95.80202,Ashby,MN,Minnesota,True,,1430.0,9.6,27051,Grant,"{""27051"": 59.94, ""27111"": 34.84, ""27041"": 5.22}",Grant|Otter Tail|Douglas,27051|27111|27041,False,False,America/Chicago,"(46.08035, -95.80202)",37.25463608270215,419943.0,514_0_no,45.76606181653875,-95.17218670070469,50.0
56310,45.63399,-94.44352,Avon,MN,Minnesota,True,,5754.0,31.0,27145,Stearns,"{""27145"": 100}",Stearns,27145,False,False,America/Chicago,"(45.63399, -94.44352)",36.32709923424074,419943.0,514_0_no,45.76606181653875,-95.17218670070469,50.0
56311,45.89756,-95.89852,Barrett,MN,Minnesota,True,,724.0,3.9,27051,Grant,"{""27051"": 100}",Grant,27051,False,False,America/Chicago,"(45.89756, -95.89852)",36.12810327689987,419943.0,514_0_no,45.76606181653875,-95.17218670070469,50.0
56312,45.46285,-94.95323,Belgrade,MN,Minnesota,True,,2670.0,6.0,27145,Stearns,"{""27145"": 74.47, ""27067"": 25.53}",Stearns|Kandiyohi,27145|27067,False,False,America/Chicago,"(45.46285, -94.95323)",23.470829912526536,419943.0,514_0_no,45.76606181653875,-95.17218670070469,50.0
56314,45.81139,-94.43189,Bowlus,MN,Minnesota,True,,1238.0,11.3,27097,Morrison,"{""27097"": 90.31, ""27145"": 9.69}",Morrison|Stearns,27097|27145,False,False,America/Chicago,"(45.81139, -94.43189)",35.80406065500773,419943.0,514_0_no,45.76606181653875,-95.17218670070469,50.0
56315,45.97996,-95.59211,Brandon,MN,Minnesota,True,,1810.0,10.1,27041,Douglas,"{""27041"": 96.83, ""27111"": 3.17}",Douglas|Otter Tail,27041|27111,False,False,America/Chicago,"(45.97996, -95.59211)",25.02986842106089,419943.0,514_0_no,45.76606181653875,-95.17218670070469,50.0
56316,45.49959,-95.14992,Brooten,MN,Minnesota,True,,1505.0,4.3,27121,Pope,"{""27121"": 52.3, ""27145"": 36.27, ""27067"": 11.43}",Pope|Stearns|Kandiyohi,27121|27145|27067,False,False,America/Chicago,"(45.49959, -95.14992)",18.442851314382114,419943.0,514_0_no,45.76606181653875,-95.17218670070469,50.0
56318,45.85332,-94.67085,Burtrum,MN,Minnesota,True,,967.0,9.3,27153,Todd,"{""27153"": 68.14, ""27097"": 31.86}",Todd|Morrison,27153|27097,False,False,America/Chicago,"(45.85332, -94.67085)",24.88623237537272,419943.0,514_0_no,45.76606181653875,-95.17218670070469,50.0
56319,46.00488,-95.22322,Carlos,MN,Minnesota,True,,1246.0,11.9,27041,Douglas,"{""27041"": 80.76, ""27153"": 19.24}",Douglas|Todd,27041|27153,False,False,America/Chicago,"(46.00488, -95.22322)",16.68231561882872,419943.0,514_0_no,45.76606181653875,-95.17218670070469,50.0
56320,45.4629,-94.4171,Cold Spring,MN,Minnesota,True,,8625.0,65.2,27145,Stearns,"{""27145"": 100}",Stearns,27145,False,False,America/Chicago,"(45.4629, -94.4171)",42.07704169411639,419943.0,514_0_no,45.76606181653875,-95.17218670070469,50.0
56321,45.57969,-94.39288,Collegeville,MN,Minnesota,True,,1464.0,892.0,27145,Stearns,"{""27145"": 100}",Stearns,27145,False,False,America/Chicago,"(45.57969, -94.39288)",39.76678082062346,419943.0,514_0_no,45.76606181653875,-95.17218670070469,50.0
56323,45.63321,-95.72586,Cyrus,MN,Minnesota,True,,512.0,4.6,27121,Pope,"{""27121"": 79.94, ""27149"": 20.06}",Pope|Stevens,27121|27149,False,False,America/Chicago,"(45.63321, -95.72586)",28.25091654966536,419943.0,514_0_no,45.76606181653875,-95.17218670070469,50.0
56324,46.16385,-95.90766,Dalton,MN,Minnesota,True,,1090.0,7.2,27111,Otter Tail,"{""27111"": 98.24, ""27051"": 1.76}",Otter Tail|Grant,27111|27051,False,False,America/Chicago,"(46.16385, -95.90766)",44.75533183177202,419943.0,514_0_no,45.76606181653875,-95.17218670070469,50.0
56325,45.56303,-94.94732,Elrosa,MN,Minnesota,True,,200.0,484.0,27145,Stearns,"{""27145"": 100}",Stearns,27145,False,False,America/Chicago,"(45.56303, -94.94732)",17.73937507266222,419943.0,514_0_no,45.76606181653875,-95.17218670070469,50.0
56326,46.02506,-95.68596,Evansville,MN,Minnesota,True,,1740.0,7.1,27041,Douglas,"{""27041"": 89.2, ""27111"": 8.69, ""27051"": 2.11}",Douglas|Otter Tail|Grant,27041|27111|27051,False,False,America/Chicago,"(46.02506, -95.68596)",30.50574273056442,419943.0,514_0_no,45.76606181653875,-95.17218670070469,50.0
56327,45.75893,-95.61336,Farwell,MN,Minnesota,True,,829.0,6.6,27121,Pope,"{""27121"": 53.37, ""27041"": 46.63}",Pope|Douglas,27121|27041,False,False,America/Chicago,"(45.75893, -95.61336)",21.271087414226358,419943.0,514_0_no,45.76606181653875,-95.17218670070469,50.0
56328,45.9519,-94.52147,Flensburg,MN,Minnesota,True,,150.0,27.9,27097,Morrison,"{""27097"": 100}",Morrison,27097,False,False,America/Chicago,"(45.9519, -94.52147)",33.841875401808124,419943.0,514_0_no,45.76606181653875,-95.17218670070469,50.0
56331,45.67926,-94.6742,Freeport,MN,Minnesota,True,,2462.0,13.7,27145,Stearns,"{""27145"": 98.89, ""27097"": 1.11}",Stearns|Morrison,27145|27097,False,False,America/Chicago,"(45.67926, -94.6742)",24.75839216812454,419943.0,514_0_no,45.76606181653875,-95.17218670070469,50.0
56332,45.96993,-95.50554,Garfield,MN,Minnesota,True,,1589.0,11.8,27041,Douglas,"{""27041"": 100}",Douglas,27041,False,False,America/Chicago,"(45.96993, -95.50554)",21.345385178003937,419943.0,514_0_no,45.76606181653875,-95.17218670070469,50.0
56334,45.58402,-95.34765,Glenwood,MN,Minnesota,True,,5590.0,10.5,27121,Pope,"{""27121"": 98.77, ""27041"": 1.23}",Pope|Douglas,27121|27041,False,False,America/Chicago,"(45.58402, -95.34765)",15.164416657361953,419943.0,514_0_no,45.76606181653875,-95.17218670070469,50.0
56335,45.60137,-94.85941,Greenwald,MN,Minnesota,True,,217.0,117.6,27145,Stearns,"{""27145"": 100}",Stearns,27145,False,False,America/Chicago,"(45.60137, -94.85941)",18.905673396148515,419943.0,514_0_no,45.76606181653875,-95.17218670070469,50.0
56336,45.82349,-94.76175,Grey Eagle,MN,Minnesota,True,,1521.0,12.0,27153,Todd,"{""27153"": 97.0, ""27145"": 3.0}",Todd|Stearns,27153|27145,False,False,America/Chicago,"(45.82349, -94.76175)",20.166576887449967,419943.0,514_0_no,45.76606181653875,-95.17218670070469,50.0
56339,45.8258,-95.82129,Hoffman,MN,Minnesota,True,,988.0,6.3,27051,Grant,"{""27051"": 85.72, ""27041"": 14.28}",Grant|Douglas,27051|27041,False,False,America/Chicago,"(45.8258, -95.82129)",31.540424712085493,419943.0,514_0_no,45.76606181653875,-95.17218670070469,50.0
56340,45.75534,-94.44871,Holdingford,MN,Minnesota,True,,2366.0,17.9,27145,Stearns,"{""27145"": 71.58, ""27097"": 28.42}",Stearns|Morrison,27145|27097,False,False,America/Chicago,"(45.75534, -94.44871)",34.8818460860555,419943.0,514_0_no,45.76606181653875,-95.17218670070469,50.0
56343,45.79088,-95.69765,Kensington,MN,Minnesota,True,,953.0,5.3,27041,Douglas,"{""27041"": 67.75, ""27121"": 16.8, ""27149"": 10.17, ""27051"": 5.28}",Douglas|Pope|Stevens|Grant,27041|27121|27149|27051,False,False,America/Chicago,"(45.79088, -95.69765)",25.37904407245743,419943.0,514_0_no,45.76606181653875,-95.17218670070469,50.0
56345,46.00748,-94.38032,Little Falls,MN,Minnesota,True,,14635.0,21.9,27097,Morrison,"{""27097"": 100}",Morrison,27097,False,False,America/Chicago,"(46.00748, -94.38032)",41.576869735829376,419943.0,514_0_no,45.76606181653875,-95.17218670070469,50.0
56347,45.96978,-94.86155,Long Prairie,MN,Minnesota,True,,7519.0,14.9,27153,Todd,"{""27153"": 96.65, ""27097"": 3.35}",Todd|Morrison,27153|27097,False,False,America/Chicago,"(45.96978, -94.86155)",20.5298070280292,419943.0,514_0_no,45.76606181653875,-95.17218670070469,50.0
56349,45.72373,-95.52456,Lowry,MN,Minnesota,True,,764.0,7.1,27121,Pope,"{""27121"": 87.32, ""27041"": 12.68}",Pope|Douglas,27121|27041,False,False,America/Chicago,"(45.72373, -95.52456)",17.240330532870555,419943.0,514_0_no,45.76606181653875,-95.17218670070469,50.0
56352,45.65078,-94.80076,Melrose,MN,Minnesota,True,,6022.0,21.2,27145,Stearns,"{""27145"": 100}",Stearns,27145,False,False,America/Chicago,"(45.65078, -94.80076)",19.61121546917472,419943.0,514_0_no,45.76606181653875,-95.17218670070469,50.0
56354,46.06034,-95.27496,Miltona,MN,Minnesota,True,,1320.0,12.1,27041,Douglas,"{""27041"": 100}",Douglas,27041,False,False,America/Chicago,"(46.06034, -95.27496)",20.92429586323066,419943.0,514_0_no,45.76606181653875,-95.17218670070469,50.0
56355,45.94007,-95.24031,Nelson,MN,Minnesota,True,,551.0,8.3,27041,Douglas,"{""27041"": 100}",Douglas,27041,False,False,America/Chicago,"(45.94007, -95.24031)",12.461768989344677,419943.0,514_0_no,45.76606181653875,-95.17218670070469,50.0
56356,45.63334,-94.73332,New Munich,MN,Minnesota,True,,297.0,69.4,27145,Stearns,"{""27145"": 100}",Stearns,27145,False,False,America/Chicago,"(45.63334, -94.73332)",23.0781120509458,419943.0,514_0_no,45.76606181653875,-95.17218670070469,50.0
56360,45.87482,-95.12686,Osakis,MN,Minnesota,True,,3824.0,11.1,27153,Todd,"{""27153"": 55.04, ""27041"": 44.96}",Todd|Douglas,27153|27041,False,False,America/Chicago,"(45.87482, -95.12686)",7.825018301116179,419943.0,514_0_no,45.76606181653875,-95.17218670070469,50.0
56361,46.16146,-95.3351,Parkers Prairie,MN,Minnesota,True,,2547.0,6.2,27111,Otter Tail,"{""27111"": 83.55, ""27041"": 16.45}",Otter Tail|Douglas,27111|27041,False,False,America/Chicago,"(46.16146, -95.3351)",28.417773308082758,419943.0,514_0_no,45.76606181653875,-95.17218670070469,50.0
56362,45.40524,-94.71525,Paynesville,MN,Minnesota,True,,5657.0,14.6,27145,Stearns,"{""27145"": 76.83, ""27093"": 13.57, ""27067"": 9.6}",Stearns|Meeker|Kandiyohi,27145|27093|27067,False,False,America/Chicago,"(45.40524, -94.71525)",33.31222019807325,419943.0,514_0_no,45.76606181653875,-95.17218670070469,50.0
56367,45.76107,-94.17026,Rice,MN,Minnesota,True,,6910.0,26.2,27009,Benton,"{""27009"": 82.48, ""27145"": 17.52}",Benton|Stearns,27009|27145,False,False,America/Chicago,"(45.76107, -94.17026)",48.29479368021761,419943.0,514_0_no,45.76606181653875,-95.17218670070469,50.0
56368,45.45158,-94.5392,Richmond,MN,Minnesota,True,,4371.0,23.9,27145,Stearns,"{""27145"": 100}",Stearns,27145,False,False,America/Chicago,"(45.45158, -94.5392)",37.52571971501641,419943.0,514_0_no,45.76606181653875,-95.17218670070469,50.0
56369,45.46904,-94.3359,Rockville,MN,Minnesota,True,,569.0,387.6,27145,Stearns,"{""27145"": 100}",Stearns,27145,False,False,America/Chicago,"(45.46904, -94.3359)",45.32685855911019,419943.0,514_0_no,45.76606181653875,-95.17218670070469,50.0
56371,45.43333,-94.63707,Roscoe,MN,Minnesota,True,,129.0,103.0,27145,Stearns,"{""27145"": 100}",Stearns,27145,False,False,America/Chicago,"(45.43333, -94.63707)",34.60789602808667,419943.0,514_0_no,45.76606181653875,-95.17218670070469,50.0
56373,45.85456,-94.23789,Royalton,MN,Minnesota,True,,3155.0,12.2,27097,Morrison,"{""27097"": 90.35, ""27009"": 9.65}",Morrison|Benton,27097|27009,False,False,America/Chicago,"(45.85456, -94.23789)",45.409587816861404,419943.0,514_0_no,45.76606181653875,-95.17218670070469,50.0
56374,45.60381,-94.33816,Saint Joseph,MN,Minnesota,True,,11050.0,64.2,27145,Stearns,"{""27145"": 100}",Stearns,27145,False,False,America/Chicago,"(45.60381, -94.33816)",41.78908126607942,419943.0,514_0_no,45.76606181653875,-95.17218670070469,50.0
56375,45.70122,-94.27458,Saint Stephen,MN,Minnesota,True,,851.0,87.1,27145,Stearns,"{""27145"": 100}",Stearns,27145,False,False,America/Chicago,"(45.70122, -94.27458)",43.5197324345739,419943.0,514_0_no,45.76606181653875,-95.17218670070469,50.0
56376,45.50241,-94.66731,Saint Martin,MN,Minnesota,True,,353.0,176.9,27145,Stearns,"{""27145"": 100}",Stearns,27145,False,False,America/Chicago,"(45.50241, -94.66731)",30.443458050865388,419943.0,514_0_no,45.76606181653875,-95.17218670070469,50.0
56377,45.6405,-94.23033,Sartell,MN,Minnesota,True,,20013.0,345.5,27145,Stearns,"{""27145"": 96.51, ""27009"": 3.49}",Stearns|Benton,27145|27009,False,False,America/Chicago,"(45.6405, -94.23033)",46.26780740626728,419943.0,514_0_no,45.76606181653875,-95.17218670070469,50.0
56378,45.72308,-94.97982,Sauk Centre,MN,Minnesota,True,,8132.0,15.5,27145,Stearns,"{""27145"": 71.23, ""27153"": 28.77}",Stearns|Todd,27145|27153,False,False,America/Chicago,"(45.72308, -94.97982)",9.73924743139238,419943.0,514_0_no,45.76606181653875,-95.17218670070469,50.0
56381,45.55523,-95.54669,Starbuck,MN,Minnesota,True,,2470.0,6.6,27121,Pope,"{""27121"": 100}",Pope,27121,False,False,America/Chicago,"(45.55523, -95.54669)",23.221858948494,419943.0,514_0_no,45.76606181653875,-95.17218670070469,50.0
56382,45.9146,-94.611,Swanville,MN,Minnesota,True,,1393.0,8.0,27097,Morrison,"{""27097"": 76.2, ""27153"": 23.8}",Morrison|Todd,27097|27153,False,False,America/Chicago,"(45.9146, -94.611)",28.896383032434414,419943.0,514_0_no,45.76606181653875,-95.17218670070469,50.0
56384,45.8099,-94.56759,Upsala,MN,Minnesota,True,,379.0,145.1,27097,Morrison,"{""27097"": 100}",Morrison,27097,False,False,America/Chicago,"(45.8099, -94.56759)",29.286396286168525,419943.0,514_0_no,45.76606181653875,-95.17218670070469,50.0
56385,45.70349,-95.20681,Villard,MN,Minnesota,True,,867.0,4.5,27121,Pope,"{""27121"": 83.53, ""27145"": 13.84, ""27041"": 2.63}",Pope|Stearns|Douglas,27121|27145|27041,False,False,America/Chicago,"(45.70349, -95.20681)",4.634539496850898,419943.0,514_0_no,45.76606181653875,-95.17218670070469,50.0
56387,45.53215,-94.24141,Waite Park,MN,Minnesota,True,,7317.0,315.8,27145,Stearns,"{""27145"": 100}",Stearns,27145,False,False,America/Chicago,"(45.53215, -94.24141)",47.772798789665956,419943.0,514_0_no,45.76606181653875,-95.17218670070469,50.0
56389,45.79961,-95.08832,West Union,MN,Minnesota,True,,81.0,45.2,27153,Todd,"{""27153"": 100}",Todd,27153,False,False,America/Chicago,"(45.79961, -95.08832)",4.658660728267365,419943.0,514_0_no,45.76606181653875,-95.17218670070469,50.0
56425,46.34162,-94.28308,Baxter,MN,Minnesota,True,,8393.0,177.5,27035,Crow Wing,"{""27035"": 100}",Crow Wing,27035,False,False,America/Chicago,"(46.34162, -94.28308)",58.29980135079739,419943.0,514_0_no,45.76606181653875,-95.17218670070469,50.0
56434,46.33797,-94.93437,Aldrich,MN,Minnesota,True,,291.0,7.6,27153,Todd,"{""27153"": 83.73, ""27159"": 16.27}",Todd|Wadena,27153|27159,False,False,America/Chicago,"(46.33797, -94.93437)",41.127602807603175,419943.0,514_0_no,45.76606181653875,-95.17218670070469,50.0
56437,46.25049,-95.05654,Bertha,MN,Minnesota,True,,1451.0,8.5,27153,Todd,"{""27153"": 88.49, ""27111"": 11.51}",Todd|Otter Tail,27153|27111,False,False,America/Chicago,"(46.25049, -95.05654)",33.92777270423614,419943.0,514_0_no,45.76606181653875,-95.17218670070469,50.0
56438,46.13873,-94.80874,Browerville,MN,Minnesota,True,,2668.0,7.3,27153,Todd,"{""27153"": 100}",Todd,27153,False,False,America/Chicago,"(46.13873, -94.80874)",31.109840903221208,419943.0,514_0_no,45.76606181653875,-95.17218670070469,50.0
56440,46.14658,-94.9573,Clarissa,MN,Minnesota,True,,1368.0,9.5,27153,Todd,"{""27153"": 100}",Todd,27153,False,False,America/Chicago,"(46.14658, -94.9573)",28.244870239477315,419943.0,514_0_no,45.76606181653875,-95.17218670070469,50.0
56443,46.1916,-94.57565,Cushing,MN,Minnesota,True,,1334.0,4.0,27097,Morrison,"{""27097"": 69.31, ""27153"": 30.69}",Morrison|Todd,27097|27153,False,False,America/Chicago,"(46.1916, -94.57565)",41.04686647329622,419943.0,514_0_no,45.76606181653875,-95.17218670070469,50.0
56446,46.12448,-95.08966,Eagle Bend,MN,Minnesota,True,,1818.0,7.3,27153,Todd,"{""27153"": 82.86, ""27111"": 12.5, ""27041"": 4.64}",Todd|Otter Tail|Douglas,27153|27111|27041,False,False,America/Chicago,"(46.12448, -95.08966)",25.07972472427765,419943.0,514_0_no,45.76606181653875,-95.17218670070469,50.0
56449,46.17436,-94.27214,Fort Ripley,MN,Minnesota,True,,1817.0,7.8,27035,Crow Wing,"{""27035"": 66.83, ""27097"": 33.17}",Crow Wing|Morrison,27035|27097,False,False,America/Chicago,"(46.17436, -94.27214)",51.61345322828416,419943.0,514_0_no,45.76606181653875,-95.17218670070469,50.0
56453,46.31374,-95.16161,Hewitt,MN,Minnesota,True,,809.0,5.9,27111,Otter Tail,"{""27111"": 59.12, ""27153"": 40.88}",Otter Tail|Todd,27111|27153,False,False,America/Chicago,"(46.31374, -95.16161)",37.84435808173571,419943.0,514_0_no,45.76606181653875,-95.17218670070469,50.0
56466,46.41522,-94.63137,Motley,MN,Minnesota,True,,2744.0,5.5,27021,Cass,"{""27021"": 69.91, ""27097"": 19.43, ""27153"": 10.66}",Cass|Morrison|Todd,27021|27097|27153,False,False,America/Chicago,"(46.41522, -94.63137)",51.800467316042436,419943.0,514_0_no,45.76606181653875,-95.17218670070469,50.0
56473,46.35649,-94.48355,Pillager,MN,Minnesota,True,,3176.0,13.6,27021,Cass,"{""27021"": 80.53, ""27097"": 19.47}",Cass|Morrison,27021|27097,False,False,America/Chicago,"(46.35649, -94.48355)",52.48025448570893,419943.0,514_0_no,45.76606181653875,-95.17218670070469,50.0
56475,46.08361,-94.53985,Randall,MN,Minnesota,True,,1590.0,9.8,27097,Morrison,"{""27097"": 100}",Morrison,27097,False,False,America/Chicago,"(46.08361, -94.53985)",37.48313720295721,419943.0,514_0_no,45.76606181653875,-95.17218670070469,50.0
56479,46.43719,-94.78939,Staples,MN,Minnesota,True,,4983.0,9.7,27153,Todd,"{""27153"": 36.22, ""27159"": 32.16, ""27021"": 31.62}",Todd|Wadena|Cass,27153|27159|27021,False,False,America/Chicago,"(46.43719, -94.78939)",49.86512988684391,419943.0,514_0_no,45.76606181653875,-95.17218670070469,50.0
56481,46.46706,-94.93446,Verndale,MN,Minnesota,True,,2210.0,6.0,27159,Wadena,"{""27159"": 74.19, ""27153"": 18.18, ""27021"": 7.63}",Wadena|Todd|Cass,27159|27153|27021,False,False,America/Chicago,"(46.46706, -94.93446)",49.754599471363576,419943.0,514_0_no,45.76606181653875,-95.17218670070469,50.0
56482,46.46555,-95.14307,Wadena,MN,Minnesota,True,,7075.0,20.1,27159,Wadena,"{""27159"": 54.41, ""27111"": 44.49, ""27153"": 1.1}",Wadena|Otter Tail|Todd,27159|27111|27153,False,False,America/Chicago,"(46.46555, -95.14307)",48.35014505351133,419943.0,514_0_no,45.76606181653875,-95.17218670070469,50.0
56515,46.29444,-95.708,Battle Lake,MN,Minnesota,True,,2840.0,11.4,27111,Otter Tail,"{""27111"": 100}",Otter Tail,27111,False,False,America/Chicago,"(46.29444, -95.708)",44.6476920490805,419943.0,514_0_no,45.76606181653875,-95.17218670070469,50.0
56518,46.48926,-95.24506,Bluffton,MN,Minnesota,True,,379.0,7.9,27111,Otter Tail,"{""27111"": 100}",Otter Tail,27111,False,False,America/Chicago,"(46.48926, -95.24506)",50.089928547145256,419943.0,514_0_no,45.76606181653875,-95.17218670070469,50.0
56524,46.21115,-95.606,Clitherall,MN,Minnesota,True,,656.0,5.7,27111,Otter Tail,"{""27111"": 100}",Otter Tail,27111,False,False,America/Chicago,"(46.21115, -95.606)",37.14063992755984,419943.0,514_0_no,45.76606181653875,-95.17218670070469,50.0
56527,46.37383,-95.31806,Deer Creek,MN,Minnesota,True,,924.0,6.5,27111,Otter Tail,"{""27111"": 100}",Otter Tail,27111,False,False,America/Chicago,"(46.37383, -95.31806)",42.57096640350744,419943.0,514_0_no,45.76606181653875,-95.17218670070469,50.0
56531,45.98967,-95.98376,Elbow Lake,MN,Minnesota,True,,1910.0,4.9,27051,Grant,"{""27051"": 100}",Grant,27051,False,False,America/Chicago,"(45.98967, -95.98376)",41.98423027559106,419943.0,514_0_no,45.76606181653875,-95.17218670070469,50.0
56533,46.40393,-96.15144,Elizabeth,MN,Minnesota,True,,288.0,8.0,27111,Otter Tail,"{""27111"": 100}",Otter Tail,27111,False,False,America/Chicago,"(46.40393, -96.15144)",64.37799510591657,419943.0,514_0_no,45.76606181653875,-95.17218670070469,50.0
56534,46.46325,-96.01431,Erhard,MN,Minnesota,True,,1339.0,8.0,27111,Otter Tail,"{""27111"": 100}",Otter Tail,27111,False,False,America/Chicago,"(46.46325, -96.01431)",62.82727775464801,419943.0,514_0_no,45.76606181653875,-95.17218670070469,50.0
56537,46.27697,-96.08977,Fergus Falls,MN,Minnesota,True,,18914.0,25.8,27111,Otter Tail,"{""27111"": 100}",Otter Tail,27111,False,False,America/Chicago,"(46.27697, -96.08977)",56.42791993149396,419943.0,514_0_no,45.76606181653875,-95.17218670070469,50.0
56551,46.31856,-95.45081,Henning,MN,Minnesota,True,,2101.0,7.7,27111,Otter Tail,"{""27111"": 100}",Otter Tail,27111,False,False,America/Chicago,"(46.31856, -95.45081)",40.44512510736008,419943.0,514_0_no,45.76606181653875,-95.17218670070469,50.0
56571,46.43856,-95.53939,Ottertail,MN,Minnesota,True,,1748.0,14.6,27111,Otter Tail,"{""27111"": 100}",Otter Tail,27111,False,False,America/Chicago,"(46.43856, -95.53939)",49.6837011978116,419943.0,514_0_no,45.76606181653875,-95.17218670070469,50.0
56576,46.47164,-95.70537,Richville,MN,Minnesota,True,,835.0,8.0,27111,Otter Tail,"{""27111"": 100}",Otter Tail,27111,False,False,America/Chicago,"(46.47164, -95.70537)",55.033459486858945,419943.0,514_0_no,45.76606181653875,-95.17218670070469,50.0
56586,46.32324,-95.84,Underwood,MN,Minnesota,True,,1850.0,9.7,27111,Otter Tail,"{""27111"": 100}",Otter Tail,27111,False,False,America/Chicago,"(46.32324, -95.84)",50.07709396053515,419943.0,514_0_no,45.76606181653875,-95.17218670070469,50.0
56588,46.22028,-95.5006,Vining,MN,Minnesota,True,,427.0,3.5,27111,Otter Tail,"{""27111"": 100}",Otter Tail,27111,False,False,America/Chicago,"(46.22028, -95.5006)",35.12035427099857,419943.0,514_0_no,45.76606181653875,-95.17218670070469,50.0
56590,46.03514,-96.16093,Wendell,MN,Minnesota,True,,296.0,1.4,27051,Grant,"{""27051"": 99.4, ""27111"": 0.6}",Grant|Otter Tail,27051|27111,False,False,America/Chicago,"(46.03514, -96.16093)",51.04671076918709,419943.0,514_0_no,45.76606181653875,-95.17218670070469,50.0
