zip,lat,lng,city,state_id,state_name,zcta,parent_zcta,population,density,county_fips,county_name,county_weights,county_names_all,county_fips_all,imprecise,military,timezone,Coord,distance_miles,market_total_population,market_id,market_center_lat,market_center_lng,radius_miles
97029,45.29901,-120.81003,Grass Valley,OR,Oregon,True,,313.0,0.4,41055,Sherman,"{""41055"": 100}",Sherman,41055,False,False,America/Los_Angeles,"(45.29901, -120.81003)",60.401142531309254,495243.0,526_0_no,45.99172998634175,-120.04723740692997,50.0
97039,45.47226,-120.62428,Moro,OR,Oregon,True,,494.0,1.7,41055,Sherman,"{""41055"": 100}",Sherman,41055,False,False,America/Los_Angeles,"(45.47226, -120.62428)",45.41699409626641,495243.0,526_0_no,45.99172998634175,-120.04723740692997,50.0
97050,45.68256,-120.7727,Rufus,OR,Oregon,True,,211.0,9.9,41055,Sherman,"{""41055"": 100}",Sherman,41055,False,False,America/Los_Angeles,"(45.68256, -120.7727)",40.936969554261324,495243.0,526_0_no,45.99172998634175,-120.04723740692997,50.0
97065,45.59803,-120.65696,Wasco,OR,Oregon,True,,626.0,1.0,41055,Sherman,"{""41055"": 100}",Sherman,41055,False,False,America/Los_Angeles,"(45.59803, -120.65696)",40.033645651677304,495243.0,526_0_no,45.99172998634175,-120.04723740692997,50.0
97812,45.58138,-120.21907,Arlington,OR,Oregon,True,,832.0,0.7,41021,Gilliam,"{""41021"": 100}",Gilliam,41021,False,False,America/Los_Angeles,"(45.58138, -120.21907)",29.53650991025313,495243.0,526_0_no,45.99172998634175,-120.04723740692997,50.0
97818,45.7567,-119.78444,Boardman,OR,Oregon,True,,4352.0,7.9,41049,Morrow,"{""41049"": 100}",Morrow,41049,False,False,America/Los_Angeles,"(45.7567, -119.78444)",20.579694840931044,495243.0,526_0_no,45.99172998634175,-120.04723740692997,50.0
97826,45.65508,-119.22586,Echo,OR,Oregon,True,,1274.0,1.5,41059,Umatilla,"{""41059"": 86.25, ""41049"": 13.75}",Umatilla|Morrow,41059|41049,False,False,America/Los_Angeles,"(45.65508, -119.22586)",45.88149042343277,495243.0,526_0_no,45.99172998634175,-120.04723740692997,50.0
97836,45.29166,-119.50144,Heppner,OR,Oregon,True,,2148.0,0.9,41049,Morrow,"{""41049"": 100}",Morrow,41049,False,False,America/Los_Angeles,"(45.29166, -119.50144)",55.08878920540081,495243.0,526_0_no,45.99172998634175,-120.04723740692997,50.0
97838,45.85266,-119.28878,Hermiston,OR,Oregon,True,,26071.0,49.7,41059,Umatilla,"{""41059"": 75.52, ""41049"": 24.48}",Umatilla|Morrow,41059|41049,False,False,America/Los_Angeles,"(45.85266, -119.28878)",37.699261354250815,495243.0,526_0_no,45.99172998634175,-120.04723740692997,50.0
97839,45.58272,-119.60005,Lexington,OR,Oregon,True,,291.0,0.6,41049,Morrow,"{""41049"": 100}",Morrow,41049,False,False,America/Los_Angeles,"(45.58272, -119.60005)",35.53633907818832,495243.0,526_0_no,45.99172998634175,-120.04723740692997,50.0
97843,45.50479,-119.88066,Ione,OR,Oregon,True,,747.0,0.8,41049,Morrow,"{""41049"": 94.71, ""41021"": 5.29}",Morrow|Gilliam,41049|41021,False,False,America/Los_Angeles,"(45.50479, -119.88066)",34.58965105199566,495243.0,526_0_no,45.99172998634175,-120.04723740692997,50.0
97844,45.87867,-119.54676,Irrigon,OR,Oregon,True,,3803.0,44.5,41049,Morrow,"{""41049"": 100}",Morrow,41049,False,False,America/Los_Angeles,"(45.87867, -119.54676)",25.286035885442345,495243.0,526_0_no,45.99172998634175,-120.04723740692997,50.0
97875,45.81481,-119.14898,Stanfield,OR,Oregon,True,,2885.0,19.1,41059,Umatilla,"{""41059"": 100}",Umatilla,41059,False,False,America/Los_Angeles,"(45.81481, -119.14898)",44.884686071467435,495243.0,526_0_no,45.99172998634175,-120.04723740692997,50.0
97882,45.90741,-119.34944,Umatilla,OR,Oregon,True,,7958.0,163.1,41059,Umatilla,"{""41059"": 100}",Umatilla,41059,False,False,America/Los_Angeles,"(45.90741, -119.34944)",34.02459529842585,495243.0,526_0_no,45.99172998634175,-120.04723740692997,50.0
98613,45.7542,-120.97235,Centerville,WA,Washington,True,,407.0,1.7,53039,Klickitat,"{""53039"": 100}",Klickitat,53039,False,False,America/Los_Angeles,"(45.7542, -120.97235)",47.43314598191985,495243.0,526_0_no,45.99172998634175,-120.04723740692997,50.0
98620,45.87096,-120.77846,Goldendale,WA,Washington,True,,7670.0,6.3,53039,Klickitat,"{""53039"": 100}",Klickitat,53039,False,False,America/Los_Angeles,"(45.87096, -120.77846)",36.11653836409461,495243.0,526_0_no,45.99172998634175,-120.04723740692997,50.0
98673,45.67367,-120.98129,Wishram,WA,Washington,True,,544.0,12.4,53039,Klickitat,"{""53039"": 100}",Klickitat,53039,False,False,America/Los_Angeles,"(45.67367, -120.98129)",50.04872801992091,495243.0,526_0_no,45.99172998634175,-120.04723740692997,50.0
98901,46.66935,-120.33816,Yakima,WA,Washington,True,,31425.0,65.8,53077,Yakima,"{""53077"": 91.24, ""53037"": 8.76}",Yakima|Kittitas,53077|53037,False,False,America/Los_Angeles,"(46.66935, -120.33816)",48.8329713651734,495243.0,526_0_no,45.99172998634175,-120.04723740692997,50.0
98902,46.59778,-120.53393,Yakima,WA,Washington,True,,46728.0,1938.7,53077,Yakima,"{""53077"": 100}",Yakima,53077,False,False,America/Los_Angeles,"(46.59778, -120.53393)",47.888054565087714,495243.0,526_0_no,45.99172998634175,-120.04723740692997,50.0
98903,46.54807,-120.90226,Yakima,WA,Washington,True,,15404.0,30.9,53077,Yakima,"{""53077"": 100}",Yakima,53077,False,False,America/Los_Angeles,"(46.54807, -120.90226)",56.08210964960832,495243.0,526_0_no,45.99172998634175,-120.04723740692997,50.0
98908,46.62345,-120.70582,Yakima,WA,Washington,True,,37004.0,135.2,53077,Yakima,"{""53077"": 100}",Yakima,53077,False,False,America/Los_Angeles,"(46.62345, -120.70582)",53.78781537994082,495243.0,526_0_no,45.99172998634175,-120.04723740692997,50.0
98921,46.43082,-120.31719,Buena,WA,Washington,True,,158.0,345.9,53077,Yakima,"{""53077"": 100}",Yakima,53077,False,False,America/Los_Angeles,"(46.43082, -120.31719)",32.9696767554497,495243.0,526_0_no,45.99172998634175,-120.04723740692997,50.0
98923,46.66608,-120.71723,Cowiche,WA,Washington,True,,1017.0,67.0,53077,Yakima,"{""53077"": 100}",Yakima,53077,False,False,America/Los_Angeles,"(46.66608, -120.71723)",56.50360699139336,495243.0,526_0_no,45.99172998634175,-120.04723740692997,50.0
98930,46.26903,-119.8953,Grandview,WA,Washington,True,,15263.0,131.4,53077,Yakima,"{""53077"": 62.38, ""53005"": 37.62}",Yakima|Benton,53077|53005,False,False,America/Los_Angeles,"(46.26903, -119.8953)",20.494366925470516,495243.0,526_0_no,45.99172998634175,-120.04723740692997,50.0
98932,46.33217,-120.16091,Granger,WA,Washington,True,,5442.0,61.6,53077,Yakima,"{""53077"": 100}",Yakima,53077,False,False,America/Los_Angeles,"(46.33217, -120.16091)",24.142992587902402,495243.0,526_0_no,45.99172998634175,-120.04723740692997,50.0
98933,46.4029,-120.63756,Harrah,WA,Washington,True,,1018.0,14.1,53077,Yakima,"{""53077"": 100}",Yakima,53077,False,False,America/Los_Angeles,"(46.4029, -120.63756)",40.05137721750907,495243.0,526_0_no,45.99172998634175,-120.04723740692997,50.0
98935,46.13417,-120.06877,Mabton,WA,Washington,True,,4398.0,6.8,53077,Yakima,"{""53077"": 100}",Yakima,53077,False,False,America/Los_Angeles,"(46.13417, -120.06877)",9.895659615645208,495243.0,526_0_no,45.99172998634175,-120.04723740692997,50.0
98936,46.53597,-120.15391,Moxee,WA,Washington,True,,6981.0,19.4,53077,Yakima,"{""53077"": 100}",Yakima,53077,False,False,America/Los_Angeles,"(46.53597, -120.15391)",37.947047766309026,495243.0,526_0_no,45.99172998634175,-120.04723740692997,50.0
98938,46.38842,-120.09662,Outlook,WA,Washington,True,,2178.0,22.6,53077,Yakima,"{""53077"": 100}",Yakima,53077,False,False,America/Los_Angeles,"(46.38842, -120.09662)",27.51025686471693,495243.0,526_0_no,45.99172998634175,-120.04723740692997,50.0
98939,46.50105,-120.47077,Parker,WA,Washington,True,,67.0,42.1,53077,Yakima,"{""53077"": 100}",Yakima,53077,False,False,America/Los_Angeles,"(46.50105, -120.47077)",40.5945598329689,495243.0,526_0_no,45.99172998634175,-120.04723740692997,50.0
98944,46.49998,-119.66533,Sunnyside,WA,Washington,True,,24949.0,17.7,53005,Benton,"{""53005"": 73.36, ""53077"": 26.64}",Benton|Yakima,53005|53077,False,False,America/Los_Angeles,"(46.49998, -119.66533)",39.57504016821826,495243.0,526_0_no,45.99172998634175,-120.04723740692997,50.0
98947,46.68759,-120.80916,Tieton,WA,Washington,True,,3266.0,27.5,53077,Yakima,"{""53077"": 100}",Yakima,53077,False,False,America/Los_Angeles,"(46.68759, -120.80916)",60.26985425643372,495243.0,526_0_no,45.99172998634175,-120.04723740692997,50.0
98948,46.23067,-120.37168,Toppenish,WA,Washington,True,,12601.0,14.5,53077,Yakima,"{""53077"": 100}",Yakima,53077,False,False,America/Los_Angeles,"(46.23067, -120.37168)",22.67301127654179,495243.0,526_0_no,45.99172998634175,-120.04723740692997,50.0
98951,46.46046,-120.51551,Wapato,WA,Washington,True,,13473.0,34.9,53077,Yakima,"{""53077"": 100}",Yakima,53077,False,False,America/Los_Angeles,"(46.46046, -120.51551)",39.36831353145715,495243.0,526_0_no,45.99172998634175,-120.04723740692997,50.0
98952,46.34991,-120.81561,White Swan,WA,Washington,True,,2125.0,2.1,53077,Yakima,"{""53077"": 100}",Yakima,53077,False,False,America/Los_Angeles,"(46.34991, -120.81561)",44.31812700085849,495243.0,526_0_no,45.99172998634175,-120.04723740692997,50.0
98953,46.44149,-120.23284,Zillah,WA,Washington,True,,6461.0,41.2,53077,Yakima,"{""53077"": 100}",Yakima,53077,False,False,America/Los_Angeles,"(46.44149, -120.23284)",32.317453275630015,495243.0,526_0_no,45.99172998634175,-120.04723740692997,50.0
99320,46.32706,-119.52483,Benton City,WA,Washington,True,,9696.0,17.9,53005,Benton,"{""53005"": 100}",Benton,53005,False,False,America/Los_Angeles,"(46.32706, -119.52483)",34.08610357545743,495243.0,526_0_no,45.99172998634175,-120.04723740692997,50.0
99322,45.93176,-120.14083,Bickleton,WA,Washington,True,,448.0,0.7,53039,Klickitat,"{""53039"": 100}",Klickitat,53039,False,False,America/Los_Angeles,"(45.93176, -120.14083)",6.113567759647626,495243.0,526_0_no,45.99172998634175,-120.04723740692997,50.0
99330,46.49447,-119.03021,Eltopia,WA,Washington,True,,1157.0,5.1,53021,Franklin,"{""53021"": 100}",Franklin,53021,False,False,America/Los_Angeles,"(46.49447, -119.03021)",59.735456965582884,495243.0,526_0_no,45.99172998634175,-120.04723740692997,50.0
99336,46.21302,-119.17954,Kennewick,WA,Washington,True,,52259.0,1506.3,53005,Benton,"{""53005"": 100}",Benton,53005,False,False,America/Los_Angeles,"(46.21302, -119.17954)",44.291571498359616,495243.0,526_0_no,45.99172998634175,-120.04723740692997,50.0
99337,46.06235,-119.09127,Kennewick,WA,Washington,True,,32080.0,74.6,53005,Benton,"{""53005"": 100}",Benton,53005,False,False,America/Los_Angeles,"(46.06235, -119.09127)",46.11904783446389,495243.0,526_0_no,45.99172998634175,-120.04723740692997,50.0
99338,46.17362,-119.27403,Kennewick,WA,Washington,True,,18473.0,201.2,53005,Benton,"{""53005"": 100}",Benton,53005,False,False,America/Los_Angeles,"(46.17362, -119.27403)",39.12854394598995,495243.0,526_0_no,45.99172998634175,-120.04723740692997,50.0
99343,46.59188,-119.17065,Mesa,WA,Washington,True,,3037.0,6.5,53021,Franklin,"{""53021"": 100}",Franklin,53021,False,False,America/Los_Angeles,"(46.59188, -119.17065)",58.91387550341163,495243.0,526_0_no,45.99172998634175,-120.04723740692997,50.0
99345,45.93623,-119.65919,Paterson,WA,Washington,True,,180.0,0.5,53005,Benton,"{""53005"": 100}",Benton,53005,False,False,America/Los_Angeles,"(45.93623, -119.65919)",19.027365247852412,495243.0,526_0_no,45.99172998634175,-120.04723740692997,50.0
99346,46.02685,-119.306,Plymouth,WA,Washington,True,,443.0,1.2,53005,Benton,"{""53005"": 100}",Benton,53005,False,False,America/Los_Angeles,"(46.02685, -119.306)",35.65323637367578,495243.0,526_0_no,45.99172998634175,-120.04723740692997,50.0
99350,46.14477,-119.70944,Prosser,WA,Washington,True,,14208.0,9.1,53005,Benton,"{""53005"": 86.55, ""53039"": 12.61, ""53077"": 0.84}",Benton|Klickitat|Yakima,53005|53039|53077,False,False,America/Los_Angeles,"(46.14477, -119.70944)",19.33969042764519,495243.0,526_0_no,45.99172998634175,-120.04723740692997,50.0
99352,46.24199,-119.29067,Richland,WA,Washington,True,,32246.0,518.8,53005,Benton,"{""53005"": 100}",Benton,53005,False,False,America/Los_Angeles,"(46.24199, -119.29067)",40.14966646782145,495243.0,526_0_no,45.99172998634175,-120.04723740692997,50.0
99353,46.31747,-119.37942,West Richland,WA,Washington,True,,16376.0,245.0,53005,Benton,"{""53005"": 100}",Benton,53005,False,False,America/Los_Angeles,"(46.31747, -119.37942)",39.09174265987304,495243.0,526_0_no,45.99172998634175,-120.04723740692997,50.0
99354,46.33153,-119.30106,Richland,WA,Washington,True,,23891.0,385.4,53005,Benton,"{""53005"": 100}",Benton,53005,False,False,America/Los_Angeles,"(46.33153, -119.30106)",42.73548822331278,495243.0,526_0_no,45.99172998634175,-120.04723740692997,50.0
99356,45.83459,-120.36258,Roosevelt,WA,Washington,True,,165.0,0.2,53039,Klickitat,"{""53039"": 100}",Klickitat,53039,False,False,America/Los_Angeles,"(45.83459, -120.36258)",18.64609479225993,495243.0,526_0_no,45.99172998634175,-120.04723740692997,50.0
