zip,lat,lng,city,state_id,state_name,zcta,parent_zcta,population,density,county_fips,county_name,county_weights,county_names_all,county_fips_all,imprecise,military,timezone,Coord,distance_miles,market_total_population,market_id,market_center_lat,market_center_lng,radius_miles
58341,47.77117,-99.85599,Harvey,ND,North Dakota,True,,2525.0,2.2,38103,Wells,"{""38103"": 73.74, ""38069"": 20.88, ""38005"": 2.73, ""38083"": 2.65}",Wells|Pierce|Benson|Sheridan,38103|38069|38005|38083,False,False,America/Chicago,"(47.77117, -99.85599)",55.292001464894255,151861.0,545_0_no,47.25936257692551,-100.76686351935506,50.0
58423,47.41899,-99.82951,Chaseley,ND,North Dakota,True,,52.0,0.2,38103,Wells,"{""38103"": 73.55, ""38043"": 26.45}",Wells|Kidder,38103|38043,False,False,America/Chicago,"(47.41899, -99.82951)",45.25271978790823,151861.0,545_0_no,47.25936257692551,-100.76686351935506,50.0
58428,46.81162,-99.75809,Dawson,ND,North Dakota,True,,197.0,0.5,38043,Kidder,"{""38043"": 100}",Kidder,38043,False,False,America/Chicago,"(46.81162, -99.75809)",56.688042158106036,151861.0,545_0_no,47.25936257692551,-100.76686351935506,50.0
58430,47.50831,-100.25954,Denhoff,ND,North Dakota,True,,141.0,0.6,38083,Sheridan,"{""38083"": 100}",Sheridan,38083,False,False,America/Chicago,"(47.50831, -100.25954)",29.31109521868062,151861.0,545_0_no,47.25936257692551,-100.76686351935506,50.0
58444,47.48278,-100.13156,Goodrich,ND,North Dakota,True,,127.0,0.3,38083,Sheridan,"{""38083"": 100}",Sheridan,38083,False,False,America/Chicago,"(47.48278, -100.13156)",33.49677033107201,151861.0,545_0_no,47.25936257692551,-100.76686351935506,50.0
58451,47.45167,-99.95275,Hurdsfield,ND,North Dakota,True,,91.0,0.3,38103,Wells,"{""38103"": 100}",Wells,38103,False,False,America/Chicago,"(47.45167, -99.95275)",40.35619142379133,151861.0,545_0_no,47.25936257692551,-100.76686351935506,50.0
58463,47.49662,-100.46281,Mcclusky,ND,North Dakota,True,,586.0,0.6,38083,Sheridan,"{""38083"": 100}",Sheridan,38083,False,False,America/Chicago,"(47.49662, -100.46281)",21.7048448154905,151861.0,545_0_no,47.25936257692551,-100.76686351935506,50.0
58477,47.2208,-100.52294,Regan,ND,North Dakota,True,,143.0,0.5,38015,Burleigh,"{""38015"": 100}",Burleigh,38015,False,False,America/Chicago,"(47.2208, -100.52294)",11.748431107407505,151861.0,545_0_no,47.25936257692551,-100.76686351935506,50.0
58478,47.16008,-99.74543,Robinson,ND,North Dakota,True,,121.0,0.3,38043,Kidder,"{""38043"": 100}",Kidder,38043,False,False,America/Chicago,"(47.16008, -99.74543)",48.430240745999654,151861.0,545_0_no,47.25936257692551,-100.76686351935506,50.0
58482,46.86669,-99.90465,Steele,ND,North Dakota,True,,1070.0,2.0,38043,Kidder,"{""38043"": 100}",Kidder,38043,False,False,America/Chicago,"(46.86669, -99.90465)",48.814571212191304,151861.0,545_0_no,47.25936257692551,-100.76686351935506,50.0
58488,47.17552,-99.99709,Tuttle,ND,North Dakota,True,,134.0,0.2,38043,Kidder,"{""38043"": 100}",Kidder,38043,False,False,America/Chicago,"(47.17552, -99.99709)",36.586446909481964,151861.0,545_0_no,47.25936257692551,-100.76686351935506,50.0
58494,47.16306,-100.2744,Wing,ND,North Dakota,True,,412.0,0.5,38015,Burleigh,"{""38015"": 100}",Burleigh,38015,False,False,America/Chicago,"(47.16306, -100.2744)",24.052408564954334,151861.0,545_0_no,47.25936257692551,-100.76686351935506,50.0
58501,46.8189,-100.70234,Bismarck,ND,North Dakota,True,,29419.0,498.1,38015,Burleigh,"{""38015"": 100}",Burleigh,38015,False,False,America/Chicago,"(46.8189, -100.70234)",30.584343527605938,151861.0,545_0_no,47.25936257692551,-100.76686351935506,50.0
58503,46.90587,-100.75262,Bismarck,ND,North Dakota,True,,34970.0,99.6,38015,Burleigh,"{""38015"": 100}",Burleigh,38015,False,False,America/Chicago,"(46.90587, -100.75262)",24.43320240324785,151861.0,545_0_no,47.25936257692551,-100.76686351935506,50.0
58504,46.7273,-100.6808,Bismarck,ND,North Dakota,True,,27607.0,103.2,38015,Burleigh,"{""38015"": 100}",Burleigh,38015,False,False,America/Chicago,"(46.7273, -100.6808)",36.98508564114645,151861.0,545_0_no,47.25936257692551,-100.76686351935506,50.0
58520,46.6758,-101.5409,Almont,ND,North Dakota,True,,223.0,0.4,38059,Morton,"{""38059"": 68.85, ""38037"": 31.15}",Morton|Grant,38059|38037,False,False,America/North_Dakota/New_Salem,"(46.6758, -101.5409)",54.384028174245536,151861.0,545_0_no,47.25936257692551,-100.76686351935506,50.0
58521,47.0269,-100.66963,Baldwin,ND,North Dakota,True,,599.0,1.4,38015,Burleigh,"{""38015"": 100}",Burleigh,38015,False,False,America/Chicago,"(47.0269, -100.66963)",16.69899362737626,151861.0,545_0_no,47.25936257692551,-100.76686351935506,50.0
58523,47.26581,-101.78138,Beulah,ND,North Dakota,True,,3607.0,5.6,38057,Mercer,"{""38057"": 72.5, ""38065"": 27.5}",Mercer|Oliver,38057|38065,False,False,America/North_Dakota/Beulah,"(47.26581, -101.78138)",47.571938946759595,151861.0,545_0_no,47.25936257692551,-100.76686351935506,50.0
58524,46.61297,-100.07506,Braddock,ND,North Dakota,True,,68.0,0.2,38029,Emmons,"{""38029"": 56.65, ""38043"": 24.99, ""38015"": 18.36}",Emmons|Kidder|Burleigh,38029|38043|38015,False,False,America/Chicago,"(46.61297, -100.07506)",55.31561356548881,151861.0,545_0_no,47.25936257692551,-100.76686351935506,50.0
58530,47.13357,-101.15257,Center,ND,North Dakota,True,,1153.0,1.3,38065,Oliver,"{""38065"": 99.64, ""38057"": 0.36}",Oliver|Mercer,38065|38057,False,False,America/North_Dakota/Center,"(47.13357, -101.15257)",20.085954394143666,151861.0,545_0_no,47.25936257692551,-100.76686351935506,50.0
58531,47.58387,-101.20289,Coleharbor,ND,North Dakota,True,,416.0,1.4,38055,McLean,"{""38055"": 100}",McLean,38055,False,False,America/Chicago,"(47.58387, -101.20289)",30.301814768003066,151861.0,545_0_no,47.25936257692551,-100.76686351935506,50.0
58532,46.84571,-100.10631,Driscoll,ND,North Dakota,True,,278.0,0.5,38015,Burleigh,"{""38015"": 61.44, ""38043"": 38.56}",Burleigh|Kidder,38015|38043,False,False,America/Chicago,"(46.84571, -100.10631)",42.23474834892938,151861.0,545_0_no,47.25936257692551,-100.76686351935506,50.0
58540,47.62427,-101.72538,Garrison,ND,North Dakota,True,,3065.0,3.3,38055,McLean,"{""38055"": 100}",McLean,38055,False,False,America/Chicago,"(47.62427, -101.72538)",51.3998729794029,151861.0,545_0_no,47.25936257692551,-100.76686351935506,50.0
58545,47.34916,-101.58921,Hazen,ND,North Dakota,True,,3327.0,4.1,38057,Mercer,"{""38057"": 77.69, ""38065"": 22.31}",Mercer|Oliver,38057|38065,False,False,America/North_Dakota/Beulah,"(47.34916, -101.58921)",39.02522847500528,151861.0,545_0_no,47.25936257692551,-100.76686351935506,50.0
58554,46.75148,-100.95036,Mandan,ND,North Dakota,True,,26551.0,17.9,38059,Morton,"{""38059"": 94.46, ""38065"": 5.54}",Morton|Oliver,38059|38065,False,False,America/North_Dakota/New_Salem,"(46.75148, -100.95036)",36.140690766415446,151861.0,545_0_no,47.25936257692551,-100.76686351935506,50.0
58558,46.82106,-100.52127,Menoken,ND,North Dakota,True,,1202.0,3.4,38015,Burleigh,"{""38015"": 100}",Burleigh,38015,False,False,America/Chicago,"(46.82106, -100.52127)",32.41657179051606,151861.0,545_0_no,47.25936257692551,-100.76686351935506,50.0
58559,47.4849,-100.71295,Mercer,ND,North Dakota,True,,208.0,0.5,38055,McLean,"{""38055"": 73.37, ""38083"": 26.63}",McLean|Sheridan,38055|38083,False,False,America/Chicago,"(47.4849, -100.71295)",15.786032195732423,151861.0,545_0_no,47.25936257692551,-100.76686351935506,50.0
58560,46.65182,-100.32407,Moffit,ND,North Dakota,True,,195.0,0.6,38015,Burleigh,"{""38015"": 64.19, ""38029"": 35.81}",Burleigh|Emmons,38015|38029,False,False,America/Chicago,"(46.65182, -100.32407)",46.88436038940653,151861.0,545_0_no,47.25936257692551,-100.76686351935506,50.0
58563,46.90178,-101.43257,New Salem,ND,North Dakota,True,,2261.0,1.5,38059,Morton,"{""38059"": 68.14, ""38065"": 30.17, ""38037"": 1.69}",Morton|Oliver|Grant,38059|38065|38037,False,False,America/North_Dakota/New_Salem,"(46.90178, -101.43257)",39.89301112977282,151861.0,545_0_no,47.25936257692551,-100.76686351935506,50.0
58565,47.49639,-101.37148,Riverdale,ND,North Dakota,True,,192.0,46.2,38055,McLean,"{""38055"": 100}",McLean,38055,False,False,America/Chicago,"(47.49639, -101.37148)",32.68685423977349,151861.0,545_0_no,47.25936257692551,-100.76686351935506,50.0
58566,46.57835,-100.90673,Saint Anthony,ND,North Dakota,True,,144.0,0.5,38059,Morton,"{""38059"": 100}",Morton,38059,False,False,America/North_Dakota/New_Salem,"(46.57835, -100.90673)",47.51418826253048,151861.0,545_0_no,47.25936257692551,-100.76686351935506,50.0
58571,47.29134,-101.41043,Stanton,ND,North Dakota,True,,569.0,1.9,38057,Mercer,"{""38057"": 70.39, ""38065"": 29.61}",Mercer|Oliver,38057|38065,False,False,America/North_Dakota/Beulah,"(47.29134, -101.41043)",30.24995288302111,151861.0,545_0_no,47.25936257692551,-100.76686351935506,50.0
58572,46.86455,-100.34313,Sterling,ND,North Dakota,True,,280.0,0.5,38015,Burleigh,"{""38015"": 100}",Burleigh,38015,False,False,America/Chicago,"(46.86455, -100.34313)",33.79185891059274,151861.0,545_0_no,47.25936257692551,-100.76686351935506,50.0
58575,47.55749,-100.89971,Turtle Lake,ND,North Dakota,True,,796.0,1.3,38055,McLean,"{""38055"": 100}",McLean,38055,False,False,America/Chicago,"(47.55749, -100.89971)",21.51491870501052,151861.0,545_0_no,47.25936257692551,-100.76686351935506,50.0
58576,47.4406,-101.21597,Underwood,ND,North Dakota,True,,999.0,2.3,38055,McLean,"{""38055"": 100}",McLean,38055,False,False,America/Chicago,"(47.4406, -101.21597)",24.470331273964877,151861.0,545_0_no,47.25936257692551,-100.76686351935506,50.0
58577,47.31983,-101.05319,Washburn,ND,North Dakota,True,,1828.0,3.6,38055,McLean,"{""38055"": 100}",McLean,38055,False,False,America/Chicago,"(47.31983, -101.05319)",14.05419385018358,151861.0,545_0_no,47.25936257692551,-100.76686351935506,50.0
58579,47.18059,-100.74422,Wilton,ND,North Dakota,True,,1258.0,2.0,38015,Burleigh,"{""38015"": 69.52, ""38055"": 30.48}",Burleigh|McLean,38015|38055,False,False,America/Chicago,"(47.18059, -100.74422)",5.545424603751406,151861.0,545_0_no,47.25936257692551,-100.76686351935506,50.0
58631,46.7969,-101.82156,Glen Ullin,ND,North Dakota,True,,1027.0,1.1,38059,Morton,"{""38059"": 61.44, ""38037"": 29.75, ""38057"": 8.81}",Morton|Grant|Mercer,38059|38037|38057,False,False,America/North_Dakota/New_Salem,"(46.7969, -101.82156)",59.06177310947801,151861.0,545_0_no,47.25936257692551,-100.76686351935506,50.0
58710,47.86959,-100.23912,Anamoose,ND,North Dakota,True,,730.0,1.5,38049,McHenry,"{""38049"": 40.06, ""38083"": 38.32, ""38069"": 21.63}",McHenry|Sheridan|Pierce,38049|38083|38069,False,False,America/Chicago,"(47.86959, -100.23912)",48.81629371273963,151861.0,545_0_no,47.25936257692551,-100.76686351935506,50.0
58712,47.96799,-100.54559,Balfour,ND,North Dakota,True,,77.0,0.3,38049,McHenry,"{""38049"": 100}",McHenry,38049,False,False,America/Chicago,"(47.96799, -100.54559)",50.03442173494726,151861.0,545_0_no,47.25936257692551,-100.76686351935506,50.0
58716,47.80049,-101.06003,Benedict,ND,North Dakota,True,,146.0,0.7,38055,McLean,"{""38055"": 61.42, ""38101"": 38.58}",McLean|Ward,38055|38101,False,False,America/Chicago,"(47.80049, -101.06003)",39.81128463703695,151861.0,545_0_no,47.25936257692551,-100.76686351935506,50.0
58723,47.75433,-100.60281,Butte,ND,North Dakota,True,,183.0,0.4,38055,McLean,"{""38055"": 54.59, ""38083"": 44.45, ""38049"": 0.96}",McLean|Sheridan|McHenry,38055|38083|38049,False,False,America/Chicago,"(47.75433, -100.60281)",35.04563256396634,151861.0,545_0_no,47.25936257692551,-100.76686351935506,50.0
58735,47.87771,-101.48366,Douglas,ND,North Dakota,True,,549.0,1.1,38101,Ward,"{""38101"": 59.86, ""38055"": 40.14}",Ward|McLean,38101|38055,False,False,America/Chicago,"(47.87771, -101.48366)",54.238891492671996,151861.0,545_0_no,47.25936257692551,-100.76686351935506,50.0
58736,47.92804,-100.38732,Drake,ND,North Dakota,True,,540.0,1.3,38049,McHenry,"{""38049"": 72.85, ""38083"": 27.15}",McHenry|Sheridan,38049|38083,False,False,America/Chicago,"(47.92804, -100.38732)",49.47013529260452,151861.0,545_0_no,47.25936257692551,-100.76686351935506,50.0
58756,47.96746,-101.81431,Makoti,ND,North Dakota,True,,198.0,0.7,38101,Ward,"{""38101"": 75.41, ""38061"": 20.87, ""38055"": 3.72}",Ward|Mountrail|McLean,38101|38061|38055,False,False,America/Chicago,"(47.96746, -101.81431)",69.09214072791366,151861.0,545_0_no,47.25936257692551,-100.76686351935506,50.0
58758,47.76643,-100.10424,Martin,ND,North Dakota,True,,261.0,0.8,38083,Sheridan,"{""38083"": 67.53, ""38103"": 17.32, ""38069"": 15.15}",Sheridan|Wells|Pierce,38083|38103|38069,False,False,America/Chicago,"(47.76643, -100.10424)",46.729476422549006,151861.0,545_0_no,47.25936257692551,-100.76686351935506,50.0
58759,47.84776,-101.25026,Max,ND,North Dakota,True,,794.0,1.3,38055,McLean,"{""38055"": 52.87, ""38101"": 47.13}",McLean|Ward,38055|38101,False,False,America/Chicago,"(47.84776, -101.25026)",46.48515907670814,151861.0,545_0_no,47.25936257692551,-100.76686351935506,50.0
58778,47.78307,-100.91268,Ruso,ND,North Dakota,True,,111.0,0.3,38055,McLean,"{""38055"": 92.19, ""38049"": 7.81}",McLean|McHenry,38055|38049,False,False,America/Chicago,"(47.78307, -100.91268)",36.8188165964016,151861.0,545_0_no,47.25936257692551,-100.76686351935506,50.0
58779,47.85507,-101.7621,Ryder,ND,North Dakota,True,,256.0,0.4,38055,McLean,"{""38055"": 53.27, ""38101"": 46.73}",McLean|Ward,38055|38101,False,False,America/Chicago,"(47.85507, -101.7621)",62.0280903604955,151861.0,545_0_no,47.25936257692551,-100.76686351935506,50.0
58792,47.97385,-100.7424,Voltaire,ND,North Dakota,True,,175.0,0.4,38049,McHenry,"{""38049"": 100}",McHenry,38049,False,False,America/Chicago,"(47.97385, -100.7424)",49.37952507100408,151861.0,545_0_no,47.25936257692551,-100.76686351935506,50.0
