zip,lat,lng,city,state_id,state_name,zcta,parent_zcta,population,density,county_fips,county_name,county_weights,county_names_all,county_fips_all,imprecise,military,timezone,Coord,distance_miles,market_total_population,market_id,market_center_lat,market_center_lng,radius_miles
83821,48.59365,-116.8367,Coolin,ID,Idaho,True,,216.0,1.7,16017,Bonner,"{""16017"": 100}",Bonner,16017,False,False,America/Los_Angeles,"(48.59365, -116.8367)",40.19198790677759,66117.0,580_0_no,48.86187600655405,-117.61921836231836,50.0
83822,48.16785,-117.0014,Oldtown,ID,Idaho,True,,1961.0,22.0,16017,Bonner,"{""16017"": 100}",Bonner,16017,False,False,America/Los_Angeles,"(48.16785, -117.0014)",55.66863395023051,66117.0,580_0_no,48.86187600655405,-117.61921836231836,50.0
83825,48.24694,-116.6076,Dover,ID,Idaho,True,,209.0,148.8,16017,Bonner,"{""16017"": 100}",Bonner,16017,False,False,America/Los_Angeles,"(48.24694, -116.6076)",62.81353687004153,66117.0,580_0_no,48.86187600655405,-117.61921836231836,50.0
83841,48.19911,-116.77851,Laclede,ID,Idaho,True,,449.0,7.3,16017,Bonner,"{""16017"": 100}",Bonner,16017,False,False,America/Los_Angeles,"(48.19911, -116.77851)",59.80444823232513,66117.0,580_0_no,48.86187600655405,-117.61921836231836,50.0
83848,48.7067,-116.92766,Nordman,ID,Idaho,True,,140.0,1.0,16017,Bonner,"{""16017"": 100}",Bonner,16017,False,False,America/Los_Angeles,"(48.7067, -116.92766)",33.258849401817784,66117.0,580_0_no,48.86187600655405,-117.61921836231836,50.0
83852,48.31105,-116.53933,Ponderay,ID,Idaho,True,,937.0,145.0,16017,Bonner,"{""16017"": 100}",Bonner,16017,False,False,America/Los_Angeles,"(48.31105, -116.53933)",62.324227661290934,66117.0,580_0_no,48.86187600655405,-117.61921836231836,50.0
83856,48.34228,-116.91058,Priest River,ID,Idaho,True,,6757.0,6.6,16017,Bonner,"{""16017"": 91.97, ""53051"": 8.03}",Bonner|Pend Oreille,16017|53051,False,False,America/Los_Angeles,"(48.34228, -116.91058)",48.344069580606615,66117.0,580_0_no,48.86187600655405,-117.61921836231836,50.0
83860,48.19234,-116.52918,Sagle,ID,Idaho,True,,6788.0,22.5,16017,Bonner,"{""16017"": 100}",Bonner,16017,False,False,America/Los_Angeles,"(48.19234, -116.52918)",68.0271374673564,66117.0,580_0_no,48.86187600655405,-117.61921836231836,50.0
99101,48.31889,-117.9483,Addy,WA,Washington,True,,1419.0,5.7,53065,Stevens,"{""53065"": 100}",Stevens,53065,False,False,America/Los_Angeles,"(48.31889, -117.9483)",40.418819794908394,66117.0,580_0_no,48.86187600655405,-117.61921836231836,50.0
99109,48.29787,-117.69852,Chewelah,WA,Washington,True,,4948.0,6.1,53065,Stevens,"{""53065"": 100}",Stevens,53065,False,False,America/Los_Angeles,"(48.29787, -117.69852)",39.137329048030296,66117.0,580_0_no,48.86187600655405,-117.61921836231836,50.0
99114,48.66067,-117.74333,Colville,WA,Washington,True,,12866.0,6.9,53065,Stevens,"{""53065"": 100}",Stevens,53065,False,False,America/Los_Angeles,"(48.66067, -117.74333)",15.007334498709033,66117.0,580_0_no,48.86187600655405,-117.61921836231836,50.0
99118,48.89746,-118.63797,Curlew,WA,Washington,True,,794.0,1.5,53019,Ferry,"{""53019"": 100}",Ferry,53019,False,False,America/Los_Angeles,"(48.89746, -118.63797)",46.35572460864386,66117.0,580_0_no,48.86187600655405,-117.61921836231836,50.0
99119,48.50946,-117.29994,Cusick,WA,Washington,True,,1294.0,1.3,53051,Pend Oreille,"{""53051"": 100}",Pend Oreille,53051,False,False,America/Los_Angeles,"(48.50946, -117.29994)",28.37261250648194,66117.0,580_0_no,48.86187600655405,-117.61921836231836,50.0
99121,48.94382,-118.45568,Danville,WA,Washington,True,,327.0,2.4,53019,Ferry,"{""53019"": 100}",Ferry,53019,False,False,America/Los_Angeles,"(48.94382, -118.45568)",38.40955094715744,66117.0,580_0_no,48.86187600655405,-117.61921836231836,50.0
99126,48.73574,-117.97447,Evans,WA,Washington,True,,1019.0,7.8,53065,Stevens,"{""53065"": 100}",Stevens,53065,False,False,America/Los_Angeles,"(48.73574, -117.97447)",18.367537128012295,66117.0,580_0_no,48.86187600655405,-117.61921836231836,50.0
99131,48.29511,-118.11731,Gifford,WA,Washington,True,,218.0,4.8,53065,Stevens,"{""53065"": 100}",Stevens,53065,False,False,America/Los_Angeles,"(48.29511, -118.11731)",45.29766701424546,66117.0,580_0_no,48.86187600655405,-117.61921836231836,50.0
99137,48.1659,-118.09992,Hunters,WA,Washington,True,,357.0,1.5,53065,Stevens,"{""53065"": 100}",Stevens,53065,False,False,America/Los_Angeles,"(48.1659, -118.09992)",52.881399045590065,66117.0,580_0_no,48.86187600655405,-117.61921836231836,50.0
99138,48.23093,-118.38876,Inchelium,WA,Washington,True,,1084.0,0.7,53019,Ferry,"{""53019"": 100}",Ferry,53019,False,False,America/Los_Angeles,"(48.23093, -118.38876)",56.03020362179277,66117.0,580_0_no,48.86187600655405,-117.61921836231836,50.0
99139,48.73161,-117.31371,Ione,WA,Washington,True,,1339.0,1.6,53051,Pend Oreille,"{""53051"": 100}",Pend Oreille,53051,False,False,America/Los_Angeles,"(48.73161, -117.31371)",16.56368744246354,66117.0,580_0_no,48.86187600655405,-117.61921836231836,50.0
99141,48.72571,-118.17509,Kettle Falls,WA,Washington,True,,5898.0,3.6,53019,Ferry,"{""53019"": 51.92, ""53065"": 48.08}",Ferry|Stevens,53019|53065,False,False,America/Los_Angeles,"(48.72571, -118.17509)",26.99395323533538,66117.0,580_0_no,48.86187600655405,-117.61921836231836,50.0
99146,48.95766,-118.29768,Laurier,WA,Washington,True,,25.0,0.2,53019,Ferry,"{""53019"": 100}",Ferry,53019,False,False,America/Los_Angeles,"(48.95766, -118.29768)",31.512564107177695,66117.0,580_0_no,48.86187600655405,-117.61921836231836,50.0
99150,48.80622,-118.61071,Malo,WA,Washington,True,,310.0,3.7,53019,Ferry,"{""53019"": 100}",Ferry,53019,False,False,America/Los_Angeles,"(48.80622, -118.61071)",45.25658692150128,66117.0,580_0_no,48.86187600655405,-117.61921836231836,50.0
99151,48.66443,-118.06125,Marcus,WA,Washington,True,,176.0,371.9,53065,Stevens,"{""53065"": 100}",Stevens,53065,False,False,America/Los_Angeles,"(48.66443, -118.06125)",24.31891120961636,66117.0,580_0_no,48.86187600655405,-117.61921836231836,50.0
99152,48.85066,-117.39748,Metaline,WA,Washington,True,,122.0,10.7,53051,Pend Oreille,"{""53051"": 100}",Pend Oreille,53051,False,False,America/Los_Angeles,"(48.85066, -117.39748)",10.109973748331685,66117.0,580_0_no,48.86187600655405,-117.61921836231836,50.0
99153,48.90951,-117.25229,Metaline Falls,WA,Washington,True,,422.0,0.7,53051,Pend Oreille,"{""53051"": 100}",Pend Oreille,53051,False,False,America/Los_Angeles,"(48.90951, -117.25229)",16.992522995411747,66117.0,580_0_no,48.86187600655405,-117.61921836231836,50.0
99156,48.16211,-117.18826,Newport,WA,Washington,True,,8755.0,12.4,53051,Pend Oreille,"{""53051"": 89.64, ""53063"": 10.36}",Pend Oreille|Spokane,53051|53063,False,False,America/Los_Angeles,"(48.16211, -117.18826)",52.218090000984155,66117.0,580_0_no,48.86187600655405,-117.61921836231836,50.0
99157,48.93007,-117.81753,Northport,WA,Washington,True,,589.0,3.5,53065,Stevens,"{""53065"": 100}",Stevens,53065,False,False,America/Los_Angeles,"(48.93007, -117.81753)",10.165944418693421,66117.0,580_0_no,48.86187600655405,-117.61921836231836,50.0
99160,48.86895,-118.30122,Orient,WA,Washington,True,,113.0,0.9,53019,Ferry,"{""53019"": 100}",Ferry,53019,False,False,America/Los_Angeles,"(48.86895, -118.30122)",31.001900210717128,66117.0,580_0_no,48.86187600655405,-117.61921836231836,50.0
99166,48.61033,-118.6715,Republic,WA,Washington,True,,3022.0,2.4,53019,Ferry,"{""53019"": 98.47, ""53047"": 1.53}",Ferry|Okanogan,53019|53047,False,False,America/Los_Angeles,"(48.61033, -118.6715)",51.00353174812903,66117.0,580_0_no,48.86187600655405,-117.61921836231836,50.0
99167,48.41307,-118.11733,Rice,WA,Washington,True,,710.0,4.0,53065,Stevens,"{""53065"": 100}",Stevens,53065,False,False,America/Los_Angeles,"(48.41307, -118.11733)",38.45542751890357,66117.0,580_0_no,48.86187600655405,-117.61921836231836,50.0
99180,48.30925,-117.30663,Usk,WA,Washington,True,,1065.0,2.5,53051,Pend Oreille,"{""53051"": 100}",Pend Oreille,53051,False,False,America/Los_Angeles,"(48.30925, -117.30663)",40.76808900009902,66117.0,580_0_no,48.86187600655405,-117.61921836231836,50.0
99181,48.1456,-117.76526,Valley,WA,Washington,True,,1788.0,7.6,53065,Stevens,"{""53065"": 100}",Stevens,53065,False,False,America/Los_Angeles,"(48.1456, -117.76526)",49.939478616176764,66117.0,580_0_no,48.86187600655405,-117.61921836231836,50.0
