zip,lat,lng,city,state_id,state_name,zcta,parent_zcta,population,density,county_fips,county_name,county_weights,county_names_all,county_fips_all,imprecise,military,timezone,Coord,distance_miles,market_total_population,market_id,market_center_lat,market_center_lng,radius_miles
59240,48.84222,-106.24046,Glentana,MT,Montana,True,,13.0,0.1,30105,Valley,"{""30105"": 100}",Valley,30105,False,False,America/Denver,"(48.84222, -106.24046)",61.90111231645342,529.0,582_0_yes,49.47911811721825,-107.20401083751392,50.0
59250,48.86715,-106.63905,Opheim,MT,Montana,True,,194.0,0.2,30105,Valley,"{""30105"": 100}",Valley,30105,False,False,America/Denver,"(48.86715, -106.63905)",49.38719251485281,529.0,582_0_yes,49.47911811721825,-107.20401083751392,50.0
59260,48.84027,-106.10217,Richland,MT,Montana,True,,86.0,0.1,30105,Valley,"{""30105"": 60.82, ""30019"": 39.18}",Valley|Daniels,30105|30019,False,False,America/Denver,"(48.84027, -106.10217)",66.53398808241201,529.0,582_0_yes,49.47911811721825,-107.20401083751392,50.0
59537,48.84762,-107.93725,Loring,MT,Montana,True,,70.0,0.1,30071,Phillips,"{""30071"": 100}",Phillips,30071,False,False,America/Denver,"(48.84762, -107.93725)",54.78312124399439,529.0,582_0_yes,49.47911811721825,-107.20401083751392,50.0
59544,48.81294,-107.59147,Whitewater,MT,Montana,True,,166.0,0.1,30071,Phillips,"{""30071"": 100}",Phillips,30071,False,False,America/Denver,"(48.81294, -107.59147)",49.24700535105661,529.0,582_0_yes,49.47911811721825,-107.20401083751392,50.0
