zip,lat,lng,city,state_id,state_name,zcta,parent_zcta,population,density,county_fips,county_name,county_weights,county_names_all,county_fips_all,imprecise,military,timezone,Coord,distance_miles,market_total_population,market_id,market_center_lat,market_center_lng,radius_miles
55709,47.40431,-93.3804,Bovey,MN,Minnesota,True,,4120.0,7.1,27061,Itasca,"{""27061"": 100}",Itasca,27061,False,False,America/Chicago,"(47.40431, -93.3804)",152.92013550203666,935474.0,60_0_no,48.164339131000695,-96.4742903357333,150.0
55716,47.32169,-93.26432,Calumet,MN,Minnesota,True,,312.0,94.8,27061,Itasca,"{""27061"": 100}",Itasca,27061,False,False,America/Chicago,"(47.32169, -93.26432)",160.08831794777555,935474.0,60_0_no,48.164339131000695,-96.4742903357333,150.0
55721,47.21837,-93.68841,Cohasset,MN,Minnesota,True,,3558.0,14.7,27061,Itasca,"{""27061"": 100}",Itasca,27061,False,False,America/Chicago,"(47.21837, -93.68841)",145.1068178438645,935474.0,60_0_no,48.164339131000695,-96.4742903357333,150.0
55722,47.28253,-93.4338,Coleraine,MN,Minnesota,True,,902.0,285.0,27061,Itasca,"{""27061"": 100}",Itasca,27061,False,False,America/Chicago,"(47.28253, -93.4338)",153.88142348213336,935474.0,60_0_no,48.164339131000695,-96.4742903357333,150.0
55744,47.23306,-93.51299,Grand Rapids,MN,Minnesota,True,,20142.0,32.5,27061,Itasca,"{""27061"": 100}",Itasca,27061,False,False,America/Chicago,"(47.23306, -93.51299)",151.98367396465488,935474.0,60_0_no,48.164339131000695,-96.4742903357333,150.0
55748,46.99372,-93.59693,Hill City,MN,Minnesota,True,,1462.0,3.7,27001,Aitkin,"{""27001"": 64.64, ""27061"": 35.36}",Aitkin|Itasca,27001|27061,False,False,America/Chicago,"(46.99372, -93.59693)",156.59611632332818,935474.0,60_0_no,48.164339131000695,-96.4742903357333,150.0
55752,46.95494,-93.25323,Jacobson,MN,Minnesota,True,,369.0,0.8,27001,Aitkin,"{""27001"": 98.36, ""27061"": 1.64}",Aitkin|Itasca,27001|27061,False,False,America/Chicago,"(46.95494, -93.25323)",171.84535571127464,935474.0,60_0_no,48.164339131000695,-96.4742903357333,150.0
55760,46.62491,-93.27049,Mcgregor,MN,Minnesota,True,,2889.0,3.7,27001,Aitkin,"{""27001"": 100}",Aitkin,27001,False,False,America/Chicago,"(46.62491, -93.27049)",183.7361559905392,935474.0,60_0_no,48.164339131000695,-96.4742903357333,150.0
55764,47.33041,-93.29298,Marble,MN,Minnesota,True,,500.0,52.1,27061,Itasca,"{""27061"": 100}",Itasca,27061,False,False,America/Chicago,"(47.33041, -93.29298)",158.61769188225688,935474.0,60_0_no,48.164339131000695,-96.4742903357333,150.0
55785,46.92332,-93.74591,Swatara,MN,Minnesota,True,,256.0,0.9,27001,Aitkin,"{""27001"": 74.18, ""27021"": 25.82}",Aitkin|Cass,27001|27021,False,False,America/Chicago,"(46.92332, -93.74591)",153.429908230908,935474.0,60_0_no,48.164339131000695,-96.4742903357333,150.0
55786,47.31916,-93.38227,Taconite,MN,Minnesota,True,,308.0,46.7,27061,Itasca,"{""27061"": 100}",Itasca,27061,False,False,America/Chicago,"(47.31916, -93.38227)",155.0663828267697,935474.0,60_0_no,48.164339131000695,-96.4742903357333,150.0
55793,47.11585,-93.28442,Warba,MN,Minnesota,True,,742.0,3.6,27061,Itasca,"{""27061"": 100}",Itasca,27061,False,False,America/Chicago,"(47.11585, -93.28442)",165.2116540331727,935474.0,60_0_no,48.164339131000695,-96.4742903357333,150.0
56309,46.08035,-95.80202,Ashby,MN,Minnesota,True,,1430.0,9.6,27051,Grant,"{""27051"": 59.94, ""27111"": 34.84, ""27041"": 5.22}",Grant|Otter Tail|Douglas,27051|27111|27041,False,False,America/Chicago,"(46.08035, -95.80202)",147.41618249081034,935474.0,60_0_no,48.164339131000695,-96.4742903357333,150.0
56319,46.00488,-95.22322,Carlos,MN,Minnesota,True,,1246.0,11.9,27041,Douglas,"{""27041"": 80.76, ""27153"": 19.24}",Douglas|Todd,27041|27153,False,False,America/Chicago,"(46.00488, -95.22322)",160.38838327123656,935474.0,60_0_no,48.164339131000695,-96.4742903357333,150.0
56324,46.16385,-95.90766,Dalton,MN,Minnesota,True,,1090.0,7.2,27111,Otter Tail,"{""27111"": 98.24, ""27051"": 1.76}",Otter Tail|Grant,27111|27051,False,False,America/Chicago,"(46.16385, -95.90766)",140.75921718393823,935474.0,60_0_no,48.164339131000695,-96.4742903357333,150.0
56326,46.02506,-95.68596,Evansville,MN,Minnesota,True,,1740.0,7.1,27041,Douglas,"{""27041"": 89.2, ""27111"": 8.69, ""27051"": 2.11}",Douglas|Otter Tail|Grant,27041|27111|27051,False,False,America/Chicago,"(46.02506, -95.68596)",152.3881208335518,935474.0,60_0_no,48.164339131000695,-96.4742903357333,150.0
56338,46.00631,-93.88089,Hillman,MN,Minnesota,True,,1507.0,3.4,27097,Morrison,"{""27097"": 94.17, ""27035"": 5.83}",Morrison|Crow Wing,27097|27035,False,False,America/Chicago,"(46.00631, -93.88089)",192.63868168039866,935474.0,60_0_no,48.164339131000695,-96.4742903357333,150.0
56342,46.18347,-93.40392,Isle,MN,Minnesota,True,,2660.0,5.3,27001,Aitkin,"{""27001"": 39.71, ""27065"": 34.63, ""27095"": 25.66}",Aitkin|Kanabec|Mille Lacs,27001|27065|27095,False,False,America/Chicago,"(46.18347, -93.40392)",198.78716672843436,935474.0,60_0_no,48.164339131000695,-96.4742903357333,150.0
56345,46.00748,-94.38032,Little Falls,MN,Minnesota,True,,14635.0,21.9,27097,Morrison,"{""27097"": 100}",Morrison,27097,False,False,America/Chicago,"(46.00748, -94.38032)",178.62638266916633,935474.0,60_0_no,48.164339131000695,-96.4742903357333,150.0
56350,46.31101,-93.23922,McGrath,MN,Minnesota,True,,514.0,0.9,27001,Aitkin,"{""27001"": 100}",Aitkin,27001,False,False,America/Chicago,"(46.31101, -93.23922)",198.5370537964729,935474.0,60_0_no,48.164339131000695,-96.4742903357333,150.0
56354,46.06034,-95.27496,Miltona,MN,Minnesota,True,,1320.0,12.1,27041,Douglas,"{""27041"": 100}",Douglas,27041,False,False,America/Chicago,"(46.06034, -95.27496)",155.92287676758198,935474.0,60_0_no,48.164339131000695,-96.4742903357333,150.0
56359,46.08979,-93.67786,Onamia,MN,Minnesota,True,,3568.0,8.1,27095,Mille Lacs,"{""27095"": 100}",Mille Lacs,27095,False,False,America/Chicago,"(46.08979, -93.67786)",194.46528101949647,935474.0,60_0_no,48.164339131000695,-96.4742903357333,150.0
56361,46.16146,-95.3351,Parkers Prairie,MN,Minnesota,True,,2547.0,6.2,27111,Otter Tail,"{""27111"": 83.55, ""27041"": 16.45}",Otter Tail|Douglas,27111|27041,False,False,America/Chicago,"(46.16146, -95.3351)",148.36874807505453,935474.0,60_0_no,48.164339131000695,-96.4742903357333,150.0
56364,46.01605,-94.06704,Pierz,MN,Minnesota,True,,5742.0,9.2,27097,Morrison,"{""27097"": 95.43, ""27035"": 4.57}",Morrison|Crow Wing,27097|27035,False,False,America/Chicago,"(46.01605, -94.06704)",186.67682193906668,935474.0,60_0_no,48.164339131000695,-96.4742903357333,150.0
56386,46.11402,-93.52176,Wahkon,MN,Minnesota,True,,743.0,16.1,27095,Mille Lacs,"{""27095"": 100}",Mille Lacs,27095,False,False,America/Chicago,"(46.11402, -93.52176)",198.27460459706094,935474.0,60_0_no,48.164339131000695,-96.4742903357333,150.0
56401,46.32259,-94.11974,Brainerd,MN,Minnesota,True,,30350.0,36.3,27035,Crow Wing,"{""27035"": 91.78, ""27021"": 8.22}",Crow Wing|Cass,27035|27021,False,False,America/Chicago,"(46.32259, -94.11974)",168.47963702410146,935474.0,60_0_no,48.164339131000695,-96.4742903357333,150.0
56425,46.34162,-94.28308,Baxter,MN,Minnesota,True,,8393.0,177.5,27035,Crow Wing,"{""27035"": 100}",Crow Wing,27035,False,False,America/Chicago,"(46.34162, -94.28308)",162.52989182918773,935474.0,60_0_no,48.164339131000695,-96.4742903357333,150.0
56431,46.4828,-93.64356,Aitkin,MN,Minnesota,True,,8793.0,7.3,27001,Aitkin,"{""27001"": 87.11, ""27035"": 12.89}",Aitkin|Crow Wing,27001|27035,False,False,America/Chicago,"(46.4828, -93.64356)",176.26116140245574,935474.0,60_0_no,48.164339131000695,-96.4742903357333,150.0
56433,46.9598,-94.68519,Akeley,MN,Minnesota,True,,1650.0,5.8,27057,Hubbard,"{""27057"": 69.63, ""27021"": 30.37}",Hubbard|Cass,27057|27021,False,False,America/Chicago,"(46.9598, -94.68519)",117.82610191783006,935474.0,60_0_no,48.164339131000695,-96.4742903357333,150.0
56434,46.33797,-94.93437,Aldrich,MN,Minnesota,True,,291.0,7.6,27153,Todd,"{""27153"": 83.73, ""27159"": 16.27}",Todd|Wadena,27153|27159,False,False,America/Chicago,"(46.33797, -94.93437)",145.38828056899465,935474.0,60_0_no,48.164339131000695,-96.4742903357333,150.0
56435,46.80872,-94.53089,Backus,MN,Minnesota,True,,2760.0,6.7,27021,Cass,"{""27021"": 99.08, ""27035"": 0.92}",Cass|Crow Wing,27021|27035,False,False,America/Chicago,"(46.80872, -94.53089)",130.40085774524533,935474.0,60_0_no,48.164339131000695,-96.4742903357333,150.0
56437,46.25049,-95.05654,Bertha,MN,Minnesota,True,,1451.0,8.5,27153,Todd,"{""27153"": 88.49, ""27111"": 11.51}",Todd|Otter Tail,27153|27111,False,False,America/Chicago,"(46.25049, -95.05654)",148.02852206889818,935474.0,60_0_no,48.164339131000695,-96.4742903357333,150.0
56438,46.13873,-94.80874,Browerville,MN,Minnesota,True,,2668.0,7.3,27153,Todd,"{""27153"": 100}",Todd,27153,False,False,America/Chicago,"(46.13873, -94.80874)",160.34141914245046,935474.0,60_0_no,48.164339131000695,-96.4742903357333,150.0
56440,46.14658,-94.9573,Clarissa,MN,Minnesota,True,,1368.0,9.5,27153,Todd,"{""27153"": 100}",Todd,27153,False,False,America/Chicago,"(46.14658, -94.9573)",156.5688481409112,935474.0,60_0_no,48.164339131000695,-96.4742903357333,150.0
56441,46.58625,-93.9865,Crosby,MN,Minnesota,True,,3900.0,16.9,27035,Crow Wing,"{""27035"": 100}",Crow Wing,27035,False,False,America/Chicago,"(46.58625, -93.9865)",159.47822950453258,935474.0,60_0_no,48.164339131000695,-96.4742903357333,150.0
56442,46.67629,-94.09726,Crosslake,MN,Minnesota,True,,2591.0,28.4,27035,Crow Wing,"{""27035"": 100}",Crow Wing,27035,False,False,America/Chicago,"(46.67629, -94.09726)",151.37871491578213,935474.0,60_0_no,48.164339131000695,-96.4742903357333,150.0
56443,46.1916,-94.57565,Cushing,MN,Minnesota,True,,1334.0,4.0,27097,Morrison,"{""27097"": 69.31, ""27153"": 30.69}",Morrison|Todd,27097|27153,False,False,America/Chicago,"(46.1916, -94.57565)",162.86710059295794,935474.0,60_0_no,48.164339131000695,-96.4742903357333,150.0
56444,46.4175,-93.87804,Deerwood,MN,Minnesota,True,,3442.0,25.7,27035,Crow Wing,"{""27035"": 100}",Crow Wing,27035,False,False,America/Chicago,"(46.4175, -93.87804)",171.36151515269367,935474.0,60_0_no,48.164339131000695,-96.4742903357333,150.0
56446,46.12448,-95.08966,Eagle Bend,MN,Minnesota,True,,1818.0,7.3,27153,Todd,"{""27153"": 82.86, ""27111"": 12.5, ""27041"": 4.64}",Todd|Otter Tail|Douglas,27153|27111|27041,False,False,America/Chicago,"(46.12448, -95.08966)",155.22962367882974,935474.0,60_0_no,48.164339131000695,-96.4742903357333,150.0
56447,46.74151,-93.90262,Emily,MN,Minnesota,True,,849.0,3.9,27035,Crow Wing,"{""27035"": 100}",Crow Wing,27035,False,False,America/Chicago,"(46.74151, -93.90262)",155.22839229762752,935474.0,60_0_no,48.164339131000695,-96.4742903357333,150.0
56448,46.78604,-94.09014,Fifty Lakes,MN,Minnesota,True,,370.0,3.1,27035,Crow Wing,"{""27035"": 65.25, ""27021"": 34.75}",Crow Wing|Cass,27035|27021,False,False,America/Chicago,"(46.78604, -94.09014)",146.50032997142492,935474.0,60_0_no,48.164339131000695,-96.4742903357333,150.0
56449,46.17436,-94.27214,Fort Ripley,MN,Minnesota,True,,1817.0,7.8,27035,Crow Wing,"{""27035"": 66.83, ""27097"": 33.17}",Crow Wing|Morrison,27035|27097,False,False,America/Chicago,"(46.17436, -94.27214)",172.0433513498319,935474.0,60_0_no,48.164339131000695,-96.4742903357333,150.0
56450,46.23341,-93.8361,Garrison,MN,Minnesota,True,,888.0,13.0,27035,Crow Wing,"{""27035"": 89.16, ""27095"": 10.84}",Crow Wing|Mille Lacs,27035|27095,False,False,America/Chicago,"(46.23341, -93.8361)",182.01874050173907,935474.0,60_0_no,48.164339131000695,-96.4742903357333,150.0
56452,46.94808,-94.46123,Hackensack,MN,Minnesota,True,,1968.0,8.0,27021,Cass,"{""27021"": 100}",Cass,27021,False,False,America/Chicago,"(46.94808, -94.46123)",125.97978223272624,935474.0,60_0_no,48.164339131000695,-96.4742903357333,150.0
56453,46.31374,-95.16161,Hewitt,MN,Minnesota,True,,809.0,5.9,27111,Otter Tail,"{""27111"": 59.12, ""27153"": 40.88}",Otter Tail|Todd,27111|27153,False,False,America/Chicago,"(46.31374, -95.16161)",141.91396275857113,935474.0,60_0_no,48.164339131000695,-96.4742903357333,150.0
56455,46.44953,-94.00681,Ironton,MN,Minnesota,True,,1699.0,26.8,27035,Crow Wing,"{""27035"": 100}",Crow Wing,27035,False,False,America/Chicago,"(46.44953, -94.00681)",165.51792842265732,935474.0,60_0_no,48.164339131000695,-96.4742903357333,150.0
56458,47.19924,-94.99341,Lake George,MN,Minnesota,True,,422.0,7.6,27057,Hubbard,"{""27057"": 100}",Hubbard,27057,False,False,America/Chicago,"(47.19924, -94.99341)",95.87031633803244,935474.0,60_0_no,48.164339131000695,-96.4742903357333,150.0
56461,47.22817,-94.85877,Laporte,MN,Minnesota,True,,3234.0,4.4,27057,Hubbard,"{""27057"": 97.14, ""27021"": 2.86}",Hubbard|Cass,27057|27021,False,False,America/Chicago,"(47.22817, -94.85877)",99.1331446320351,935474.0,60_0_no,48.164339131000695,-96.4742903357333,150.0
56464,46.76538,-95.10382,Menahga,MN,Minnesota,True,,4727.0,7.1,27159,Wadena,"{""27159"": 46.94, ""27005"": 33.56, ""27057"": 14.42, ""27111"": 4.23, ""27021"": 0.86}",Wadena|Becker|Hubbard|Otter Tail|Cass,27159|27005|27057|27111|27021,False,False,America/Chicago,"(46.76538, -95.10382)",115.93011763052962,935474.0,60_0_no,48.164339131000695,-96.4742903357333,150.0
56465,46.53459,-94.11381,Merrifield,MN,Minnesota,True,,2071.0,20.8,27035,Crow Wing,"{""27035"": 100}",Crow Wing,27035,False,False,America/Chicago,"(46.53459, -94.11381)",157.75125676291123,935474.0,60_0_no,48.164339131000695,-96.4742903357333,150.0
56466,46.41522,-94.63137,Motley,MN,Minnesota,True,,2744.0,5.5,27021,Cass,"{""27021"": 69.91, ""27097"": 19.43, ""27153"": 10.66}",Cass|Morrison|Todd,27021|27097|27153,False,False,America/Chicago,"(46.41522, -94.63137)",148.53294851609962,935474.0,60_0_no,48.164339131000695,-96.4742903357333,150.0
56467,46.97714,-94.83753,Nevis,MN,Minnesota,True,,2685.0,8.3,27057,Hubbard,"{""27057"": 100}",Hubbard,27057,False,False,America/Chicago,"(46.97714, -94.83753)",112.02192179092101,935474.0,60_0_no,48.164339131000695,-96.4742903357333,150.0
56468,46.49141,-94.29856,Nisswa,MN,Minnesota,True,,4215.0,32.7,27035,Crow Wing,"{""27035"": 61.12, ""27021"": 38.88}",Crow Wing|Cass,27035|27021,False,False,America/Chicago,"(46.49141, -94.29856)",154.07419519994394,935474.0,60_0_no,48.164339131000695,-96.4742903357333,150.0
56469,46.77701,-93.5463,Palisade,MN,Minnesota,True,,1013.0,1.5,27001,Aitkin,"{""27001"": 100}",Aitkin,27001,False,False,America/Chicago,"(46.77701, -93.5463)",166.98153805480624,935474.0,60_0_no,48.164339131000695,-96.4742903357333,150.0
56470,47.02368,-95.09433,Park Rapids,MN,Minnesota,True,,10654.0,10.8,27057,Hubbard,"{""27057"": 67.13, ""27005"": 22.15, ""27029"": 10.12, ""27159"": 0.6}",Hubbard|Becker|Clearwater|Wadena,27057|27005|27029|27159,False,False,America/Chicago,"(47.02368, -95.09433)",101.71051416622647,935474.0,60_0_no,48.164339131000695,-96.4742903357333,150.0
56472,46.57507,-94.34884,Pequot Lakes,MN,Minnesota,True,,8250.0,20.6,27021,Cass,"{""27021"": 54.66, ""27035"": 45.34}",Cass|Crow Wing,27021|27035,False,False,America/Chicago,"(46.57507, -94.34884)",148.1435327932554,935474.0,60_0_no,48.164339131000695,-96.4742903357333,150.0
56473,46.35649,-94.48355,Pillager,MN,Minnesota,True,,3176.0,13.6,27021,Cass,"{""27021"": 80.53, ""27097"": 19.47}",Cass|Morrison,27021|27097,False,False,America/Chicago,"(46.35649, -94.48355)",155.92584138354258,935474.0,60_0_no,48.164339131000695,-96.4742903357333,150.0
56474,46.72238,-94.39597,Pine River,MN,Minnesota,True,,4270.0,7.2,27021,Cass,"{""27021"": 70.46, ""27035"": 29.54}",Cass|Crow Wing,27021|27035,False,False,America/Chicago,"(46.72238, -94.39597)",139.12306220164123,935474.0,60_0_no,48.164339131000695,-96.4742903357333,150.0
56475,46.08361,-94.53985,Randall,MN,Minnesota,True,,1590.0,9.8,27097,Morrison,"{""27097"": 100}",Morrison,27097,False,False,America/Chicago,"(46.08361, -94.53985)",170.1007793206812,935474.0,60_0_no,48.164339131000695,-96.4742903357333,150.0
56477,46.64363,-94.99653,Sebeka,MN,Minnesota,True,,2777.0,4.3,27159,Wadena,"{""27159"": 67.55, ""27111"": 21.03, ""27021"": 11.42}",Wadena|Otter Tail|Cass,27159|27111|27021,False,False,America/Chicago,"(46.64363, -94.99653)",125.75436389287837,935474.0,60_0_no,48.164339131000695,-96.4742903357333,150.0
56479,46.43719,-94.78939,Staples,MN,Minnesota,True,,4983.0,9.7,27153,Todd,"{""27153"": 36.22, ""27159"": 32.16, ""27021"": 31.62}",Todd|Wadena|Cass,27153|27159|27021,False,False,America/Chicago,"(46.43719, -94.78939)",143.0770226616058,935474.0,60_0_no,48.164339131000695,-96.4742903357333,150.0
56481,46.46706,-94.93446,Verndale,MN,Minnesota,True,,2210.0,6.0,27159,Wadena,"{""27159"": 74.19, ""27153"": 18.18, ""27021"": 7.63}",Wadena|Todd|Cass,27159|27153|27021,False,False,America/Chicago,"(46.46706, -94.93446)",137.67065138572755,935474.0,60_0_no,48.164339131000695,-96.4742903357333,150.0
56482,46.46555,-95.14307,Wadena,MN,Minnesota,True,,7075.0,20.1,27159,Wadena,"{""27159"": 54.41, ""27111"": 44.49, ""27153"": 1.1}",Wadena|Otter Tail|Todd,27159|27111|27153,False,False,America/Chicago,"(46.46555, -95.14307)",132.90645752252823,935474.0,60_0_no,48.164339131000695,-96.4742903357333,150.0
56484,47.09744,-94.47416,Walker,MN,Minnesota,True,,2958.0,12.4,27021,Cass,"{""27021"": 99.7, ""27057"": 0.3}",Cass|Hubbard,27021|27057,False,False,America/Chicago,"(47.09744, -94.47416)",118.76745413916164,935474.0,60_0_no,48.164339131000695,-96.4742903357333,150.0
56501,46.83665,-95.82233,Detroit Lakes,MN,Minnesota,True,,17696.0,36.6,27005,Becker,"{""27005"": 92.04, ""27111"": 7.96}",Becker|Otter Tail,27005|27111,False,False,America/Chicago,"(46.83665, -95.82233)",96.64974559727658,935474.0,60_0_no,48.164339131000695,-96.4742903357333,150.0
56510,47.35811,-96.52316,Ada,MN,Minnesota,True,,2366.0,4.1,27107,Norman,"{""27107"": 100}",Norman,27107,False,False,America/Chicago,"(47.35811, -96.52316)",55.75134807623867,935474.0,60_0_no,48.164339131000695,-96.4742903357333,150.0
56511,46.8532,-96.00763,Audubon,MN,Minnesota,True,,1876.0,11.4,27005,Becker,"{""27005"": 100}",Becker,27005,False,False,America/Chicago,"(46.8532, -96.00763)",93.17186396737821,935474.0,60_0_no,48.164339131000695,-96.4742903357333,150.0
56514,46.64892,-96.43486,Barnesville,MN,Minnesota,True,,3796.0,6.9,27027,Clay,"{""27027"": 61.86, ""27167"": 35.7, ""27111"": 2.44}",Clay|Wilkin|Otter Tail,27027|27167|27111,False,False,America/Chicago,"(46.64892, -96.43486)",104.72171807371926,935474.0,60_0_no,48.164339131000695,-96.4742903357333,150.0
56515,46.29444,-95.708,Battle Lake,MN,Minnesota,True,,2840.0,11.4,27111,Otter Tail,"{""27111"": 100}",Otter Tail,27111,False,False,America/Chicago,"(46.29444, -95.708)",134.10510560128048,935474.0,60_0_no,48.164339131000695,-96.4742903357333,150.0
56516,47.44368,-95.96663,Bejou,MN,Minnesota,True,,292.0,1.3,27087,Mahnomen,"{""27087"": 88.15, ""27107"": 11.85}",Mahnomen|Norman,27087|27107,False,False,America/Chicago,"(47.44368, -95.96663)",55.08479547081955,935474.0,60_0_no,48.164339131000695,-96.4742903357333,150.0
56517,47.55474,-96.53825,Beltrami,MN,Minnesota,True,,303.0,1.2,27119,Polk,"{""27119"": 95.63, ""27107"": 4.37}",Polk|Norman,27119|27107,False,False,America/Chicago,"(47.55474, -96.53825)",42.22351976466745,935474.0,60_0_no,48.164339131000695,-96.4742903357333,150.0
56518,46.48926,-95.24506,Bluffton,MN,Minnesota,True,,379.0,7.9,27111,Otter Tail,"{""27111"": 100}",Otter Tail,27111,False,False,America/Chicago,"(46.48926, -95.24506)",129.2593707573116,935474.0,60_0_no,48.164339131000695,-96.4742903357333,150.0
56519,47.15914,-96.4877,Borup,MN,Minnesota,True,,252.0,1.0,27107,Norman,"{""27107"": 60.15, ""27027"": 39.85}",Norman|Clay,27107|27027,False,False,America/Chicago,"(47.15914, -96.4877)",69.4554476602698,935474.0,60_0_no,48.164339131000695,-96.4742903357333,150.0
56520,46.28645,-96.50361,Breckenridge,MN,Minnesota,True,,3751.0,11.5,27167,Wilkin,"{""27167"": 100}",Wilkin,27167,False,False,America/Chicago,"(46.28645, -96.50361)",129.75707100289316,935474.0,60_0_no,48.164339131000695,-96.4742903357333,150.0
56521,46.99691,-95.89783,Callaway,MN,Minnesota,True,,834.0,5.1,27005,Becker,"{""27005"": 100}",Becker,27005,False,False,America/Chicago,"(46.99691, -95.89783)",85.01782588425317,935474.0,60_0_no,48.164339131000695,-96.4742903357333,150.0
56522,46.1352,-96.3887,Campbell,MN,Minnesota,True,,403.0,1.0,27167,Wilkin,"{""27167"": 87.63, ""27111"": 12.37}",Wilkin|Otter Tail,27167|27111,False,False,America/Chicago,"(46.1352, -96.3887)",140.2578071679433,935474.0,60_0_no,48.164339131000695,-96.4742903357333,150.0
56523,47.63838,-96.80871,Climax,MN,Minnesota,True,,499.0,2.4,27119,Polk,"{""27119"": 100}",Polk,27119,False,False,America/Chicago,"(47.63838, -96.80871)",39.50403784527012,935474.0,60_0_no,48.164339131000695,-96.4742903357333,150.0
56524,46.21115,-95.606,Clitherall,MN,Minnesota,True,,656.0,5.7,27111,Otter Tail,"{""27111"": 100}",Otter Tail,27111,False,False,America/Chicago,"(46.21115, -95.606)",140.97423247693467,935474.0,60_0_no,48.164339131000695,-96.4742903357333,150.0
56525,46.6716,-96.75195,Comstock,MN,Minnesota,True,,78.0,25.7,27027,Clay,"{""27027"": 100}",Clay,27027,False,False,America/Chicago,"(46.6716, -96.75195)",103.951933365266,935474.0,60_0_no,48.164339131000695,-96.4742903357333,150.0
56527,46.37383,-95.31806,Deer Creek,MN,Minnesota,True,,924.0,6.5,27111,Otter Tail,"{""27111"": 100}",Otter Tail,27111,False,False,America/Chicago,"(46.37383, -95.31806)",135.06360432709982,935474.0,60_0_no,48.164339131000695,-96.4742903357333,150.0
56528,46.53066,-95.80983,Dent,MN,Minnesota,True,,1626.0,10.2,27111,Otter Tail,"{""27111"": 100}",Otter Tail,27111,False,False,America/Chicago,"(46.53066, -95.80983)",117.08284504393386,935474.0,60_0_no,48.164339131000695,-96.4742903357333,150.0
56529,46.88027,-96.69754,Dilworth,MN,Minnesota,True,,4434.0,463.9,27027,Clay,"{""27027"": 100}",Clay,27027,False,False,America/Chicago,"(46.88027, -96.69754)",89.33001810096893,935474.0,60_0_no,48.164339131000695,-96.4742903357333,150.0
56533,46.40393,-96.15144,Elizabeth,MN,Minnesota,True,,288.0,8.0,27111,Otter Tail,"{""27111"": 100}",Otter Tail,27111,False,False,America/Chicago,"(46.40393, -96.15144)",122.57002062288515,935474.0,60_0_no,48.164339131000695,-96.4742903357333,150.0
56534,46.46325,-96.01431,Erhard,MN,Minnesota,True,,1339.0,8.0,27111,Otter Tail,"{""27111"": 100}",Otter Tail,27111,False,False,America/Chicago,"(46.46325, -96.01431)",119.49221847259346,935474.0,60_0_no,48.164339131000695,-96.4742903357333,150.0
56535,47.67541,-96.04611,Erskine,MN,Minnesota,True,,1227.0,5.3,27119,Polk,"{""27119"": 88.11, ""27125"": 11.89}",Polk|Red Lake,27119|27125,False,False,America/Chicago,"(47.67541, -96.04611)",39.17001704720747,935474.0,60_0_no,48.164339131000695,-96.4742903357333,150.0
56536,47.04596,-96.53173,Felton,MN,Minnesota,True,,338.0,1.4,27027,Clay,"{""27027"": 100}",Clay,27027,False,False,America/Chicago,"(47.04596, -96.53173)",77.31894755963498,935474.0,60_0_no,48.164339131000695,-96.4742903357333,150.0
56537,46.27697,-96.08977,Fergus Falls,MN,Minnesota,True,,18914.0,25.8,27111,Otter Tail,"{""27111"": 100}",Otter Tail,27111,False,False,America/Chicago,"(46.27697, -96.08977)",131.6467618661806,935474.0,60_0_no,48.164339131000695,-96.4742903357333,150.0
56540,47.54255,-96.27671,Fertile,MN,Minnesota,True,,2120.0,4.7,27119,Polk,"{""27119"": 73.87, ""27107"": 26.13}",Polk|Norman,27119|27107,False,False,America/Chicago,"(47.54255, -96.27671)",43.92727597434589,935474.0,60_0_no,48.164339131000695,-96.4742903357333,150.0
56541,47.16606,-96.13081,Flom,MN,Minnesota,True,,29.0,2.8,27107,Norman,"{""27107"": 100}",Norman,27107,False,False,America/Chicago,"(47.16606, -96.13081)",70.80185114248735,935474.0,60_0_no,48.164339131000695,-96.4742903357333,150.0
56542,47.56679,-95.72331,Fosston,MN,Minnesota,True,,2656.0,5.7,27119,Polk,"{""27119"": 80.23, ""27087"": 19.77}",Polk|Mahnomen,27119|27087,False,False,America/Chicago,"(47.56679, -95.72331)",54.00254148734776,935474.0,60_0_no,48.164339131000695,-96.4742903357333,150.0
56543,46.28541,-96.33654,Foxhome,MN,Minnesota,True,,243.0,1.4,27167,Wilkin,"{""27167"": 100}",Wilkin,27167,False,False,America/Chicago,"(46.28541, -96.33654)",129.9823813474081,935474.0,60_0_no,48.164339131000695,-96.4742903357333,150.0
56544,46.75894,-95.59693,Frazee,MN,Minnesota,True,,5281.0,10.3,27005,Becker,"{""27005"": 76.79, ""27111"": 23.21}",Becker|Otter Tail,27005|27111,False,False,America/Chicago,"(46.75894, -95.59693)",105.39661377622345,935474.0,60_0_no,48.164339131000695,-96.4742903357333,150.0
56545,47.38527,-96.2399,Gary,MN,Minnesota,True,,654.0,1.6,27107,Norman,"{""27107"": 100}",Norman,27107,False,False,America/Chicago,"(47.38527, -96.2399)",54.917743989114335,935474.0,60_0_no,48.164339131000695,-96.4742903357333,150.0
56546,47.10107,-96.73038,Georgetown,MN,Minnesota,True,,231.0,1.5,27027,Clay,"{""27027"": 100}",Clay,27027,False,False,America/Chicago,"(47.10107, -96.73038)",74.42612215626649,935474.0,60_0_no,48.164339131000695,-96.4742903357333,150.0
56547,46.89068,-96.55043,Glyndon,MN,Minnesota,True,,3063.0,7.8,27027,Clay,"{""27027"": 100}",Clay,27027,False,False,America/Chicago,"(46.89068, -96.55043)",88.07311593517743,935474.0,60_0_no,48.164339131000695,-96.4742903357333,150.0
56548,47.37025,-96.75392,Halstad,MN,Minnesota,True,,735.0,4.2,27107,Norman,"{""27107"": 100}",Norman,27107,False,False,America/Chicago,"(47.37025, -96.75392)",56.38211577758995,935474.0,60_0_no,48.164339131000695,-96.4742903357333,150.0
56549,46.85287,-96.31285,Hawley,MN,Minnesota,True,,4934.0,9.2,27027,Clay,"{""27027"": 100}",Clay,27027,False,False,America/Chicago,"(46.85287, -96.31285)",90.92653838024178,935474.0,60_0_no,48.164339131000695,-96.4742903357333,150.0
56550,47.2697,-96.74867,Hendrum,MN,Minnesota,True,,316.0,2.5,27107,Norman,"{""27107"": 100}",Norman,27107,False,False,America/Chicago,"(47.2697, -96.74867)",63.11574481924769,935474.0,60_0_no,48.164339131000695,-96.4742903357333,150.0
56551,46.31856,-95.45081,Henning,MN,Minnesota,True,,2101.0,7.7,27111,Otter Tail,"{""27111"": 100}",Otter Tail,27111,False,False,America/Chicago,"(46.31856, -95.45081)",136.26518226862038,935474.0,60_0_no,48.164339131000695,-96.4742903357333,150.0
56552,46.9814,-96.21602,Hitterdal,MN,Minnesota,True,,579.0,4.8,27027,Clay,"{""27027"": 73.3, ""27005"": 26.7}",Clay|Becker,27027|27005,False,False,America/Chicago,"(46.9814, -96.21602)",82.61505885463836,935474.0,60_0_no,48.164339131000695,-96.4742903357333,150.0
56553,46.42946,-96.61757,Kent,MN,Minnesota,True,,184.0,1.1,27167,Wilkin,"{""27167"": 100}",Wilkin,27167,False,False,America/Chicago,"(46.42946, -96.61757)",120.05654604707289,935474.0,60_0_no,48.164339131000695,-96.4742903357333,150.0
56554,46.88408,-96.11483,Lake Park,MN,Minnesota,True,,2584.0,8.7,27005,Becker,"{""27005"": 92.09, ""27027"": 7.91}",Becker|Clay,27005|27027,False,False,America/Chicago,"(46.88408, -96.11483)",90.03306819792633,935474.0,60_0_no,48.164339131000695,-96.4742903357333,150.0
56556,47.66403,-95.88349,Mcintosh,MN,Minnesota,True,,1028.0,3.9,27119,Polk,"{""27119"": 100}",Polk,27119,False,False,America/Chicago,"(47.66403, -95.88349)",44.084836654286086,935474.0,60_0_no,48.164339131000695,-96.4742903357333,150.0
56557,47.32422,-95.837,Mahnomen,MN,Minnesota,True,,2885.0,4.7,27087,Mahnomen,"{""27087"": 93.42, ""27107"": 3.9, ""27029"": 2.68}",Mahnomen|Norman|Clearwater,27087|27107|27029,False,False,America/Chicago,"(47.32422, -95.837)",65.16173818916477,935474.0,60_0_no,48.164339131000695,-96.4742903357333,150.0
56560,46.83637,-96.73467,Moorhead,MN,Minnesota,True,,44763.0,109.8,27027,Clay,"{""27027"": 98.76, ""27167"": 1.24}",Clay|Wilkin,27027|27167,False,False,America/Chicago,"(46.83637, -96.73467)",92.55525869440628,935474.0,60_0_no,48.164339131000695,-96.4742903357333,150.0
56565,46.04861,-96.31511,Nashua,MN,Minnesota,True,,81.0,1.0,27167,Wilkin,"{""27167"": 75.03, ""27051"": 24.97}",Wilkin|Grant,27167|27051,False,False,America/Chicago,"(46.04861, -96.31511)",146.37440806667442,935474.0,60_0_no,48.164339131000695,-96.4742903357333,150.0
56566,47.24724,-95.61322,Naytahwaush,MN,Minnesota,True,,613.0,17.9,27087,Mahnomen,"{""27087"": 100}",Mahnomen,27087,False,False,America/Chicago,"(47.24724, -95.61322)",74.95259522043126,935474.0,60_0_no,48.164339131000695,-96.4742903357333,150.0
56567,46.54896,-95.36707,New York Mills,MN,Minnesota,True,,3066.0,8.0,27111,Otter Tail,"{""27111"": 100}",Otter Tail,27111,False,False,America/Chicago,"(46.54896, -95.36707)",123.05365452811297,935474.0,60_0_no,48.164339131000695,-96.4742903357333,150.0
56568,47.5292,-96.77925,Nielsville,MN,Minnesota,True,,161.0,2.1,27119,Polk,"{""27119"": 93.33, ""27107"": 6.67}",Polk|Norman,27119|27107,False,False,America/Chicago,"(47.5292, -96.77925)",46.10590389265398,935474.0,60_0_no,48.164339131000695,-96.4742903357333,150.0
56569,47.07482,-95.81956,Ogema,MN,Minnesota,True,,1287.0,3.1,27005,Becker,"{""27005"": 100}",Becker,27005,False,False,America/Chicago,"(47.07482, -95.81956)",81.21895324449622,935474.0,60_0_no,48.164339131000695,-96.4742903357333,150.0
56570,46.91051,-95.35552,Osage,MN,Minnesota,True,,1227.0,4.8,27005,Becker,"{""27005"": 100}",Becker,27005,False,False,America/Chicago,"(46.91051, -95.35552)",101.1325244436087,935474.0,60_0_no,48.164339131000695,-96.4742903357333,150.0
56571,46.43856,-95.53939,Ottertail,MN,Minnesota,True,,1748.0,14.6,27111,Otter Tail,"{""27111"": 100}",Otter Tail,27111,False,False,America/Chicago,"(46.43856, -95.53939)",127.02896236248102,935474.0,60_0_no,48.164339131000695,-96.4742903357333,150.0
56572,46.60485,-96.08682,Pelican Rapids,MN,Minnesota,True,,5531.0,12.5,27111,Otter Tail,"{""27111"": 92.13, ""27027"": 3.94, ""27005"": 3.43, ""27167"": 0.5}",Otter Tail|Clay|Becker|Wilkin,27111|27027|27005|27167,False,False,America/Chicago,"(46.60485, -96.08682)",109.26403529179,935474.0,60_0_no,48.164339131000695,-96.4742903357333,150.0
56573,46.61443,-95.55216,Perham,MN,Minnesota,True,,6498.0,18.2,27111,Otter Tail,"{""27111"": 100}",Otter Tail,27111,False,False,America/Chicago,"(46.61443, -95.55216)",115.44698290677893,935474.0,60_0_no,48.164339131000695,-96.4742903357333,150.0
56574,47.20085,-96.70242,Perley,MN,Minnesota,True,,219.0,1.2,27107,Norman,"{""27107"": 98.56, ""27027"": 1.44}",Norman|Clay,27107|27027,False,False,America/Chicago,"(47.20085, -96.70242)",67.41114522343935,935474.0,60_0_no,48.164339131000695,-96.4742903357333,150.0
56575,47.03827,-95.43146,Ponsford,MN,Minnesota,True,,794.0,2.2,27005,Becker,"{""27005"": 100}",Becker,27005,False,False,America/Chicago,"(47.03827, -95.43146)",91.72506484765994,935474.0,60_0_no,48.164339131000695,-96.4742903357333,150.0
56576,46.47164,-95.70537,Richville,MN,Minnesota,True,,835.0,8.0,27111,Otter Tail,"{""27111"": 100}",Otter Tail,27111,False,False,America/Chicago,"(46.47164, -95.70537)",122.37270633162906,935474.0,60_0_no,48.164339131000695,-96.4742903357333,150.0
56578,46.9264,-95.65563,Rochert,MN,Minnesota,True,,716.0,5.0,27005,Becker,"{""27005"": 100}",Becker,27005,False,False,America/Chicago,"(46.9264, -95.65563)",93.66691937907791,935474.0,60_0_no,48.164339131000695,-96.4742903357333,150.0
56579,46.4688,-96.34229,Rothsay,MN,Minnesota,True,,1044.0,2.0,27167,Wilkin,"{""27167"": 73.05, ""27111"": 26.95}",Wilkin|Otter Tail,27167|27111,False,False,America/Chicago,"(46.4688, -96.34229)",117.31359832832703,935474.0,60_0_no,48.164339131000695,-96.4742903357333,150.0
56580,46.73944,-96.61004,Sabin,MN,Minnesota,True,,1221.0,7.4,27027,Clay,"{""27027"": 100}",Clay,27027,False,False,America/Chicago,"(46.73944, -96.61004)",98.65519019218458,935474.0,60_0_no,48.164339131000695,-96.4742903357333,150.0
56581,47.45725,-96.76141,Shelly,MN,Minnesota,True,,234.0,2.3,27107,Norman,"{""27107"": 100}",Norman,27107,False,False,America/Chicago,"(47.45725, -96.76141)",50.639110275336776,935474.0,60_0_no,48.164339131000695,-96.4742903357333,150.0
56583,46.00332,-96.40667,Tintah,MN,Minnesota,True,,177.0,0.9,27155,Traverse,"{""27155"": 71.7, ""27167"": 28.3}",Traverse|Wilkin,27155|27167,False,False,America/Chicago,"(46.00332, -96.40667)",149.34607102366286,935474.0,60_0_no,48.164339131000695,-96.4742903357333,150.0
56584,47.23087,-96.23496,Twin Valley,MN,Minnesota,True,,1379.0,4.0,27107,Norman,"{""27107"": 100}",Norman,27107,False,False,America/Chicago,"(47.23087, -96.23496)",65.44969139191089,935474.0,60_0_no,48.164339131000695,-96.4742903357333,150.0
56585,47.08896,-96.24492,Ulen,MN,Minnesota,True,,972.0,3.0,27027,Clay,"{""27027"": 66.79, ""27005"": 32.43, ""27107"": 0.78}",Clay|Becker|Norman,27027|27005|27107,False,False,America/Chicago,"(47.08896, -96.24492)",75.06528292218167,935474.0,60_0_no,48.164339131000695,-96.4742903357333,150.0
56586,46.32324,-95.84,Underwood,MN,Minnesota,True,,1850.0,9.7,27111,Otter Tail,"{""27111"": 100}",Otter Tail,27111,False,False,America/Chicago,"(46.32324, -95.84)",130.63947948973944,935474.0,60_0_no,48.164339131000695,-96.4742903357333,150.0
56587,46.63721,-95.8628,Vergas,MN,Minnesota,True,,1372.0,10.0,27111,Otter Tail,"{""27111"": 100}",Otter Tail,27111,False,False,America/Chicago,"(46.63721, -95.8628)",109.32026876923298,935474.0,60_0_no,48.164339131000695,-96.4742903357333,150.0
56588,46.22028,-95.5006,Vining,MN,Minnesota,True,,427.0,3.5,27111,Otter Tail,"{""27111"": 100}",Otter Tail,27111,False,False,America/Chicago,"(46.22028, -95.5006)",141.88509901104686,935474.0,60_0_no,48.164339131000695,-96.4742903357333,150.0
56589,47.17959,-95.71984,Waubun,MN,Minnesota,True,,2234.0,3.5,27087,Mahnomen,"{""27087"": 59.89, ""27005"": 26.2, ""27029"": 13.91}",Mahnomen|Becker|Clearwater,27087|27005|27029,False,False,America/Chicago,"(47.17959, -95.71984)",76.55948111531829,935474.0,60_0_no,48.164339131000695,-96.4742903357333,150.0
56590,46.03514,-96.16093,Wendell,MN,Minnesota,True,,296.0,1.4,27051,Grant,"{""27051"": 99.4, ""27111"": 0.6}",Grant|Otter Tail,27051|27111,False,False,America/Chicago,"(46.03514, -96.16093)",147.84970468554658,935474.0,60_0_no,48.164339131000695,-96.4742903357333,150.0
56591,47.09968,-95.84357,White Earth,MN,Minnesota,True,,155.0,22.3,27005,Becker,"{""27005"": 100}",Becker,27005,False,False,America/Chicago,"(47.09968, -95.84357)",79.20558340615919,935474.0,60_0_no,48.164339131000695,-96.4742903357333,150.0
56592,47.53542,-96.00769,Winger,MN,Minnesota,True,,502.0,3.3,27119,Polk,"{""27119"": 89.96, ""27087"": 10.04}",Polk|Mahnomen,27119|27087,False,False,America/Chicago,"(47.53542, -96.00769)",48.54180440170123,935474.0,60_0_no,48.164339131000695,-96.4742903357333,150.0
56594,46.54906,-96.64493,Wolverton,MN,Minnesota,True,,489.0,2.0,27167,Wilkin,"{""27167"": 100}",Wilkin,27167,False,False,America/Chicago,"(46.54906, -96.64493)",111.89049935045907,935474.0,60_0_no,48.164339131000695,-96.4742903357333,150.0
56601,47.50985,-94.84921,Bemidji,MN,Minnesota,True,,34505.0,35.9,27007,Beltrami,"{""27007"": 83.99, ""27057"": 16.01}",Beltrami|Hubbard,27007|27057,False,False,America/Chicago,"(47.50985, -94.84921)",87.89108769763908,935474.0,60_0_no,48.164339131000695,-96.4742903357333,150.0
56621,47.40975,-95.41597,Bagley,MN,Minnesota,True,,4880.0,5.9,27029,Clearwater,"{""27029"": 98.02, ""27119"": 1.69, ""27087"": 0.29}",Clearwater|Polk|Mahnomen,27029|27119|27087,False,False,America/Chicago,"(47.40975, -95.41597)",71.63716406336638,935474.0,60_0_no,48.164339131000695,-96.4742903357333,150.0
56623,48.59722,-94.56913,Baudette,MN,Minnesota,True,,2471.0,2.1,27077,Lake of the Woods,"{""27077"": 82.75, ""27071"": 17.25}",Lake of the Woods|Koochiching,27077|27071,False,False,America/Chicago,"(48.59722, -94.56913)",92.39968654318842,935474.0,60_0_no,48.164339131000695,-96.4742903357333,150.0
56626,47.36404,-94.18421,Bena,MN,Minnesota,True,,227.0,1.0,27021,Cass,"{""27021"": 100}",Cass,27021,False,False,America/Chicago,"(47.36404, -94.18421)",119.86738844097343,935474.0,60_0_no,48.164339131000695,-96.4742903357333,150.0
56627,48.1953,-94.04118,Big Falls,MN,Minnesota,True,,242.0,0.1,27071,Koochiching,"{""27071"": 100}",Koochiching,27071,False,False,America/Chicago,"(48.1953, -94.04118)",112.11190770555693,935474.0,60_0_no,48.164339131000695,-96.4742903357333,150.0
56628,47.69575,-93.5215,Bigfork,MN,Minnesota,True,,1603.0,1.9,27061,Itasca,"{""27061"": 100}",Itasca,27061,False,False,America/Chicago,"(47.69575, -93.5215)",140.47186108565626,935474.0,60_0_no,48.164339131000695,-96.4742903357333,150.0
56629,48.51494,-94.12546,Birchdale,MN,Minnesota,True,,314.0,0.4,27071,Koochiching,"{""27071"": 100}",Koochiching,27071,False,False,America/Chicago,"(48.51494, -94.12546)",110.55703389486565,935474.0,60_0_no,48.164339131000695,-96.4742903357333,150.0
56630,47.74432,-94.49852,Blackduck,MN,Minnesota,True,,2255.0,2.8,27007,Beltrami,"{""27007"": 71.1, ""27061"": 28.9}",Beltrami|Itasca,27007|27061,False,False,America/Chicago,"(47.74432, -94.49852)",95.91775345597553,935474.0,60_0_no,48.164339131000695,-96.4742903357333,150.0
56633,47.31957,-94.50911,Cass Lake,MN,Minnesota,True,,5095.0,9.1,27021,Cass,"{""27021"": 80.27, ""27007"": 13.57, ""27057"": 6.16}",Cass|Beltrami|Hubbard,27021|27007|27057,False,False,America/Chicago,"(47.31957, -94.50911)",108.36496483573863,935474.0,60_0_no,48.164339131000695,-96.4742903357333,150.0
56634,47.68577,-95.40169,Clearbrook,MN,Minnesota,True,,1723.0,5.5,27029,Clearwater,"{""27029"": 100}",Clearwater,27029,False,False,America/Chicago,"(47.68577, -95.40169)",59.66128119353339,935474.0,60_0_no,48.164339131000695,-96.4742903357333,150.0
56636,47.40283,-93.86518,Deer River,MN,Minnesota,True,,5090.0,4.5,27061,Itasca,"{""27061"": 74.49, ""27021"": 25.51}",Itasca|Cass,27061|27021,False,False,America/Chicago,"(47.40283, -93.86518)",132.0555545758204,935474.0,60_0_no,48.164339131000695,-96.4742903357333,150.0
56637,47.61872,-93.83941,Talmoon,MN,Minnesota,True,,187.0,2.8,27061,Itasca,"{""27061"": 100}",Itasca,27061,False,False,America/Chicago,"(47.61872, -93.83941)",127.75388322932989,935474.0,60_0_no,48.164339131000695,-96.4742903357333,150.0
56639,47.90275,-93.53399,Effie,MN,Minnesota,True,,412.0,0.5,27061,Itasca,"{""27061"": 52.82, ""27071"": 47.18}",Itasca|Koochiching,27061|27071,False,False,America/Chicago,"(47.90275, -93.53399)",137.03742677946403,935474.0,60_0_no,48.164339131000695,-96.4742903357333,150.0
56641,47.19848,-94.25804,Federal Dam,MN,Minnesota,True,,358.0,4.4,27021,Cass,"{""27021"": 100}",Cass,27021,False,False,America/Chicago,"(47.19848, -94.25804)",122.80058401927622,935474.0,60_0_no,48.164339131000695,-96.4742903357333,150.0
56644,47.78095,-95.51263,Gonvick,MN,Minnesota,True,,712.0,2.8,27029,Clearwater,"{""27029"": 95.07, ""27119"": 4.93}",Clearwater|Polk,27029|27119,False,False,America/Chicago,"(47.78095, -95.51263)",51.77285495701207,935474.0,60_0_no,48.164339131000695,-96.4742903357333,150.0
56646,47.78925,-95.62865,Gully,MN,Minnesota,True,,565.0,2.9,27119,Polk,"{""27119"": 91.61, ""27029"": 8.39}",Polk|Clearwater,27119|27029,False,False,America/Chicago,"(47.78925, -95.62865)",46.92000573868959,935474.0,60_0_no,48.164339131000695,-96.4742903357333,150.0
56647,47.68782,-94.62187,Hines,MN,Minnesota,True,,695.0,3.4,27007,Beltrami,"{""27007"": 100}",Beltrami,27007,False,False,America/Chicago,"(47.68782, -94.62187)",91.86427464513673,935474.0,60_0_no,48.164339131000695,-96.4742903357333,150.0
56650,47.9979,-94.56351,Kelliher,MN,Minnesota,True,,907.0,2.0,27007,Beltrami,"{""27007"": 100}",Beltrami,27007,False,False,America/Chicago,"(47.9979, -94.56351)",88.94533526679919,935474.0,60_0_no,48.164339131000695,-96.4742903357333,150.0
56651,47.43883,-95.6172,Lengby,MN,Minnesota,True,,634.0,3.5,27087,Mahnomen,"{""27087"": 82.59, ""27119"": 17.41}",Mahnomen|Polk,27087|27119,False,False,America/Chicago,"(47.43883, -95.6172)",63.991802938789576,935474.0,60_0_no,48.164339131000695,-96.4742903357333,150.0
56652,47.71104,-95.23721,Leonard,MN,Minnesota,True,,474.0,2.8,27029,Clearwater,"{""27029"": 88.41, ""27007"": 11.59}",Clearwater|Beltrami,27029|27007,False,False,America/Chicago,"(47.71104, -95.23721)",65.26693150573821,935474.0,60_0_no,48.164339131000695,-96.4742903357333,150.0
56653,48.28327,-93.58558,Littlefork,MN,Minnesota,True,,1340.0,1.1,27071,Koochiching,"{""27071"": 100}",Koochiching,27071,False,False,America/Chicago,"(48.28327, -93.58558)",133.2177009443212,935474.0,60_0_no,48.164339131000695,-96.4742903357333,150.0
56654,48.47285,-93.94153,Loman,MN,Minnesota,True,,116.0,0.4,27071,Koochiching,"{""27071"": 100}",Koochiching,27071,False,False,America/Chicago,"(48.47285, -93.94153)",118.30125574707286,935474.0,60_0_no,48.164339131000695,-96.4742903357333,150.0
56655,46.98292,-94.23014,Longville,MN,Minnesota,True,,1452.0,5.9,27021,Cass,"{""27021"": 100}",Cass,27021,False,False,America/Chicago,"(46.98292, -94.23014)",132.67753730314402,935474.0,60_0_no,48.164339131000695,-96.4742903357333,150.0
56657,47.57237,-93.61544,Marcell,MN,Minnesota,True,,247.0,1.8,27061,Itasca,"{""27061"": 100}",Itasca,27061,False,False,America/Chicago,"(47.57237, -93.61544)",138.66777401536572,935474.0,60_0_no,48.164339131000695,-96.4742903357333,150.0
56659,47.62116,-94.01899,Max,MN,Minnesota,True,,99.0,1.2,27061,Itasca,"{""27061"": 100}",Itasca,27061,False,False,America/Chicago,"(47.62116, -94.01899)",119.77539629659434,935474.0,60_0_no,48.164339131000695,-96.4742903357333,150.0
56660,47.96653,-94.17022,Mizpah,MN,Minnesota,True,,305.0,0.9,27071,Koochiching,"{""27071"": 100}",Koochiching,27071,False,False,America/Chicago,"(47.96653, -94.17022)",107.25792418847865,935474.0,60_0_no,48.164339131000695,-96.4742903357333,150.0
56661,47.84302,-94.13856,Northome,MN,Minnesota,True,,1030.0,1.1,27071,Koochiching,"{""27071"": 49.63, ""27061"": 43.96, ""27007"": 6.41}",Koochiching|Itasca|Beltrami,27071|27061|27007,False,False,America/Chicago,"(47.84302, -94.13856)",110.23300328374778,935474.0,60_0_no,48.164339131000695,-96.4742903357333,150.0
56662,46.84524,-93.89926,Outing,MN,Minnesota,True,,438.0,2.8,27021,Cass,"{""27021"": 100}",Cass,27021,False,False,America/Chicago,"(46.84524, -93.89926)",150.82346968308295,935474.0,60_0_no,48.164339131000695,-96.4742903357333,150.0
56663,47.49997,-94.45431,Pennington,MN,Minnesota,True,,201.0,1.9,27007,Beltrami,"{""27007"": 100}",Beltrami,27007,False,False,America/Chicago,"(47.49997, -94.45431)",104.32837328613635,935474.0,60_0_no,48.164339131000695,-96.4742903357333,150.0
56666,48.03391,-94.8365,Ponemah,MN,Minnesota,True,,1085.0,9.9,27007,Beltrami,"{""27007"": 100}",Beltrami,27007,False,False,America/Chicago,"(48.03391, -94.8365)",76.1074939987114,935474.0,60_0_no,48.164339131000695,-96.4742903357333,150.0
56667,47.73569,-94.94199,Puposky,MN,Minnesota,True,,750.0,3.0,27007,Beltrami,"{""27007"": 100}",Beltrami,27007,False,False,America/Chicago,"(47.73569, -94.94199)",76.8453769997657,935474.0,60_0_no,48.164339131000695,-96.4742903357333,150.0
56668,48.61454,-93.3467,Ranier,MN,Minnesota,True,,126.0,237.5,27071,Koochiching,"{""27071"": 100}",Koochiching,27071,False,False,America/Winnipeg,"(48.61454, -93.3467)",146.82267203653456,935474.0,60_0_no,48.164339131000695,-96.4742903357333,150.0
56670,47.85001,-94.86912,Redby,MN,Minnesota,True,,1548.0,21.2,27007,Beltrami,"{""27007"": 100}",Beltrami,27007,False,False,America/Chicago,"(47.85001, -94.86912)",77.31210961329037,935474.0,60_0_no,48.164339131000695,-96.4742903357333,150.0
56671,47.94006,-95.31791,Redlake,MN,Minnesota,True,,3144.0,3.8,27029,Clearwater,"{""27029"": 58.11, ""27007"": 41.89}",Clearwater|Beltrami,27029|27007,False,False,America/Chicago,"(47.94006, -95.31791)",55.610289190737745,935474.0,60_0_no,48.164339131000695,-96.4742903357333,150.0
56672,47.0734,-94.02267,Remer,MN,Minnesota,True,,1947.0,1.9,27021,Cass,"{""27021"": 100}",Cass,27021,False,False,America/Chicago,"(47.0734, -94.02267)",136.80531891386048,935474.0,60_0_no,48.164339131000695,-96.4742903357333,150.0
56673,48.74365,-95.13896,Roosevelt,MN,Minnesota,True,,628.0,1.2,27077,Lake of the Woods,"{""27077"": 81.19, ""27135"": 18.81}",Lake of the Woods|Roseau,27077|27135,False,False,America/Chicago,"(48.74365, -95.13896)",73.11738068699697,935474.0,60_0_no,48.164339131000695,-96.4742903357333,150.0
56676,47.52188,-95.19877,Shevlin,MN,Minnesota,True,,1635.0,2.9,27029,Clearwater,"{""27029"": 61.48, ""27007"": 38.52}",Clearwater|Beltrami,27029|27007,False,False,America/Chicago,"(47.52188, -95.19877)",73.95184015658124,935474.0,60_0_no,48.164339131000695,-96.4742903357333,150.0
56678,47.4298,-95.11768,Solway,MN,Minnesota,True,,1335.0,4.1,27007,Beltrami,"{""27007"": 52.41, ""27057"": 43.0, ""27029"": 4.59}",Beltrami|Hubbard|Clearwater,27007|27057|27029,False,False,America/Chicago,"(47.4298, -95.11768)",80.87081956132418,935474.0,60_0_no,48.164339131000695,-96.4742903357333,150.0
56680,47.6456,-93.96124,Spring Lake,MN,Minnesota,True,,118.0,2.0,27061,Itasca,"{""27061"": 100}",Itasca,27061,False,False,America/Chicago,"(47.6456, -93.96124)",121.78503640150377,935474.0,60_0_no,48.164339131000695,-96.4742903357333,150.0
56681,47.5488,-94.25132,Squaw Lake,MN,Minnesota,True,,269.0,0.6,27061,Itasca,"{""27061"": 100}",Itasca,27061,False,False,America/Chicago,"(47.5488, -94.25132)",111.48412872505138,935474.0,60_0_no,48.164339131000695,-96.4742903357333,150.0
56683,47.72124,-94.7512,Tenstrike,MN,Minnesota,True,,658.0,4.4,27007,Beltrami,"{""27007"": 100}",Beltrami,27007,False,False,America/Chicago,"(47.72124, -94.7512)",85.42318125324614,935474.0,60_0_no,48.164339131000695,-96.4742903357333,150.0
56684,47.87109,-95.70401,Trail,MN,Minnesota,True,,279.0,0.9,27119,Polk,"{""27119"": 62.13, ""27113"": 33.0, ""27125"": 4.87}",Polk|Pennington|Red Lake,27119|27113|27125,False,False,America/Chicago,"(47.87109, -95.70401)",40.961592188216976,935474.0,60_0_no,48.164339131000695,-96.4742903357333,150.0
56685,48.23841,-94.51997,Waskish,MN,Minnesota,True,,132.0,0.4,27007,Beltrami,"{""27007"": 100}",Beltrami,27007,False,False,America/Chicago,"(48.23841, -94.51997)",90.14285658669338,935474.0,60_0_no,48.164339131000695,-96.4742903357333,150.0
56686,48.78595,-94.91001,Williams,MN,Minnesota,True,,1038.0,2.2,27077,Lake of the Woods,"{""27077"": 100}",Lake of the Woods,27077,False,False,America/Chicago,"(48.78595, -94.91001)",83.53581158677979,935474.0,60_0_no,48.164339131000695,-96.4742903357333,150.0
56688,47.7699,-93.89172,Wirt,MN,Minnesota,True,,92.0,0.3,27061,Itasca,"{""27061"": 100}",Itasca,27061,False,False,America/Chicago,"(47.7699, -93.89172)",122.53721132027381,935474.0,60_0_no,48.164339131000695,-96.4742903357333,150.0
56701,48.12021,-96.1994,Thief River Falls,MN,Minnesota,True,,13061.0,13.2,27113,Pennington,"{""27113"": 74.39, ""27089"": 23.77, ""27119"": 1.84}",Pennington|Marshall|Polk,27113|27089|27119,False,False,America/Chicago,"(48.12021, -96.1994)",13.035383545397497,935474.0,60_0_no,48.164339131000695,-96.4742903357333,150.0
56710,48.2182,-96.99776,Alvarado,MN,Minnesota,True,,543.0,4.7,27089,Marshall,"{""27089"": 81.42, ""27119"": 18.58}",Marshall|Polk,27089|27119,False,False,America/Chicago,"(48.2182, -96.99776)",24.396908093292,935474.0,60_0_no,48.164339131000695,-96.4742903357333,150.0
56713,48.3487,-96.81717,Argyle,MN,Minnesota,True,,1050.0,2.2,27089,Marshall,"{""27089"": 100}",Marshall,27089,False,False,America/Chicago,"(48.3487, -96.81717)",20.27442971337108,935474.0,60_0_no,48.164339131000695,-96.4742903357333,150.0
56714,48.78845,-96.00529,Badger,MN,Minnesota,True,,1229.0,2.3,27135,Roseau,"{""27135"": 100}",Roseau,27135,False,False,America/Chicago,"(48.78845, -96.00529)",48.17633951705394,935474.0,60_0_no,48.164339131000695,-96.4742903357333,150.0
56715,47.80636,-95.94904,Brooks,MN,Minnesota,True,,327.0,2.1,27125,Red Lake,"{""27125"": 95.85, ""27119"": 4.15}",Red Lake|Polk,27125|27119,False,False,America/Chicago,"(47.80636, -95.94904)",34.66684333856152,935474.0,60_0_no,48.164339131000695,-96.4742903357333,150.0
56716,47.74189,-96.55522,Crookston,MN,Minnesota,True,,9293.0,11.0,27119,Polk,"{""27119"": 98.5, ""27125"": 1.5}",Polk|Red Lake,27119|27125,False,False,America/Chicago,"(47.74189, -96.55522)",29.427716223621157,935474.0,60_0_no,48.164339131000695,-96.4742903357333,150.0
56720,48.56788,-96.90632,Donaldson,MN,Minnesota,True,,7.0,0.3,27069,Kittson,"{""27069"": 100}",Kittson,27069,False,False,America/Chicago,"(48.56788, -96.90632)",34.215393326592654,935474.0,60_0_no,48.164339131000695,-96.4742903357333,150.0
56721,47.97108,-96.94336,East Grand Forks,MN,Minnesota,True,,10296.0,20.7,27119,Polk,"{""27119"": 100}",Polk,27119,False,False,America/Chicago,"(47.97108, -96.94336)",25.44321928306634,935474.0,60_0_no,48.164339131000695,-96.4742903357333,150.0
56722,47.9825,-96.64644,Euclid,MN,Minnesota,True,,402.0,1.1,27119,Polk,"{""27119"": 100}",Polk,27119,False,False,America/Chicago,"(47.9825, -96.64644)",14.866573595122308,935474.0,60_0_no,48.164339131000695,-96.4742903357333,150.0
56723,47.80493,-96.8059,Fisher,MN,Minnesota,True,,881.0,2.8,27119,Polk,"{""27119"": 100}",Polk,27119,False,False,America/Chicago,"(47.80493, -96.8059)",29.186443025117462,935474.0,60_0_no,48.164339131000695,-96.4742903357333,150.0
56724,48.44534,-95.73473,Gatzke,MN,Minnesota,True,,107.0,0.3,27089,Marshall,"{""27089"": 98.38, ""27135"": 1.62}",Marshall|Roseau,27089|27135,False,False,America/Chicago,"(48.44534, -95.73473)",39.14334222504407,935474.0,60_0_no,48.164339131000695,-96.4742903357333,150.0
56725,48.1477,-95.70485,Goodridge,MN,Minnesota,True,,880.0,0.8,27113,Pennington,"{""27113"": 42.4, ""27089"": 30.15, ""27007"": 27.45}",Pennington|Marshall|Beltrami,27113|27089|27007,False,False,America/Chicago,"(48.1477, -95.70485)",35.483932909829974,935474.0,60_0_no,48.164339131000695,-96.4742903357333,150.0
56726,48.7258,-96.22712,Greenbush,MN,Minnesota,True,,1600.0,2.3,27135,Roseau,"{""27135"": 100}",Roseau,27135,False,False,America/Chicago,"(48.7258, -96.22712)",40.41340663936369,935474.0,60_0_no,48.164339131000695,-96.4742903357333,150.0
56727,48.34945,-95.38946,Grygla,MN,Minnesota,True,,993.0,0.6,27007,Beltrami,"{""27007"": 85.35, ""27089"": 14.65}",Beltrami|Marshall,27007|27089,False,False,America/Chicago,"(48.34945, -95.38946)",51.51658933009996,935474.0,60_0_no,48.164339131000695,-96.4742903357333,150.0
56728,48.78736,-96.99149,Hallock,MN,Minnesota,True,,1287.0,2.6,27069,Kittson,"{""27069"": 100}",Kittson,27069,False,False,America/Chicago,"(48.78736, -96.99149)",49.13454881666999,935474.0,60_0_no,48.164339131000695,-96.4742903357333,150.0
56729,48.66558,-96.59438,Halma,MN,Minnesota,True,,94.0,0.8,27069,Kittson,"{""27069"": 100}",Kittson,27069,False,False,America/Chicago,"(48.66558, -96.59438)",35.067578774569704,935474.0,60_0_no,48.164339131000695,-96.4742903357333,150.0
56731,48.90771,-97.07475,Humboldt,MN,Minnesota,True,,132.0,1.3,27069,Kittson,"{""27069"": 100}",Kittson,27069,False,False,America/Chicago,"(48.90771, -97.07475)",58.246592612374045,935474.0,60_0_no,48.164339131000695,-96.4742903357333,150.0
56732,48.5863,-96.49276,Karlstad,MN,Minnesota,True,,1030.0,2.5,27069,Kittson,"{""27069"": 70.59, ""27089"": 18.09, ""27135"": 11.32}",Kittson|Marshall|Roseau,27069|27089|27135,False,False,America/Chicago,"(48.5863, -96.49276)",29.167039159609608,935474.0,60_0_no,48.164339131000695,-96.4742903357333,150.0
56733,48.63342,-96.89149,Kennedy,MN,Minnesota,True,,328.0,0.8,27069,Kittson,"{""27069"": 100}",Kittson,27069,False,False,America/Chicago,"(48.63342, -96.89149)",37.63919649687723,935474.0,60_0_no,48.164339131000695,-96.4742903357333,150.0
56734,48.76776,-96.58134,Lake Bronson,MN,Minnesota,True,,615.0,1.4,27069,Kittson,"{""27069"": 100}",Kittson,27069,False,False,America/Chicago,"(48.76776, -96.58134)",41.97985513125721,935474.0,60_0_no,48.164339131000695,-96.4742903357333,150.0
56735,48.91328,-96.63659,Lancaster,MN,Minnesota,True,,769.0,0.8,27069,Kittson,"{""27069"": 81.23, ""27135"": 18.77}",Kittson|Roseau,27069|27135,False,False,America/Chicago,"(48.91328, -96.63659)",52.27680479252291,935474.0,60_0_no,48.164339131000695,-96.4742903357333,150.0
56736,47.71212,-96.20567,Mentor,MN,Minnesota,True,,768.0,2.7,27119,Polk,"{""27119"": 84.95, ""27125"": 15.05}",Polk|Red Lake,27119|27125,False,False,America/Chicago,"(47.71212, -96.20567)",33.628407635036304,935474.0,60_0_no,48.164339131000695,-96.4742903357333,150.0
56737,48.41144,-96.01081,Middle River,MN,Minnesota,True,,813.0,1.3,27089,Marshall,"{""27089"": 100}",Marshall,27089,False,False,America/Chicago,"(48.41144, -96.01081)",27.304133960441728,935474.0,60_0_no,48.164339131000695,-96.4742903357333,150.0
56738,48.34448,-96.33456,Newfolden,MN,Minnesota,True,,1516.0,3.2,27089,Marshall,"{""27089"": 100}",Marshall,27089,False,False,America/Chicago,"(48.34448, -96.33456)",14.008486629596922,935474.0,60_0_no,48.164339131000695,-96.4742903357333,150.0
56742,47.92728,-95.82076,Oklee,MN,Minnesota,True,,988.0,3.5,27125,Red Lake,"{""27125"": 68.8, ""27113"": 27.15, ""27119"": 4.05}",Red Lake|Pennington|Polk,27125|27113|27119,False,False,America/Chicago,"(47.92728, -95.82076)",34.34462965281691,935474.0,60_0_no,48.164339131000695,-96.4742903357333,150.0
56744,48.23456,-97.1089,Oslo,MN,Minnesota,True,,492.0,2.0,27089,Marshall,"{""27089"": 49.96, ""27119"": 23.26, ""38099"": 23.11, ""38035"": 3.67}",Marshall|Polk|Walsh|Grand Forks,27089|27119|38099|38035,False,False,America/Chicago,"(48.23456, -97.1089)",29.62589290366453,935474.0,60_0_no,48.164339131000695,-96.4742903357333,150.0
56748,47.92066,-96.00743,Plummer,MN,Minnesota,True,,625.0,2.7,27125,Red Lake,"{""27125"": 80.54, ""27113"": 19.46}",Red Lake|Pennington,27125|27113,False,False,America/Chicago,"(47.92066, -96.00743)",27.360086961374808,935474.0,60_0_no,48.164339131000695,-96.4742903357333,150.0
56750,47.89027,-96.30172,Red Lake Falls,MN,Minnesota,True,,2257.0,3.7,27125,Red Lake,"{""27125"": 79.33, ""27113"": 13.89, ""27119"": 6.78}",Red Lake|Pennington|Polk,27125|27113|27119,False,False,America/Chicago,"(47.89027, -96.30172)",20.546837114807428,935474.0,60_0_no,48.164339131000695,-96.4742903357333,150.0
56751,48.80929,-95.76035,Roseau,MN,Minnesota,True,,5588.0,4.6,27135,Roseau,"{""27135"": 100}",Roseau,27135,False,False,America/Chicago,"(48.80929, -95.76035)",55.26874751422512,935474.0,60_0_no,48.164339131000695,-96.4742903357333,150.0
56754,47.99065,-96.18199,Saint Hilaire,MN,Minnesota,True,,589.0,5.9,27113,Pennington,"{""27113"": 91.0, ""27125"": 9.0}",Pennington|Red Lake,27113|27125,False,False,America/Chicago,"(47.99065, -96.18199)",18.058002805156026,935474.0,60_0_no,48.164339131000695,-96.4742903357333,150.0
56755,48.97141,-97.1152,Saint Vincent,MN,Minnesota,True,,67.0,0.6,27069,Kittson,"{""27069"": 100}",Kittson,27069,False,False,America/Chicago,"(48.97141, -97.1152)",62.99326064577383,935474.0,60_0_no,48.164339131000695,-96.4742903357333,150.0
56756,48.90302,-95.56388,Salol,MN,Minnesota,True,,649.0,1.9,27135,Roseau,"{""27135"": 100}",Roseau,27135,False,False,America/Chicago,"(48.90302, -95.56388)",65.87669573628669,935474.0,60_0_no,48.164339131000695,-96.4742903357333,150.0
56757,48.47641,-96.90596,Stephen,MN,Minnesota,True,,843.0,1.4,27089,Marshall,"{""27089"": 94.96, ""27069"": 5.04}",Marshall|Kittson,27089|27069,False,False,America/Chicago,"(48.47641, -96.90596)",29.296093988545934,935474.0,60_0_no,48.164339131000695,-96.4742903357333,150.0
56758,48.46201,-96.51891,Strandquist,MN,Minnesota,True,,295.0,1.1,27089,Marshall,"{""27089"": 100}",Marshall,27089,False,False,America/Chicago,"(48.46201, -96.51891)",20.66904242332674,935474.0,60_0_no,48.164339131000695,-96.4742903357333,150.0
56759,48.55188,-96.08011,Strathcona,MN,Minnesota,True,,290.0,0.7,27135,Roseau,"{""27135"": 63.75, ""27089"": 36.25}",Roseau|Marshall,27135|27089,False,False,America/Chicago,"(48.55188, -96.08011)",32.31842041416289,935474.0,60_0_no,48.164339131000695,-96.4742903357333,150.0
56760,48.24037,-96.44586,Viking,MN,Minnesota,True,,391.0,1.8,27089,Marshall,"{""27089"": 100}",Marshall,27089,False,False,America/Chicago,"(48.24037, -96.44586)",5.4139235122694656,935474.0,60_0_no,48.164339131000695,-96.4742903357333,150.0
56761,48.60862,-95.69725,Wannaska,MN,Minnesota,True,,440.0,1.7,27135,Roseau,"{""27135"": 100}",Roseau,27135,False,False,America/Chicago,"(48.60862, -95.69725)",47.047923584471725,935474.0,60_0_no,48.164339131000695,-96.4742903357333,150.0
56762,48.1688,-96.7415,Warren,MN,Minnesota,True,,2515.0,2.9,27119,Polk,"{""27119"": 51.75, ""27089"": 48.25}",Polk|Marshall,27119|27089,False,False,America/Chicago,"(48.1688, -96.7415)",12.317687530545815,935474.0,60_0_no,48.164339131000695,-96.4742903357333,150.0
56763,48.80879,-95.34167,Warroad,MN,Minnesota,True,,5150.0,7.6,27135,Roseau,"{""27135"": 100}",Roseau,27135,False,False,America/Chicago,"(48.80879, -95.34167)",68.35787990987775,935474.0,60_0_no,48.164339131000695,-96.4742903357333,150.0
58002,46.97562,-97.40785,Absaraka,ND,North Dakota,True,,5.0,0.6,38017,Cass,"{""38017"": 100}",Cass,38017,False,False,America/Chicago,"(46.97562, -97.40785)",92.9482413724909,935474.0,60_0_no,48.164339131000695,-96.4742903357333,150.0
58004,47.02713,-97.26212,Amenia,ND,North Dakota,True,,298.0,2.2,38017,Cass,"{""38017"": 100}",Cass,38017,False,False,America/Chicago,"(47.02713, -97.26212)",86.72412293273848,935474.0,60_0_no,48.164339131000695,-96.4742903357333,150.0
58005,47.05261,-96.951,Argusville,ND,North Dakota,True,,1034.0,3.9,38017,Cass,"{""38017"": 100}",Cass,38017,False,False,America/Chicago,"(47.05261, -96.951)",79.95815674293347,935474.0,60_0_no,48.164339131000695,-96.4742903357333,150.0
58006,47.09682,-97.20359,Arthur,ND,North Dakota,True,,363.0,2.8,38017,Cass,"{""38017"": 100}",Cass,38017,False,False,America/Chicago,"(47.09682, -97.20359)",81.19922283919261,935474.0,60_0_no,48.164339131000695,-96.4742903357333,150.0
58007,47.02519,-97.45724,Ayr,ND,North Dakota,True,,94.0,0.7,38017,Cass,"{""38017"": 100}",Cass,38017,False,False,America/Chicago,"(47.02519, -97.45724)",91.06153855656454,935474.0,60_0_no,48.164339131000695,-96.4742903357333,150.0
58008,46.30816,-97.00237,Barney,ND,North Dakota,True,,172.0,1.2,38077,Richland,"{""38077"": 100}",Richland,38077,False,False,America/Chicago,"(46.30816, -97.00237)",130.61965501002595,935474.0,60_0_no,48.164339131000695,-96.4742903357333,150.0
58009,47.32658,-97.24435,Blanchard,ND,North Dakota,True,,35.0,0.4,38097,Traill,"{""38097"": 100}",Traill,38097,False,False,America/Chicago,"(47.32658, -97.24435)",68.04705110818827,935474.0,60_0_no,48.164339131000695,-96.4742903357333,150.0
58011,46.92711,-97.54465,Buffalo,ND,North Dakota,True,,527.0,1.8,38017,Cass,"{""38017"": 100}",Cass,38017,False,False,America/Chicago,"(46.92711, -97.54465)",98.99023014878608,935474.0,60_0_no,48.164339131000695,-96.4742903357333,150.0
58012,46.93639,-97.16113,Casselton,ND,North Dakota,True,,3021.0,15.9,38017,Cass,"{""38017"": 100}",Cass,38017,False,False,America/Chicago,"(46.93639, -97.16113)",90.68688075955916,935474.0,60_0_no,48.164339131000695,-96.4742903357333,150.0
58013,46.06037,-97.35877,Cayuga,ND,North Dakota,True,,130.0,0.7,38081,Sargent,"{""38081"": 100}",Sargent,38081,False,False,America/Chicago,"(46.06037, -97.35877)",151.1999652421565,935474.0,60_0_no,48.164339131000695,-96.4742903357333,150.0
58015,46.59225,-96.81544,Christine,ND,North Dakota,True,,229.0,4.2,38077,Richland,"{""38077"": 100}",Richland,38077,False,False,America/Chicago,"(46.59225, -96.81544)",109.78713993964928,935474.0,60_0_no,48.164339131000695,-96.4742903357333,150.0
58016,47.36609,-97.46293,Clifford,ND,North Dakota,True,,191.0,1.1,38097,Traill,"{""38097"": 54.6, ""38091"": 45.4}",Traill|Steele,38097|38091,False,False,America/Chicago,"(47.36609, -97.46293)",71.76302583419759,935474.0,60_0_no,48.164339131000695,-96.4742903357333,150.0
58017,46.04157,-97.84535,Cogswell,ND,North Dakota,True,,284.0,0.6,38081,Sargent,"{""38081"": 100}",Sargent,38081,False,False,America/Chicago,"(46.04157, -97.84535)",160.2110793856545,935474.0,60_0_no,48.164339131000695,-96.4742903357333,150.0
58018,46.43458,-96.8887,Colfax,ND,North Dakota,True,,495.0,2.6,38077,Richland,"{""38077"": 100}",Richland,38077,False,False,America/Chicago,"(46.43458, -96.8887)",121.08160159405624,935474.0,60_0_no,48.164339131000695,-96.4742903357333,150.0
58021,46.73837,-97.08102,Davenport,ND,North Dakota,True,,501.0,3.0,38017,Cass,"{""38017"": 100}",Cass,38017,False,False,America/Chicago,"(46.73837, -97.08102)",102.52116282792088,935474.0,60_0_no,48.164339131000695,-96.4742903357333,150.0
58027,46.63217,-97.61816,Enderlin,ND,North Dakota,True,,1375.0,2.9,38073,Ransom,"{""38073"": 44.5, ""38017"": 41.51, ""38003"": 13.99}",Ransom|Cass|Barnes,38073|38017|38003,False,False,America/Chicago,"(46.63217, -97.61816)",118.60915251104387,935474.0,60_0_no,48.164339131000695,-96.4742903357333,150.0
58029,47.11726,-97.39001,Erie,ND,North Dakota,True,,47.0,0.4,38017,Cass,"{""38017"": 100}",Cass,38017,False,False,America/Chicago,"(47.11726, -97.39001)",83.97049322733915,935474.0,60_0_no,48.164339131000695,-96.4742903357333,150.0
58030,46.03035,-96.66818,Fairmount,ND,North Dakota,True,,613.0,1.8,38077,Richland,"{""38077"": 98.67, ""27167"": 1.33}",Richland|Wilkin,38077|27167,False,False,America/Chicago,"(46.03035, -96.66818)",147.72622663520053,935474.0,60_0_no,48.164339131000695,-96.4742903357333,150.0
58031,46.76222,-97.6686,Fingal,ND,North Dakota,True,,417.0,1.1,38017,Cass,"{""38017"": 53.79, ""38003"": 46.21}",Cass|Barnes,38017|38003,False,False,America/Chicago,"(46.76222, -97.6686)",111.78872903364429,935474.0,60_0_no,48.164339131000695,-96.4742903357333,150.0
58032,46.07071,-97.64413,Forman,ND,North Dakota,True,,651.0,2.3,38081,Sargent,"{""38081"": 100}",Sargent,38081,False,False,America/Chicago,"(46.07071, -97.64413)",154.75516353342783,935474.0,60_0_no,48.164339131000695,-96.4742903357333,150.0
58033,46.44019,-97.92628,Fort Ransom,ND,North Dakota,True,,491.0,1.3,38073,Ransom,"{""38073"": 100}",Ransom,38073,False,False,America/Chicago,"(46.44019, -97.92628)",137.17861947679202,935474.0,60_0_no,48.164339131000695,-96.4742903357333,150.0
58035,47.25599,-97.41589,Galesburg,ND,North Dakota,True,,244.0,1.0,38097,Traill,"{""38097"": 42.33, ""38017"": 33.66, ""38091"": 24.01}",Traill|Cass|Steele,38097|38017|38091,False,False,America/Chicago,"(47.25599, -97.41589)",76.51870770590328,935474.0,60_0_no,48.164339131000695,-96.4742903357333,150.0
58036,47.15463,-96.96318,Gardner,ND,North Dakota,True,,221.0,1.0,38017,Cass,"{""38017"": 100}",Cass,38017,False,False,America/Chicago,"(47.15463, -96.96318)",73.37992684765365,935474.0,60_0_no,48.164339131000695,-96.4742903357333,150.0
58038,47.24505,-96.99484,Grandin,ND,North Dakota,True,,251.0,1.2,38097,Traill,"{""38097"": 59.94, ""38017"": 40.06}",Traill|Cass,38097|38017,False,False,America/Chicago,"(47.24505, -96.99484)",67.9716807008437,935474.0,60_0_no,48.164339131000695,-96.4742903357333,150.0
58040,46.21618,-97.75204,Gwinner,ND,North Dakota,True,,1187.0,6.1,38081,Sargent,"{""38081"": 100}",Sargent,38081,False,False,America/Chicago,"(46.21618, -97.75204)",147.36432486565124,935474.0,60_0_no,48.164339131000695,-96.4742903357333,150.0
58041,46.04775,-96.91006,Hankinson,ND,North Dakota,True,,1565.0,3.1,38077,Richland,"{""38077"": 99.24, ""46109"": 0.76}",Richland|Roberts,38077|46109,False,False,America/Chicago,"(46.04775, -96.91006)",147.67056934791262,935474.0,60_0_no,48.164339131000695,-96.4742903357333,150.0
58042,46.96952,-96.95719,Harwood,ND,North Dakota,True,,1334.0,11.9,38017,Cass,"{""38017"": 100}",Cass,38017,False,False,America/Chicago,"(46.96952, -96.95719)",85.56816017925571,935474.0,60_0_no,48.164339131000695,-96.4742903357333,150.0
58045,47.38241,-97.02686,Hillsboro,ND,North Dakota,True,,2003.0,3.7,38097,Traill,"{""38097"": 100}",Traill,38097,False,False,America/Chicago,"(47.38241, -97.02686)",59.80923772487196,935474.0,60_0_no,48.164339131000695,-96.4742903357333,150.0
58046,47.32203,-97.72747,Hope,ND,North Dakota,True,,527.0,0.9,38091,Steele,"{""38091"": 85.34, ""38003"": 13.0, ""38017"": 1.66}",Steele|Barnes|Cass,38091|38003|38017,False,False,America/Chicago,"(47.32203, -97.72747)",82.32168601397582,935474.0,60_0_no,48.164339131000695,-96.4742903357333,150.0
58047,46.7159,-96.87946,Horace,ND,North Dakota,True,,4075.0,22.4,38017,Cass,"{""38017"": 97.37, ""38077"": 2.63}",Cass|Richland,38017|38077,False,False,America/Chicago,"(46.7159, -96.87946)",101.85260130020346,935474.0,60_0_no,48.164339131000695,-96.4742903357333,150.0
58048,47.19882,-97.22742,Hunter,ND,North Dakota,True,,484.0,1.7,38017,Cass,"{""38017"": 76.12, ""38097"": 23.88}",Cass|Traill,38017|38097,False,False,America/Chicago,"(47.19882, -97.22742)",75.3495791672191,935474.0,60_0_no,48.164339131000695,-96.4742903357333,150.0
58049,46.66291,-98.00054,Kathryn,ND,North Dakota,True,,304.0,0.9,38003,Barnes,"{""38003"": 69.78, ""38073"": 22.68, ""38045"": 7.54}",Barnes|Ransom|LaMoure,38003|38073|38045,False,False,America/Chicago,"(46.66291, -98.00054)",125.90715525406155,935474.0,60_0_no,48.164339131000695,-96.4742903357333,150.0
58051,46.63952,-97.0302,Kindred,ND,North Dakota,True,,1781.0,6.2,38017,Cass,"{""38017"": 59.32, ""38077"": 40.68}",Cass|Richland,38017|38077,False,False,America/Chicago,"(46.63952, -97.0302)",108.5143427860931,935474.0,60_0_no,48.164339131000695,-96.4742903357333,150.0
58052,46.63552,-97.28011,Leonard,ND,North Dakota,True,,602.0,1.5,38017,Cass,"{""38017"": 55.98, ""38077"": 32.91, ""38073"": 11.11}",Cass|Richland|Ransom,38017|38077|38073,False,False,America/Chicago,"(46.63552, -97.28011)",112.15099703682677,935474.0,60_0_no,48.164339131000695,-96.4742903357333,150.0
58053,46.05058,-97.18007,Lidgerwood,ND,North Dakota,True,,1184.0,2.0,38077,Richland,"{""38077"": 71.39, ""38081"": 20.86, ""46109"": 5.8, ""46091"": 1.95}",Richland|Sargent|Roberts|Marshall,38077|38081|46109|46091,False,False,America/Chicago,"(46.05058, -97.18007)",149.76890448402247,935474.0,60_0_no,48.164339131000695,-96.4742903357333,150.0
58054,46.42622,-97.66845,Lisbon,ND,North Dakota,True,,2804.0,3.8,38073,Ransom,"{""38073"": 100}",Ransom,38073,False,False,America/Chicago,"(46.42622, -97.66845)",132.48581635030018,935474.0,60_0_no,48.164339131000695,-96.4742903357333,150.0
58056,47.23868,-97.93621,Luverne,ND,North Dakota,True,,129.0,0.6,38003,Barnes,"{""38003"": 43.57, ""38091"": 43.43, ""38039"": 13.0}",Barnes|Steele|Griggs,38003|38091|38039,False,False,America/Chicago,"(47.23868, -97.93621)",93.33246521272511,935474.0,60_0_no,48.164339131000695,-96.4742903357333,150.0
58057,46.42548,-97.26747,Mcleod,ND,North Dakota,True,,141.0,0.6,38077,Richland,"{""38077"": 58.57, ""38073"": 41.43}",Richland|Ransom,38077|38073,False,False,America/Chicago,"(46.42548, -97.26747)",125.75994779945889,935474.0,60_0_no,48.164339131000695,-96.4742903357333,150.0
58058,46.1806,-96.97159,Mantador,ND,North Dakota,True,,118.0,2.0,38077,Richland,"{""38077"": 100}",Richland,38077,False,False,America/Chicago,"(46.1806, -96.97159)",139.0384615862564,935474.0,60_0_no,48.164339131000695,-96.4742903357333,150.0
58059,46.83825,-97.11812,Mapleton,ND,North Dakota,True,,1632.0,5.6,38017,Cass,"{""38017"": 100}",Cass,38017,False,False,America/Chicago,"(46.83825, -97.11812)",96.4257495814644,935474.0,60_0_no,48.164339131000695,-96.4742903357333,150.0
58060,46.26745,-97.43423,Milnor,ND,North Dakota,True,,1111.0,1.8,38081,Sargent,"{""38081"": 58.46, ""38073"": 41.17, ""38077"": 0.37}",Sargent|Ransom|Richland,38081|38073|38077,False,False,America/Chicago,"(46.26745, -97.43423)",138.58609943539167,935474.0,60_0_no,48.164339131000695,-96.4742903357333,150.0
58061,46.27721,-96.89564,Mooreton,ND,North Dakota,True,,276.0,1.6,38077,Richland,"{""38077"": 100}",Richland,38077,False,False,America/Chicago,"(46.27721, -96.89564)",131.87825653515802,935474.0,60_0_no,48.164339131000695,-96.4742903357333,150.0
58062,46.64361,-97.82937,Nome,ND,North Dakota,True,,176.0,1.4,38003,Barnes,"{""38003"": 58.86, ""38073"": 41.14}",Barnes|Ransom,38003|38073,False,False,America/Chicago,"(46.64361, -97.82937)",122.69750855261718,935474.0,60_0_no,48.164339131000695,-96.4742903357333,150.0
58063,46.96773,-97.80471,Oriska,ND,North Dakota,True,,458.0,1.4,38003,Barnes,"{""38003"": 100}",Barnes,38003,False,False,America/Chicago,"(46.96773, -97.80471)",103.3532687515569,935474.0,60_0_no,48.164339131000695,-96.4742903357333,150.0
58064,47.15036,-97.62761,Page,ND,North Dakota,True,,534.0,1.2,38017,Cass,"{""38017"": 74.42, ""38003"": 23.88, ""38091"": 1.7}",Cass|Barnes|Steele,38017|38003|38091,False,False,America/Chicago,"(47.15036, -97.62761)",88.25423153586735,935474.0,60_0_no,48.164339131000695,-96.4742903357333,150.0
58065,47.20035,-97.76612,Pillsbury,ND,North Dakota,True,,33.0,3.0,38003,Barnes,"{""38003"": 100}",Barnes,38003,False,False,America/Chicago,"(47.20035, -97.76612)",89.70374728160094,935474.0,60_0_no,48.164339131000695,-96.4742903357333,150.0
58067,46.06826,-97.48906,Rutland,ND,North Dakota,True,,244.0,1.6,38081,Sargent,"{""38081"": 100}",Sargent,38081,False,False,America/Chicago,"(46.06826, -97.48906)",152.47871316407833,935474.0,60_0_no,48.164339131000695,-96.4742903357333,150.0
58068,46.54619,-97.40896,Sheldon,ND,North Dakota,True,,404.0,1.5,38073,Ransom,"{""38073"": 98.22, ""38017"": 1.78}",Ransom|Cass,38073|38017,False,False,America/Chicago,"(46.54619, -97.40896)",120.05592515952688,935474.0,60_0_no,48.164339131000695,-96.4742903357333,150.0
58069,46.24102,-97.83194,Stirum,ND,North Dakota,True,,110.0,0.6,38081,Sargent,"{""38081"": 95.56, ""38073"": 4.44}",Sargent|Ransom,38081|38073,False,False,America/Chicago,"(46.24102, -97.83194)",147.3746783633851,935474.0,60_0_no,48.164339131000695,-96.4742903357333,150.0
58071,46.9436,-97.68278,Tower City,ND,North Dakota,True,,410.0,1.5,38017,Cass,"{""38017"": 56.03, ""38003"": 43.97}",Cass|Barnes,38017|38003,False,False,America/Chicago,"(46.9436, -97.68278)",101.43528854814632,935474.0,60_0_no,48.164339131000695,-96.4742903357333,150.0
58072,46.92731,-98.00791,Valley City,ND,North Dakota,True,,7514.0,8.9,38003,Barnes,"{""38003"": 100}",Barnes,38003,False,False,America/Chicago,"(46.92731, -98.00791)",111.44495505506957,935474.0,60_0_no,48.164339131000695,-96.4742903357333,150.0
58075,46.27426,-96.72211,Wahpeton,ND,North Dakota,True,,9300.0,15.3,38077,Richland,"{""38077"": 100}",Richland,38077,False,False,America/Chicago,"(46.27426, -96.72211)",131.1086242521742,935474.0,60_0_no,48.164339131000695,-96.4742903357333,150.0
58076,46.27416,-96.60746,Wahpeton,ND,North Dakota,True,,334.0,1782.0,38077,Richland,"{""38077"": 100}",Richland,38077,False,False,America/Chicago,"(46.27416, -96.60746)",130.74831339410574,935474.0,60_0_no,48.164339131000695,-96.4742903357333,150.0
58077,46.52457,-96.97593,Walcott,ND,North Dakota,True,,804.0,2.3,38077,Richland,"{""38077"": 100}",Richland,38077,False,False,America/Chicago,"(46.52457, -96.97593)",115.70502226566923,935474.0,60_0_no,48.164339131000695,-96.4742903357333,150.0
58078,46.86276,-96.93125,West Fargo,ND,North Dakota,True,,36825.0,357.0,38017,Cass,"{""38017"": 100}",Cass,38017,False,False,America/Chicago,"(46.86276, -96.93125)",92.42381853716013,935474.0,60_0_no,48.164339131000695,-96.4742903357333,150.0
58079,46.86816,-97.34827,Wheatland,ND,North Dakota,True,,414.0,1.1,38017,Cass,"{""38017"": 100}",Cass,38017,False,False,America/Chicago,"(46.86816, -97.34827)",98.40480959233761,935474.0,60_0_no,48.164339131000695,-96.4742903357333,150.0
58081,46.31392,-97.14378,Wyndmere,ND,North Dakota,True,,835.0,1.8,38077,Richland,"{""38077"": 99.72, ""38081"": 0.28}",Richland|Sargent,38077|38081,False,False,America/Chicago,"(46.31392, -97.14378)",131.65113039034688,935474.0,60_0_no,48.164339131000695,-96.4742903357333,150.0
58102,46.9207,-96.83175,Fargo,ND,North Dakota,True,,30329.0,370.1,38017,Cass,"{""38017"": 100}",Cass,38017,False,False,America/Chicago,"(46.9207, -96.83175)",87.52949159022195,935474.0,60_0_no,48.164339131000695,-96.4742903357333,150.0
58103,46.85639,-96.82234,Fargo,ND,North Dakota,True,,49209.0,1658.6,38017,Cass,"{""38017"": 100}",Cass,38017,False,False,America/Chicago,"(46.85639, -96.82234)",91.81858604491876,935474.0,60_0_no,48.164339131000695,-96.4742903357333,150.0
58104,46.79371,-96.83838,Fargo,ND,North Dakota,True,,43925.0,604.7,38017,Cass,"{""38017"": 100}",Cass,38017,False,False,America/Chicago,"(46.79371, -96.83838)",96.21523832985233,935474.0,60_0_no,48.164339131000695,-96.4742903357333,150.0
58105,46.89586,-96.80363,Fargo,ND,North Dakota,True,,2242.0,3644.0,38017,Cass,"{""38017"": 100}",Cass,38017,False,False,America/Chicago,"(46.89586, -96.80363)",88.97984705470806,935474.0,60_0_no,48.164339131000695,-96.4742903357333,150.0
58201,47.86938,-97.14013,Grand Forks,ND,North Dakota,True,,41096.0,229.8,38035,Grand Forks,"{""38035"": 100}",Grand Forks,38035,False,False,America/Chicago,"(47.86938, -97.14013)",36.909606996167504,935474.0,60_0_no,48.164339131000695,-96.4742903357333,150.0
58202,47.92224,-97.07435,Grand Forks,ND,North Dakota,True,,1598.0,1427.5,38035,Grand Forks,"{""38035"": 100}",Grand Forks,38035,False,False,America/Chicago,"(47.92224, -97.07435)",32.375000023404,935474.0,60_0_no,48.164339131000695,-96.4742903357333,150.0
58203,47.97181,-97.15425,Grand Forks,ND,North Dakota,True,,16010.0,90.0,38035,Grand Forks,"{""38035"": 100}",Grand Forks,38035,False,False,America/Chicago,"(47.97181, -97.15425)",34.096564199691734,935474.0,60_0_no,48.164339131000695,-96.4742903357333,150.0
58204,47.96046,-97.37079,Grand Forks Afb,ND,North Dakota,True,,2383.0,754.9,38035,Grand Forks,"{""38035"": 100}",Grand Forks,38035,False,False,America/Chicago,"(47.96046, -97.37079)",43.728050950934914,935474.0,60_0_no,48.164339131000695,-96.4742903357333,150.0
58210,48.4081,-98.11446,Adams,ND,North Dakota,True,,340.0,0.8,38099,Walsh,"{""38099"": 100}",Walsh,38099,False,False,America/Chicago,"(48.4081, -98.11446)",77.26383761723785,935474.0,60_0_no,48.164339131000695,-96.4742903357333,150.0
58212,47.6987,-97.99541,Aneta,ND,North Dakota,True,,382.0,0.7,38063,Nelson,"{""38063"": 47.33, ""38039"": 34.0, ""38035"": 12.32, ""38091"": 6.35}",Nelson|Griggs|Grand Forks|Steele,38063|38039|38035|38091,False,False,America/Chicago,"(47.6987, -97.99541)",77.41803847344785,935474.0,60_0_no,48.164339131000695,-96.4742903357333,150.0
58214,47.92694,-97.49747,Arvilla,ND,North Dakota,True,,289.0,1.4,38035,Grand Forks,"{""38035"": 100}",Grand Forks,38035,False,False,America/Chicago,"(47.92694, -97.49747)",50.02726654132093,935474.0,60_0_no,48.164339131000695,-96.4742903357333,150.0
58216,48.87937,-97.4429,Bathgate,ND,North Dakota,True,,239.0,1.3,38067,Pembina,"{""38067"": 100}",Pembina,38067,False,False,America/Chicago,"(48.87937, -97.4429)",66.37341843267852,935474.0,60_0_no,48.164339131000695,-96.4742903357333,150.0
58218,47.59689,-97.05412,Buxton,ND,North Dakota,True,,810.0,2.6,38097,Traill,"{""38097"": 100}",Traill,38097,False,False,America/Chicago,"(47.59689, -97.05412)",47.529982099006936,935474.0,60_0_no,48.164339131000695,-96.4742903357333,150.0
58219,47.47606,-96.87831,Caledonia,ND,North Dakota,True,,48.0,3.2,38097,Traill,"{""38097"": 100}",Traill,38097,False,False,America/Chicago,"(47.47606, -96.87831)",51.115973963578796,935474.0,60_0_no,48.164339131000695,-96.4742903357333,150.0
58220,48.79446,-97.73789,Cavalier,ND,North Dakota,True,,2048.0,4.5,38067,Pembina,"{""38067"": 91.8, ""38019"": 8.2}",Pembina|Cavalier,38067|38019,False,False,America/Chicago,"(48.79446, -97.73789)",72.4203419075839,935474.0,60_0_no,48.164339131000695,-96.4742903357333,150.0
58222,48.61853,-97.68221,Crystal,ND,North Dakota,True,,254.0,1.4,38067,Pembina,"{""38067"": 100}",Pembina,38067,False,False,America/Chicago,"(48.61853, -97.68221)",63.68717731009762,935474.0,60_0_no,48.164339131000695,-96.4742903357333,150.0
58223,47.51384,-97.02573,Cummings,ND,North Dakota,True,,118.0,0.6,38097,Traill,"{""38097"": 100}",Traill,38097,False,False,America/Chicago,"(47.51384, -97.02573)",51.71130281215245,935474.0,60_0_no,48.164339131000695,-96.4742903357333,150.0
58224,48.16777,-97.94307,Dahlen,ND,North Dakota,True,,41.0,1.1,38063,Nelson,"{""38063"": 100}",Nelson,38063,False,False,America/Chicago,"(48.16777, -97.94307)",67.68591620896915,935474.0,60_0_no,48.164339131000695,-96.4742903357333,150.0
58225,48.61208,-97.21753,Drayton,ND,North Dakota,True,,1009.0,1.7,38067,Pembina,"{""38067"": 65.71, ""38099"": 22.91, ""27069"": 11.38}",Pembina|Walsh|Kittson,38067|38099|27069,False,False,America/Chicago,"(48.61208, -97.21753)",46.0431833655738,935474.0,60_0_no,48.164339131000695,-96.4742903357333,150.0
58227,48.55247,-97.90549,Edinburg,ND,North Dakota,True,,515.0,1.8,38099,Walsh,"{""38099"": 49.25, ""38067"": 39.53, ""38019"": 11.23}",Walsh|Pembina|Cavalier,38099|38067|38019,False,False,America/Chicago,"(48.55247, -97.90549)",70.96739510954079,935474.0,60_0_no,48.164339131000695,-96.4742903357333,150.0
58228,47.87394,-97.34278,Emerado,ND,North Dakota,True,,839.0,3.0,38035,Grand Forks,"{""38035"": 100}",Grand Forks,38035,False,False,America/Chicago,"(47.87394, -97.34278)",44.87295446796354,935474.0,60_0_no,48.164339131000695,-96.4742903357333,150.0
58229,48.5182,-98.25087,Fairdale,ND,North Dakota,True,,74.0,0.3,38099,Walsh,"{""38099"": 60.65, ""38019"": 32.92, ""38071"": 6.43}",Walsh|Cavalier|Ramsey,38099|38019|38071,False,False,America/Chicago,"(48.5182, -98.25087)",85.17313303752829,935474.0,60_0_no,48.164339131000695,-96.4742903357333,150.0
58230,47.49097,-97.82622,Finley,ND,North Dakota,True,,678.0,1.5,38091,Steele,"{""38091"": 100}",Steele,38091,False,False,America/Chicago,"(47.49097, -97.82622)",78.08360441376539,935474.0,60_0_no,48.164339131000695,-96.4742903357333,150.0
58231,48.20208,-97.82544,Fordville,ND,North Dakota,True,,328.0,1.1,38099,Walsh,"{""38099"": 59.82, ""38035"": 40.18}",Walsh|Grand Forks,38099|38035,False,False,America/Chicago,"(48.20208, -97.82544)",62.29868885537871,935474.0,60_0_no,48.164339131000695,-96.4742903357333,150.0
58233,48.20253,-97.54982,Forest River,ND,North Dakota,True,,241.0,0.9,38099,Walsh,"{""38099"": 61.6, ""38035"": 38.4}",Walsh|Grand Forks,38099|38035,False,False,America/Chicago,"(48.20253, -97.54982)",49.61719785798257,935474.0,60_0_no,48.164339131000695,-96.4742903357333,150.0
58235,48.09007,-97.48307,Gilby,ND,North Dakota,True,,519.0,2.5,38035,Grand Forks,"{""38035"": 100}",Grand Forks,38035,False,False,America/Chicago,"(48.09007, -97.48307)",46.805115375881904,935474.0,60_0_no,48.164339131000695,-96.4742903357333,150.0
58237,48.41522,-97.40086,Grafton,ND,North Dakota,True,,5116.0,7.9,38099,Walsh,"{""38099"": 100}",Walsh,38099,False,False,America/Chicago,"(48.41522, -97.40086)",45.98803807025234,935474.0,60_0_no,48.164339131000695,-96.4742903357333,150.0
58238,48.77953,-97.39791,Hamilton,ND,North Dakota,True,,149.0,0.7,38067,Pembina,"{""38067"": 100}",Pembina,38067,False,False,America/Chicago,"(48.77953, -97.39791)",59.972432906924205,935474.0,60_0_no,48.164339131000695,-96.4742903357333,150.0
58239,48.93842,-98.70877,Hannah,ND,North Dakota,True,,8.0,0.0,38019,Cavalier,"{""38019"": 100}",Cavalier,38019,False,False,America/Chicago,"(48.93842, -98.70877)",115.33944794202534,935474.0,60_0_no,48.164339131000695,-96.4742903357333,150.0
58240,47.63491,-97.47675,Hatton,ND,North Dakota,True,,1316.0,3.6,38091,Steele,"{""38091"": 47.77, ""38097"": 33.01, ""38035"": 19.22}",Steele|Traill|Grand Forks,38091|38097|38035,False,False,America/Chicago,"(47.63491, -97.47675)",59.112885000028534,935474.0,60_0_no,48.164339131000695,-96.4742903357333,150.0
58241,48.70442,-97.69772,Hensel,ND,North Dakota,True,,137.0,0.9,38067,Pembina,"{""38067"": 100}",Pembina,38067,False,False,America/Chicago,"(48.70442, -97.69772)",67.36292341877429,935474.0,60_0_no,48.164339131000695,-96.4742903357333,150.0
58243,48.51423,-97.67956,Hoople,ND,North Dakota,True,,634.0,2.9,38099,Walsh,"{""38099"": 79.48, ""38067"": 20.52}",Walsh|Pembina,38099|38067,False,False,America/Chicago,"(48.51423, -97.67956)",60.40305535540419,935474.0,60_0_no,48.164339131000695,-96.4742903357333,150.0
58244,48.11035,-97.65752,Inkster,ND,North Dakota,True,,63.0,1.0,38035,Grand Forks,"{""38035"": 100}",Grand Forks,38035,False,False,America/Chicago,"(48.11035, -97.65752)",54.68472910948107,935474.0,60_0_no,48.164339131000695,-96.4742903357333,150.0
58249,48.82113,-98.32514,Langdon,ND,North Dakota,True,,2459.0,2.2,38019,Cavalier,"{""38019"": 100}",Cavalier,38019,False,False,America/Chicago,"(48.82113, -98.32514)",96.13013258303663,935474.0,60_0_no,48.164339131000695,-96.4742903357333,150.0
58250,48.27496,-98.02897,Lankin,ND,North Dakota,True,,257.0,1.1,38099,Walsh,"{""38099"": 100}",Walsh,38099,False,False,America/Chicago,"(48.27496, -98.02897)",71.97590085601213,935474.0,60_0_no,48.164339131000695,-96.4742903357333,150.0
58251,47.94945,-97.6906,Larimore,ND,North Dakota,True,,1955.0,4.1,38035,Grand Forks,"{""38035"": 100}",Grand Forks,38035,False,False,America/Chicago,"(47.94945, -97.6906)",58.09945266745232,935474.0,60_0_no,48.164339131000695,-96.4742903357333,150.0
58254,47.77111,-98.14748,Mcville,ND,North Dakota,True,,452.0,1.6,38063,Nelson,"{""38063"": 100}",Nelson,38063,False,False,America/Chicago,"(47.77111, -98.14748)",82.03196278750332,935474.0,60_0_no,48.164339131000695,-96.4742903357333,150.0
58256,48.08739,-97.20203,Manvel,ND,North Dakota,True,,721.0,3.3,38035,Grand Forks,"{""38035"": 100}",Grand Forks,38035,False,False,America/Chicago,"(48.08739, -97.20203)",33.98143214431051,935474.0,60_0_no,48.164339131000695,-96.4742903357333,150.0
58257,47.49033,-97.28505,Mayville,ND,North Dakota,True,,2177.0,6.8,38097,Traill,"{""38097"": 100}",Traill,38097,False,False,America/Chicago,"(47.49033, -97.28505)",59.858634873744734,935474.0,60_0_no,48.164339131000695,-96.4742903357333,150.0
58258,48.01142,-97.33984,Mekinock,ND,North Dakota,True,,433.0,5.6,38035,Grand Forks,"{""38035"": 100}",Grand Forks,38035,False,False,America/Chicago,"(48.01142, -97.33984)",41.32168861712599,935474.0,60_0_no,48.164339131000695,-96.4742903357333,150.0
58259,48.02053,-98.12168,Michigan,ND,North Dakota,True,,427.0,1.0,38063,Nelson,"{""38063"": 100}",Nelson,38063,False,False,America/Chicago,"(48.02053, -98.12168)",76.67144317351747,935474.0,60_0_no,48.164339131000695,-96.4742903357333,150.0
58260,48.63254,-98.04709,Milton,ND,North Dakota,True,,164.0,0.5,38019,Cavalier,"{""38019"": 98.32, ""38099"": 1.68}",Cavalier|Walsh,38019|38099,False,False,America/Chicago,"(48.63254, -98.04709)",79.06935117900697,935474.0,60_0_no,48.164339131000695,-96.4742903357333,150.0
58261,48.22385,-97.31663,Minto,ND,North Dakota,True,,1353.0,3.1,38099,Walsh,"{""38099"": 63.94, ""38035"": 36.06}",Walsh|Grand Forks,38099|38035,False,False,America/Chicago,"(48.22385, -97.31663)",39.01382822722746,935474.0,60_0_no,48.164339131000695,-96.4742903357333,150.0
58262,48.681,-97.87759,Mountain,ND,North Dakota,True,,97.0,2.3,38067,Pembina,"{""38067"": 100}",Pembina,38067,False,False,America/Chicago,"(48.681, -97.87759)",73.58217998780374,935474.0,60_0_no,48.164339131000695,-96.4742903357333,150.0
58265,48.95321,-97.5959,Neche,ND,North Dakota,True,,479.0,2.2,38067,Pembina,"{""38067"": 100}",Pembina,38067,False,False,America/Chicago,"(48.95321, -97.5959)",74.84231082709942,935474.0,60_0_no,48.164339131000695,-96.4742903357333,150.0
58266,48.00127,-97.84967,Niagara,ND,North Dakota,True,,131.0,0.4,38035,Grand Forks,"{""38035"": 71.88, ""38063"": 28.12}",Grand Forks|Nelson,38035|38063,False,False,America/Chicago,"(48.00127, -97.84967)",64.47626325140013,935474.0,60_0_no,48.164339131000695,-96.4742903357333,150.0
58267,47.75614,-97.62651,Northwood,ND,North Dakota,True,,1325.0,2.2,38035,Grand Forks,"{""38035"": 96.31, ""38091"": 3.69}",Grand Forks|Steele,38035|38091,False,False,America/Chicago,"(47.75614, -97.62651)",60.31101662232606,935474.0,60_0_no,48.164339131000695,-96.4742903357333,150.0
58269,48.70158,-98.15518,Osnabrock,ND,North Dakota,True,,239.0,1.4,38019,Cavalier,"{""38019"": 100}",Cavalier,38019,False,False,America/Chicago,"(48.70158, -98.15518)",85.52935053505382,935474.0,60_0_no,48.164339131000695,-96.4742903357333,150.0
58270,48.39336,-97.78848,Park River,ND,North Dakota,True,,1836.0,4.6,38099,Walsh,"{""38099"": 100}",Walsh,38099,False,False,America/Chicago,"(48.39336, -97.78848)",62.465722023617765,935474.0,60_0_no,48.164339131000695,-96.4742903357333,150.0
58271,48.90905,-97.28932,Pembina,ND,North Dakota,True,,519.0,2.0,38067,Pembina,"{""38067"": 100}",Pembina,38067,False,False,America/Chicago,"(48.90905, -97.28932)",63.543743066634114,935474.0,60_0_no,48.164339131000695,-96.4742903357333,150.0
58272,48.00868,-97.9854,Petersburg,ND,North Dakota,True,,228.0,0.7,38063,Nelson,"{""38063"": 100}",Nelson,38063,False,False,America/Chicago,"(48.00868, -97.9854)",70.56833692031843,935474.0,60_0_no,48.164339131000695,-96.4742903357333,150.0
58273,48.29747,-97.66275,Pisek,ND,North Dakota,True,,146.0,0.9,38099,Walsh,"{""38099"": 100}",Walsh,38099,False,False,America/Chicago,"(48.29747, -97.66275)",55.46655675757465,935474.0,60_0_no,48.164339131000695,-96.4742903357333,150.0
58274,47.49158,-97.48989,Portland,ND,North Dakota,True,,1025.0,3.0,38091,Steele,"{""38091"": 54.45, ""38097"": 45.55}",Steele|Traill,38091|38097,False,False,America/Chicago,"(47.49158, -97.48989)",66.18082560541139,935474.0,60_0_no,48.164339131000695,-96.4742903357333,150.0
58275,47.68956,-97.10609,Reynolds,ND,North Dakota,True,,665.0,2.2,38035,Grand Forks,"{""38035"": 70.48, ""38097"": 29.52}",Grand Forks|Traill,38035|38097,False,False,America/Chicago,"(47.68956, -97.10609)",43.95116418527503,935474.0,60_0_no,48.164339131000695,-96.4742903357333,150.0
58276,48.62239,-97.45675,Saint Thomas,ND,North Dakota,True,,504.0,1.7,38067,Pembina,"{""38067"": 100}",Pembina,38067,False,False,America/Chicago,"(48.62239, -97.45675)",55.074650782907526,935474.0,60_0_no,48.164339131000695,-96.4742903357333,150.0
58277,47.61403,-97.83176,Sharon,ND,North Dakota,True,,167.0,0.8,38091,Steele,"{""38091"": 100}",Steele,38091,False,False,America/Chicago,"(47.61403, -97.83176)",73.49239453680396,935474.0,60_0_no,48.164339131000695,-96.4742903357333,150.0
58278,47.77761,-97.13084,Thompson,ND,North Dakota,True,,1928.0,7.1,38035,Grand Forks,"{""38035"": 100}",Grand Forks,38035,False,False,America/Chicago,"(47.77761, -97.13084)",40.4519304151924,935474.0,60_0_no,48.164339131000695,-96.4742903357333,150.0
58281,48.85941,-98.61086,Wales,ND,North Dakota,True,,88.0,0.3,38019,Cavalier,"{""38019"": 100}",Cavalier,38019,False,False,America/Chicago,"(48.85941, -98.61086)",108.94518056881763,935474.0,60_0_no,48.164339131000695,-96.4742903357333,150.0
58282,48.90897,-97.93252,Walhalla,ND,North Dakota,True,,1295.0,2.3,38067,Pembina,"{""38067"": 55.81, ""38019"": 44.19}",Pembina|Cavalier,38067|38019,False,False,America/Chicago,"(48.90897, -97.93252)",84.24515368530346,935474.0,60_0_no,48.164339131000695,-96.4742903357333,150.0
58301,48.13015,-98.88798,Devils Lake,ND,North Dakota,True,,10221.0,14.4,38071,Ramsey,"{""38071"": 92.56, ""38005"": 7.44}",Ramsey|Benson,38071|38005,False,False,America/Chicago,"(48.13015, -98.88798)",111.29259126296344,935474.0,60_0_no,48.164339131000695,-96.4742903357333,150.0
58311,48.65111,-98.57312,Alsen,ND,North Dakota,True,,60.0,0.2,38019,Cavalier,"{""38019"": 100}",Cavalier,38019,False,False,America/Chicago,"(48.65111, -98.57312)",101.96680682996444,935474.0,60_0_no,48.164339131000695,-96.4742903357333,150.0
58317,48.62576,-99.38679,Bisbee,ND,North Dakota,True,,149.0,0.4,38095,Towner,"{""38095"": 95.21, ""38079"": 4.79}",Towner|Rolette,38095|38079,False,False,America/Chicago,"(48.62576, -99.38679)",137.3591552340788,935474.0,60_0_no,48.164339131000695,-96.4742903357333,150.0
58321,48.2025,-98.32707,Brocket,ND,North Dakota,True,,45.0,0.1,38071,Ramsey,"{""38071"": 45.6, ""38063"": 37.9, ""38099"": 16.49}",Ramsey|Nelson|Walsh,38071|38063|38099,False,False,America/Chicago,"(48.2025, -98.32707)",85.3923308618045,935474.0,60_0_no,48.164339131000695,-96.4742903357333,150.0
58323,48.84252,-98.91923,Calvin,ND,North Dakota,True,,91.0,0.5,38019,Cavalier,"{""38019"": 81.58, ""38095"": 18.42}",Cavalier|Towner,38019|38095,False,False,America/Chicago,"(48.84252, -98.91923)",121.33356438907933,935474.0,60_0_no,48.164339131000695,-96.4742903357333,150.0
58324,48.48213,-99.21931,Cando,ND,North Dakota,True,,1409.0,2.2,38095,Towner,"{""38095"": 99.1, ""38005"": 0.9}",Towner|Benson,38095|38005,False,False,America/Chicago,"(48.48213, -99.21931)",128.00182950579628,935474.0,60_0_no,48.164339131000695,-96.4742903357333,150.0
58325,48.28613,-99.15569,Churchs Ferry,ND,North Dakota,True,,92.0,0.4,38071,Ramsey,"{""38071"": 70.28, ""38005"": 29.72}",Ramsey|Benson,38071|38005,False,False,America/Chicago,"(48.28613, -99.15569)",123.70584282461927,935474.0,60_0_no,48.164339131000695,-96.4742903357333,150.0
58327,48.10137,-98.5731,Crary,ND,North Dakota,True,,319.0,0.7,38071,Ramsey,"{""38071"": 100}",Ramsey,38071,False,False,America/Chicago,"(48.10137, -98.5731)",96.8778394547795,935474.0,60_0_no,48.164339131000695,-96.4742903357333,150.0
58330,48.44208,-98.48275,Edmore,ND,North Dakota,True,,435.0,0.9,38071,Ramsey,"{""38071"": 97.67, ""38019"": 2.33}",Ramsey|Cavalier,38071|38019,False,False,America/Chicago,"(48.44208, -98.48275)",94.27970947498416,935474.0,60_0_no,48.164339131000695,-96.4742903357333,150.0
58331,48.64014,-99.09293,Egeland,ND,North Dakota,True,,118.0,0.4,38095,Towner,"{""38095"": 100}",Towner,38095,False,False,America/Chicago,"(48.64014, -99.09293)",124.52955982469668,935474.0,60_0_no,48.164339131000695,-96.4742903357333,150.0
58335,47.97229,-99.00412,Fort Totten,ND,North Dakota,True,,1818.0,25.0,38005,Benson,"{""38005"": 100}",Benson,38005,False,False,America/Chicago,"(47.97229, -99.00412)",117.55126258210342,935474.0,60_0_no,48.164339131000695,-96.4742903357333,150.0
58338,48.52879,-98.6313,Hampden,ND,North Dakota,True,,92.0,0.4,38071,Ramsey,"{""38071"": 54.02, ""38019"": 45.98}",Ramsey|Cavalier,38071|38019,False,False,America/Chicago,"(48.52879, -98.6313)",102.1989930961593,935474.0,60_0_no,48.164339131000695,-96.4742903357333,150.0
58344,48.01471,-98.33857,Lakota,ND,North Dakota,True,,991.0,1.8,38063,Nelson,"{""38063"": 93.35, ""38071"": 6.65}",Nelson|Ramsey,38063|38071,False,False,America/Chicago,"(48.01471, -98.33857)",86.65736268373206,935474.0,60_0_no,48.164339131000695,-96.4742903357333,150.0
58345,48.30564,-98.37436,Lawton,ND,North Dakota,True,,135.0,0.4,38071,Ramsey,"{""38071"": 64.86, ""38099"": 35.14}",Ramsey|Walsh,38071|38099,False,False,America/Chicago,"(48.30564, -98.37436)",87.9851384349357,935474.0,60_0_no,48.164339131000695,-96.4742903357333,150.0
58346,48.28953,-99.42218,Leeds,ND,North Dakota,True,,570.0,1.1,38005,Benson,"{""38005"": 86.07, ""38095"": 12.44, ""38069"": 1.49}",Benson|Towner|Pierce,38005|38095|38069,False,False,America/Chicago,"(48.28953, -99.42218)",135.95478151530196,935474.0,60_0_no,48.164339131000695,-96.4742903357333,150.0
58348,47.95509,-99.52365,Maddock,ND,North Dakota,True,,904.0,1.4,38005,Benson,"{""38005"": 89.49, ""38103"": 10.51}",Benson|Wells,38005|38103,False,False,America/Chicago,"(47.95509, -99.52365)",141.54705887504056,935474.0,60_0_no,48.164339131000695,-96.4742903357333,150.0
58351,48.10218,-99.31394,Minnewaukan,ND,North Dakota,True,,359.0,0.8,38005,Benson,"{""38005"": 100}",Benson,38005,False,False,America/Chicago,"(48.10218, -99.31394)",131.00764400118817,935474.0,60_0_no,48.164339131000695,-96.4742903357333,150.0
58352,48.70188,-98.86099,Munich,ND,North Dakota,True,,446.0,0.8,38019,Cavalier,"{""38019"": 88.24, ""38095"": 11.76}",Cavalier|Towner,38019|38095,False,False,America/Chicago,"(48.70188, -98.86099)",115.53947639608207,935474.0,60_0_no,48.164339131000695,-96.4742903357333,150.0
58353,48.64005,-99.59928,Mylo,ND,North Dakota,True,,138.0,0.8,38079,Rolette,"{""38079"": 100}",Rolette,38079,False,False,America/Chicago,"(48.64005, -99.59928)",147.0546495052798,935474.0,60_0_no,48.164339131000695,-96.4742903357333,150.0
58355,48.57504,-98.38528,Nekoma,ND,North Dakota,True,,66.0,1.0,38019,Cavalier,"{""38019"": 100}",Cavalier,38019,False,False,America/Chicago,"(48.57504, -98.38528)",92.1877937682627,935474.0,60_0_no,48.164339131000695,-96.4742903357333,150.0
58356,47.67103,-99.07804,New Rockford,ND,North Dakota,True,,1674.0,2.3,38027,Eddy,"{""38027"": 81.29, ""38103"": 12.72, ""38031"": 5.99}",Eddy|Wells|Foster,38027|38103|38031,False,False,America/Chicago,"(47.67103, -99.07804)",125.2878304315291,935474.0,60_0_no,48.164339131000695,-96.4742903357333,150.0
58357,47.94429,-99.21831,Oberon,ND,North Dakota,True,,365.0,1.1,38005,Benson,"{""38005"": 100}",Benson,38005,False,False,America/Chicago,"(47.94429, -99.21831)",127.63107281543243,935474.0,60_0_no,48.164339131000695,-96.4742903357333,150.0
58361,47.75841,-98.35458,Pekin,ND,North Dakota,True,,246.0,0.7,38063,Nelson,"{""38063"": 100}",Nelson,38063,False,False,America/Chicago,"(47.75841, -98.35458)",91.40211646895119,935474.0,60_0_no,48.164339131000695,-96.4742903357333,150.0
58363,48.76417,-99.46669,Perth,ND,North Dakota,True,,122.0,0.7,38095,Towner,"{""38095"": 81.19, ""38079"": 18.81}",Towner|Rolette,38095|38079,False,False,America/Chicago,"(48.76417, -99.46669)",143.21281586577192,935474.0,60_0_no,48.164339131000695,-96.4742903357333,150.0
58365,48.83655,-99.23626,Rocklake,ND,North Dakota,True,,218.0,0.4,38095,Towner,"{""38095"": 100}",Towner,38095,False,False,America/Chicago,"(48.83655, -99.23626)",134.69954213371446,935474.0,60_0_no,48.164339131000695,-96.4742903357333,150.0
58367,48.88179,-99.55163,Rolla,ND,North Dakota,True,,1707.0,3.4,38079,Rolette,"{""38079"": 62.63, ""38095"": 37.37}",Rolette|Towner,38079|38095,False,False,America/Chicago,"(48.88179, -99.55163)",149.28154188820255,935474.0,60_0_no,48.164339131000695,-96.4742903357333,150.0
58370,47.9842,-98.85977,Saint Michael,ND,North Dakota,True,,1429.0,10.5,38005,Benson,"{""38005"": 100}",Benson,38005,False,False,America/Chicago,"(47.9842, -98.85977)",110.82438992808045,935474.0,60_0_no,48.164339131000695,-96.4742903357333,150.0
58372,48.93906,-99.00628,Sarles,ND,North Dakota,True,,133.0,0.4,38095,Towner,"{""38095"": 56.89, ""38019"": 43.11}",Towner|Cavalier,38095|38019,False,False,America/Chicago,"(48.93906, -99.00628)",127.5671568309697,935474.0,60_0_no,48.164339131000695,-96.4742903357333,150.0
58374,47.82865,-99.09171,Sheyenne,ND,North Dakota,True,,631.0,1.0,38027,Eddy,"{""38027"": 52.39, ""38005"": 35.6, ""38103"": 12.01}",Eddy|Benson|Wells,38027|38005|38103,False,False,America/Chicago,"(47.82865, -99.09171)",123.21421393534278,935474.0,60_0_no,48.164339131000695,-96.4742903357333,150.0
58377,48.46481,-98.87416,Starkweather,ND,North Dakota,True,,301.0,0.6,38071,Ramsey,"{""38071"": 68.02, ""38095"": 17.47, ""38019"": 14.51}",Ramsey|Towner|Cavalier,38071|38095|38019,False,False,America/Chicago,"(48.46481, -98.87416)",112.20601037553948,935474.0,60_0_no,48.164339131000695,-96.4742903357333,150.0
58379,47.90707,-98.81907,Tokio,ND,North Dakota,True,,360.0,20.5,38005,Benson,"{""38005"": 100}",Benson,38005,False,False,America/Chicago,"(47.90707, -98.81907)",109.77417154608113,935474.0,60_0_no,48.164339131000695,-96.4742903357333,150.0
58380,47.82872,-98.52029,Tolna,ND,North Dakota,True,,344.0,0.9,38063,Nelson,"{""38063"": 51.46, ""38027"": 34.6, ""38005"": 13.94}",Nelson|Eddy|Benson,38063|38027|38005,False,False,America/Chicago,"(47.82872, -98.52029)",97.39551147408024,935474.0,60_0_no,48.164339131000695,-96.4742903357333,150.0
58381,47.82731,-98.74476,Warwick,ND,North Dakota,True,,371.0,0.8,38027,Eddy,"{""38027"": 60.44, ""38005"": 39.56}",Eddy|Benson,38027|38005,False,False,America/Chicago,"(47.82731, -98.74476)",107.52535757427299,935474.0,60_0_no,48.164339131000695,-96.4742903357333,150.0
58382,48.31727,-98.79252,Webster,ND,North Dakota,True,,121.0,0.4,38071,Ramsey,"{""38071"": 100}",Ramsey,38071,False,False,America/Chicago,"(48.31727, -98.79252)",107.19424316885099,935474.0,60_0_no,48.164339131000695,-96.4742903357333,150.0
58385,48.47945,-99.65989,Wolford,ND,North Dakota,True,,232.0,0.8,38069,Pierce,"{""38069"": 95.55, ""38079"": 4.45}",Pierce|Rolette,38069|38079,False,False,America/Chicago,"(48.47945, -99.65989)",147.9563056913343,935474.0,60_0_no,48.164339131000695,-96.4742903357333,150.0
58386,48.31696,-99.59227,York,ND,North Dakota,True,,113.0,0.4,38005,Benson,"{""38005"": 67.33, ""38069"": 32.67}",Benson|Pierce,38005|38069,False,False,America/Chicago,"(48.31696, -99.59227)",143.85532608782333,935474.0,60_0_no,48.164339131000695,-96.4742903357333,150.0
58401,46.88145,-98.76883,Jamestown,ND,North Dakota,True,,16957.0,15.3,38093,Stutsman,"{""38093"": 100}",Stutsman,38093,False,False,America/Chicago,"(46.88145, -98.76883)",138.98081469307698,935474.0,60_0_no,48.164339131000695,-96.4742903357333,150.0
58402,46.88191,-98.68755,Jamestown,ND,North Dakota,True,,260.0,2443.3,38093,Stutsman,"{""38093"": 100}",Stutsman,38093,False,False,America/Chicago,"(46.88191, -98.68755)",136.06087365168338,935474.0,60_0_no,48.164339131000695,-96.4742903357333,150.0
58405,46.91454,-98.69673,Jamestown,ND,North Dakota,True,,440.0,1028.5,38093,Stutsman,"{""38093"": 100}",Stutsman,38093,False,False,America/Chicago,"(46.91454, -98.69673)",134.90790376532163,935474.0,60_0_no,48.164339131000695,-96.4742903357333,150.0
58413,46.02963,-99.34235,Ashley,ND,North Dakota,True,,987.0,0.8,38051,McIntosh,"{""38051"": 85.08, ""38021"": 8.35, ""46089"": 6.57}",McIntosh|Dickey|McPherson,38051|38021|46089,False,False,America/Chicago,"(46.02963, -99.34235)",199.8541670101762,935474.0,60_0_no,48.164339131000695,-96.4742903357333,150.0
58415,46.36602,-98.48587,Berlin,ND,North Dakota,True,,215.0,1.4,38045,LaMoure,"{""38045"": 100}",LaMoure,38045,False,False,America/Chicago,"(46.36602, -98.48587)",155.98250497195994,935474.0,60_0_no,48.164339131000695,-96.4742903357333,150.0
58416,47.54767,-98.35694,Binford,ND,North Dakota,True,,325.0,0.6,38039,Griggs,"{""38039"": 100}",Griggs,38039,False,False,America/Chicago,"(47.54767, -98.35694)",97.1231412498065,935474.0,60_0_no,48.164339131000695,-96.4742903357333,150.0
58418,47.41493,-99.63524,Bowdon,ND,North Dakota,True,,355.0,0.6,38103,Wells,"{""38103"": 82.27, ""38043"": 17.73}",Wells|Kidder,38103|38043,False,False,America/Chicago,"(47.41493, -99.63524)",155.58732328026773,935474.0,60_0_no,48.164339131000695,-96.4742903357333,150.0
58420,47.06072,-98.86734,Buchanan,ND,North Dakota,True,,254.0,0.7,38093,Stutsman,"{""38093"": 100}",Stutsman,38093,False,False,America/Chicago,"(47.06072, -98.86734)",135.04153718540263,935474.0,60_0_no,48.164339131000695,-96.4742903357333,150.0
58421,47.43974,-99.06968,Carrington,ND,North Dakota,True,,2746.0,2.6,38031,Foster,"{""38031"": 82.9, ""38093"": 8.08, ""38103"": 5.63, ""38027"": 3.39}",Foster|Stutsman|Wells|Eddy,38031|38093|38103|38027,False,False,America/Chicago,"(47.43974, -99.06968)",130.4328198006915,935474.0,60_0_no,48.164339131000695,-96.4742903357333,150.0
58422,47.59853,-99.39531,Cathay,ND,North Dakota,True,,114.0,0.3,38103,Wells,"{""38103"": 100}",Wells,38103,False,False,America/Chicago,"(47.59853, -99.39531)",140.87843839646752,935474.0,60_0_no,48.164339131000695,-96.4742903357333,150.0
58424,46.87554,-99.10217,Cleveland,ND,North Dakota,True,,314.0,0.7,38093,Stutsman,"{""38093"": 100}",Stutsman,38093,False,False,America/Chicago,"(46.87554, -99.10217)",151.52800658864516,935474.0,60_0_no,48.164339131000695,-96.4742903357333,150.0
58425,47.45391,-98.12378,Cooperstown,ND,North Dakota,True,,1448.0,2.7,38039,Griggs,"{""38039"": 98.65, ""38091"": 1.35}",Griggs|Steele,38039|38091,False,False,America/Chicago,"(47.45391, -98.12378)",90.92584141876198,935474.0,60_0_no,48.164339131000695,-96.4742903357333,150.0
58426,47.21972,-98.58075,Courtenay,ND,North Dakota,True,,311.0,0.9,38093,Stutsman,"{""38093"": 95.52, ""38031"": 4.48}",Stutsman|Foster,38093|38031,False,False,America/Chicago,"(47.21972, -98.58075)",117.71021175778672,935474.0,60_0_no,48.164339131000695,-96.4742903357333,150.0
58429,47.18768,-98.16282,Dazey,ND,North Dakota,True,,355.0,1.1,38003,Barnes,"{""38003"": 97.71, ""38039"": 2.29}",Barnes|Griggs,38003|38039,False,False,America/Chicago,"(47.18768, -98.16282)",103.55406081705084,935474.0,60_0_no,48.164339131000695,-96.4742903357333,150.0
58431,46.50522,-98.49658,Dickey,ND,North Dakota,True,,113.0,0.6,38045,LaMoure,"{""38045"": 100}",LaMoure,38045,False,False,America/Chicago,"(46.50522, -98.49658)",148.6767146843333,935474.0,60_0_no,48.164339131000695,-96.4742903357333,150.0
