zip,lat,lng,city,state_id,state_name,zcta,parent_zcta,population,density,county_fips,county_name,county_weights,county_names_all,county_fips_all,imprecise,military,timezone,Coord,distance_miles,market_total_population,market_id,market_center_lat,market_center_lng,radius_miles
54001,45.33417,-92.38703,Amery,WI,Wisconsin,True,,7648.0,25.0,55095,Polk,"{""55095"": 100}",Polk,55095,False,False,America/Chicago,"(45.33417, -92.38703)",73.08858629402091,6219975.0,63_0_yes,45.89536218660929,-93.66900370882006,150.0
54002,44.95871,-92.37121,Baldwin,WI,Wisconsin,True,,6454.0,32.1,55109,St. Croix,"{""55109"": 96.93, ""55093"": 3.07}",St. Croix|Pierce,55109|55093,False,False,America/Chicago,"(44.95871, -92.37121)",90.26693043158313,6219975.0,63_0_yes,45.89536218660929,-93.66900370882006,150.0
54003,44.79019,-92.44218,Beldenville,WI,Wisconsin,True,,1108.0,13.8,55093,Pierce,"{""55093"": 100}",Pierce,55093,False,False,America/Chicago,"(44.79019, -92.44218)",96.85017962380381,6219975.0,63_0_yes,45.89536218660929,-93.66900370882006,150.0
54004,45.30699,-92.12414,Clayton,WI,Wisconsin,True,,2317.0,11.5,55005,Barron,"{""55005"": 66.73, ""55095"": 33.27}",Barron|Polk,55005|55095,False,False,America/Chicago,"(45.30699, -92.12414)",85.02606054004967,6219975.0,63_0_yes,45.89536218660929,-93.66900370882006,150.0
54005,45.23447,-92.23051,Clear Lake,WI,Wisconsin,True,,3017.0,13.9,55095,Polk,"{""55095"": 65.03, ""55109"": 19.64, ""55005"": 8.46, ""55033"": 6.87}",Polk|St. Croix|Barron|Dunn,55095|55109|55005|55033,False,False,America/Chicago,"(45.23447, -92.23051)",83.22634773138121,6219975.0,63_0_yes,45.89536218660929,-93.66900370882006,150.0
54006,45.58958,-92.64824,Cushing,WI,Wisconsin,True,,675.0,9.5,55095,Polk,"{""55095"": 100}",Polk,55095,False,False,America/Chicago,"(45.58958, -92.64824)",53.56274732151794,6219975.0,63_0_yes,45.89536218660929,-93.66900370882006,150.0
54007,45.18781,-92.35734,Deer Park,WI,Wisconsin,True,,960.0,8.2,55109,St. Croix,"{""55109"": 77.92, ""55095"": 22.08}",St. Croix|Polk,55109|55095,False,False,America/Chicago,"(45.18781, -92.35734)",80.116683747198,6219975.0,63_0_yes,45.89536218660929,-93.66900370882006,150.0
54009,45.35358,-92.57693,Dresser,WI,Wisconsin,True,,2528.0,29.2,55095,Polk,"{""55095"": 100}",Polk,55095,False,False,America/Chicago,"(45.35358, -92.57693)",64.69800762036357,6219975.0,63_0_yes,45.89536218660929,-93.66900370882006,150.0
54011,44.71648,-92.46279,Ellsworth,WI,Wisconsin,True,,6706.0,24.8,55093,Pierce,"{""55093"": 100}",Pierce,55093,False,False,America/Chicago,"(44.71648, -92.46279)",100.34862350169402,6219975.0,63_0_yes,45.89536218660929,-93.66900370882006,150.0
54013,45.08134,-92.22929,Glenwood City,WI,Wisconsin,True,,3318.0,12.2,55109,St. Croix,"{""55109"": 96.47, ""55033"": 3.53}",St. Croix|Dunn,55109|55033,False,False,America/Chicago,"(45.08134, -92.22929)",89.58878254295897,6219975.0,63_0_yes,45.89536218660929,-93.66900370882006,150.0
54014,44.64578,-92.57048,Hager City,WI,Wisconsin,True,,2074.0,18.9,55093,Pierce,"{""55093"": 100}",Pierce,55093,False,False,America/Chicago,"(44.64578, -92.57048)",101.52334126427921,6219975.0,63_0_yes,45.89536218660929,-93.66900370882006,150.0
54015,44.96899,-92.45419,Hammond,WI,Wisconsin,True,,3743.0,41.3,55109,St. Croix,"{""55109"": 100}",St. Croix,55109,False,False,America/Chicago,"(44.96899, -92.45419)",86.98205134465395,6219975.0,63_0_yes,45.89536218660929,-93.66900370882006,150.0
54016,44.97949,-92.69305,Hudson,WI,Wisconsin,True,,32171.0,185.2,55109,St. Croix,"{""55109"": 100}",St. Croix,55109,False,False,America/Chicago,"(44.97949, -92.69305)",79.01298639274904,6219975.0,63_0_yes,45.89536218660929,-93.66900370882006,150.0
54017,45.11907,-92.52091,New Richmond,WI,Wisconsin,True,,18289.0,50.7,55109,St. Croix,"{""55109"": 96.85, ""55095"": 3.15}",St. Croix|Polk,55109|55095,False,False,America/Chicago,"(45.11907, -92.52091)",77.24784136226793,6219975.0,63_0_yes,45.89536218660929,-93.66900370882006,150.0
54020,45.27937,-92.65235,Osceola,WI,Wisconsin,True,,7306.0,38.3,55095,Polk,"{""55095"": 99.02, ""55109"": 0.98}",Polk|St. Croix,55095|55109,False,False,America/Chicago,"(45.27937, -92.65235)",65.02189414524618,6219975.0,63_0_yes,45.89536218660929,-93.66900370882006,150.0
54021,44.74048,-92.71144,Prescott,WI,Wisconsin,True,,7202.0,63.7,55093,Pierce,"{""55093"": 100}",Pierce,55093,False,False,America/Chicago,"(44.74048, -92.71144)",92.36478707019793,6219975.0,63_0_yes,45.89536218660929,-93.66900370882006,150.0
54022,44.84796,-92.6096,River Falls,WI,Wisconsin,True,,23775.0,66.6,55093,Pierce,"{""55093"": 61.26, ""55109"": 38.74}",Pierce|St. Croix,55093|55109,False,False,America/Chicago,"(44.84796, -92.6096)",88.77545783753108,6219975.0,63_0_yes,45.89536218660929,-93.66900370882006,150.0
54023,44.97708,-92.55218,Roberts,WI,Wisconsin,True,,4412.0,37.9,55109,St. Croix,"{""55109"": 100}",St. Croix,55109,False,False,America/Chicago,"(44.97708, -92.55218)",83.40952813522333,6219975.0,63_0_yes,45.89536218660929,-93.66900370882006,150.0
54024,45.49873,-92.64781,Saint Croix Falls,WI,Wisconsin,True,,4602.0,21.3,55095,Polk,"{""55095"": 100}",Polk,55095,False,False,America/Chicago,"(45.49873, -92.64781)",56.38778318556623,6219975.0,63_0_yes,45.89536218660929,-93.66900370882006,150.0
54025,45.14184,-92.68997,Somerset,WI,Wisconsin,True,,7179.0,55.3,55109,St. Croix,"{""55109"": 100}",St. Croix,55109,False,False,America/Chicago,"(45.14184, -92.68997)",70.40548945803309,6219975.0,63_0_yes,45.89536218660929,-93.66900370882006,150.0
54026,45.22688,-92.53459,Star Prairie,WI,Wisconsin,True,,2038.0,28.3,55095,Polk,"{""55095"": 75.98, ""55109"": 24.02}",Polk|St. Croix,55095|55109,False,False,America/Chicago,"(45.22688, -92.53459)",71.72660328699497,6219975.0,63_0_yes,45.89536218660929,-93.66900370882006,150.0
54027,44.92403,-92.19985,Wilson,WI,Wisconsin,True,,1002.0,11.9,55109,St. Croix,"{""55109"": 100}",St. Croix,55109,False,False,America/Chicago,"(44.92403, -92.19985)",97.88675953032681,6219975.0,63_0_yes,45.89536218660929,-93.66900370882006,150.0
54028,44.95532,-92.28279,Woodville,WI,Wisconsin,True,,2665.0,27.5,55109,St. Croix,"{""55109"": 100}",St. Croix,55109,False,False,America/Chicago,"(44.95532, -92.28279)",93.4703645439319,6219975.0,63_0_yes,45.89536218660929,-93.66900370882006,150.0
54082,45.0696,-92.75403,Houlton,WI,Wisconsin,True,,1649.0,51.4,55109,St. Croix,"{""55109"": 100}",St. Croix,55109,False,False,America/Chicago,"(45.0696, -92.75403)",72.24768557895077,6219975.0,63_0_yes,45.89536218660929,-93.66900370882006,150.0
54433,45.20649,-90.81756,Gilman,WI,Wisconsin,True,,1888.0,4.6,55119,Taylor,"{""55119"": 88.93, ""55017"": 11.07}",Taylor|Chippewa,55119|55017,False,False,America/Chicago,"(45.20649, -90.81756)",145.9346782026172,6219975.0,63_0_yes,45.89536218660929,-93.66900370882006,150.0
54437,44.77867,-90.63866,Greenwood,WI,Wisconsin,True,,2988.0,9.2,55019,Clark,"{""55019"": 100}",Clark,55019,False,False,America/Chicago,"(44.77867, -90.63866)",166.16011395822167,6219975.0,63_0_yes,45.89536218660929,-93.66900370882006,150.0
54447,45.09061,-90.72911,Lublin,WI,Wisconsin,True,,431.0,3.7,55119,Taylor,"{""55119"": 100}",Taylor,55119,False,False,America/Chicago,"(45.09061, -90.72911)",152.85098640927123,6219975.0,63_0_yes,45.89536218660929,-93.66900370882006,150.0
54456,44.54511,-90.63824,Neillsville,WI,Wisconsin,True,,5644.0,9.7,55019,Clark,"{""55019"": 100}",Clark,55019,False,False,America/Chicago,"(44.54511, -90.63824)",174.51045780797142,6219975.0,63_0_yes,45.89536218660929,-93.66900370882006,150.0
54493,44.70083,-90.80107,Willard,WI,Wisconsin,True,,685.0,2.5,55019,Clark,"{""55019"": 100}",Clark,55019,False,False,America/Chicago,"(44.70083, -90.80107)",161.97372918882235,6219975.0,63_0_yes,45.89536218660929,-93.66900370882006,150.0
54498,45.03278,-90.62105,Withee,WI,Wisconsin,True,,2376.0,8.2,55019,Clark,"{""55019"": 50.7, ""55119"": 49.3}",Clark|Taylor,55019|55119,False,False,America/Chicago,"(45.03278, -90.62105)",159.25869223812944,6219975.0,63_0_yes,45.89536218660929,-93.66900370882006,150.0
54517,46.11899,-90.93035,Clam Lake,WI,Wisconsin,True,,121.0,0.5,55003,Ashland,"{""55003"": 56.22, ""55113"": 30.95, ""55007"": 12.83}",Ashland|Sawyer|Bayfield,55003|55113|55007,False,False,America/Chicago,"(46.11899, -90.93035)",132.3266093481673,6219975.0,63_0_yes,45.89536218660929,-93.66900370882006,150.0
54526,45.50969,-90.85872,Glen Flora,WI,Wisconsin,True,,755.0,2.5,55107,Rusk,"{""55107"": 100}",Rusk,55107,False,False,America/Chicago,"(45.50969, -90.85872)",138.19214538257273,6219975.0,63_0_yes,45.89536218660929,-93.66900370882006,150.0
54527,46.13543,-90.6366,Glidden,WI,Wisconsin,True,,817.0,1.6,55003,Ashland,"{""55003"": 100}",Ashland,55003,False,False,America/Chicago,"(46.13543, -90.6366)",146.43693233506184,6219975.0,63_0_yes,45.89536218660929,-93.66900370882006,150.0
54530,45.53202,-90.71537,Hawkins,WI,Wisconsin,True,,726.0,2.4,55107,Rusk,"{""55107"": 71.32, ""55099"": 24.1, ""55113"": 4.58}",Rusk|Price|Sawyer,55107|55099|55113,False,False,America/Chicago,"(45.53202, -90.71537)",144.68094434567334,6219975.0,63_0_yes,45.89536218660929,-93.66900370882006,150.0
54537,45.53136,-90.60213,Kennan,WI,Wisconsin,True,,512.0,2.3,55099,Price,"{""55099"": 100}",Price,55099,False,False,America/Chicago,"(45.53136, -90.60213)",150.0717304162915,6219975.0,63_0_yes,45.89536218660929,-93.66900370882006,150.0
54546,46.28685,-90.70977,Mellen,WI,Wisconsin,True,,1084.0,2.0,55003,Ashland,"{""55003"": 100}",Ashland,55003,False,False,America/Chicago,"(46.28685, -90.70977)",144.34598242498936,6219975.0,63_0_yes,45.89536218660929,-93.66900370882006,150.0
54563,45.46448,-90.97428,Tony,WI,Wisconsin,True,,816.0,7.5,55107,Rusk,"{""55107"": 100}",Rusk,55107,False,False,America/Chicago,"(45.46448, -90.97428)",133.43905438758847,6219975.0,63_0_yes,45.89536218660929,-93.66900370882006,150.0
54601,43.80199,-91.14559,La Crosse,WI,Wisconsin,True,,51063.0,261.3,55063,La Crosse,"{""55063"": 100}",La Crosse,55063,False,False,America/Chicago,"(43.80199, -91.14559)",190.24120489231208,6219975.0,63_0_yes,45.89536218660929,-93.66900370882006,150.0
54603,43.85729,-91.24791,La Crosse,WI,Wisconsin,True,,13770.0,600.3,55063,La Crosse,"{""55063"": 100}",La Crosse,55063,False,False,America/Chicago,"(43.85729, -91.24791)",184.0504799665198,6219975.0,63_0_yes,45.89536218660929,-93.66900370882006,150.0
54610,44.37077,-91.82549,Alma,WI,Wisconsin,True,,1546.0,4.7,55011,Buffalo,"{""55011"": 100}",Buffalo,55011,False,False,America/Chicago,"(44.37077, -91.82549)",138.45060157344108,6219975.0,63_0_yes,45.89536218660929,-93.66900370882006,150.0
54611,44.44624,-90.95164,Alma Center,WI,Wisconsin,True,,1243.0,8.9,55053,Jackson,"{""55053"": 100}",Jackson,55053,False,False,America/Chicago,"(44.44624, -90.95164)",165.95140606054048,6219975.0,63_0_yes,45.89536218660929,-93.66900370882006,150.0
54612,44.24882,-91.50066,Arcadia,WI,Wisconsin,True,,5015.0,12.8,55121,Trempealeau,"{""55121"": 72.31, ""55011"": 27.69}",Trempealeau|Buffalo,55121|55011,False,False,America/Chicago,"(44.24882, -91.50066)",155.34890151701643,6219975.0,63_0_yes,45.89536218660929,-93.66900370882006,150.0
54614,43.90242,-90.9729,Bangor,WI,Wisconsin,True,,2548.0,12.5,55063,La Crosse,"{""55063"": 100}",La Crosse,55063,False,False,America/Chicago,"(43.90242, -90.9729)",190.6945188784658,6219975.0,63_0_yes,45.89536218660929,-93.66900370882006,150.0
54615,44.26158,-90.78049,Black River Falls,WI,Wisconsin,True,,10525.0,12.9,55053,Jackson,"{""55053"": 97.14, ""55081"": 2.86}",Jackson|Monroe,55053|55081,False,False,America/Chicago,"(44.26158, -90.78049)",180.5441418029819,6219975.0,63_0_yes,45.89536218660929,-93.66900370882006,150.0
54616,44.30402,-91.2283,Blair,WI,Wisconsin,True,,2488.0,10.3,55121,Trempealeau,"{""55121"": 87.19, ""55053"": 12.81}",Trempealeau|Jackson,55121|55053,False,False,America/Chicago,"(44.30402, -91.2283)",162.03150630107578,6219975.0,63_0_yes,45.89536218660929,-93.66900370882006,150.0
54619,43.75562,-90.77968,Cashton,WI,Wisconsin,True,,3568.0,13.1,55081,Monroe,"{""55081"": 73.82, ""55123"": 22.34, ""55063"": 3.84}",Monroe|Vernon|La Crosse,55081|55123|55063,False,False,America/Chicago,"(43.75562, -90.77968)",204.6803379405587,6219975.0,63_0_yes,45.89536218660929,-93.66900370882006,150.0
54622,44.26953,-91.76629,Cochrane,WI,Wisconsin,True,,1975.0,13.5,55011,Buffalo,"{""55011"": 100}",Buffalo,55011,False,False,America/Chicago,"(44.26953, -91.76629)",145.71523271690836,6219975.0,63_0_yes,45.89536218660929,-93.66900370882006,150.0
54623,43.72894,-91.03065,Coon Valley,WI,Wisconsin,True,,2142.0,16.3,55063,La Crosse,"{""55063"": 57.41, ""55123"": 42.59}",La Crosse|Vernon,55063|55123,False,False,America/Chicago,"(43.72894, -91.03065)",197.78950484529216,6219975.0,63_0_yes,45.89536218660929,-93.66900370882006,150.0
54625,44.13287,-91.52507,Dodge,WI,Wisconsin,True,,225.0,13.4,55121,Trempealeau,"{""55121"": 100}",Trempealeau,55121,False,False,America/Chicago,"(44.13287, -91.52507)",160.59743728996781,6219975.0,63_0_yes,45.89536218660929,-93.66900370882006,150.0
54627,44.16873,-91.23634,Ettrick,WI,Wisconsin,True,,1754.0,8.0,55121,Trempealeau,"{""55121"": 88.19, ""55053"": 11.81}",Trempealeau|Jackson,55121|55053,False,False,America/Chicago,"(44.16873, -91.23634)",168.33511777236302,6219975.0,63_0_yes,45.89536218660929,-93.66900370882006,150.0
54629,44.15928,-91.66661,Fountain City,WI,Wisconsin,True,,2643.0,9.1,55011,Buffalo,"{""55011"": 100}",Buffalo,55011,False,False,America/Chicago,"(44.15928, -91.66661)",154.74679855667924,6219975.0,63_0_yes,45.89536218660929,-93.66900370882006,150.0
54630,44.10339,-91.35881,Galesville,WI,Wisconsin,True,,4106.0,19.5,55121,Trempealeau,"{""55121"": 100}",Trempealeau,55121,False,False,America/Chicago,"(44.10339, -91.35881)",167.52367377348793,6219975.0,63_0_yes,45.89536218660929,-93.66900370882006,150.0
54635,44.40871,-91.04455,Hixton,WI,Wisconsin,True,,1787.0,8.6,55053,Jackson,"{""55053"": 100}",Jackson,55053,False,False,America/Chicago,"(44.40871, -91.04455)",164.01008846544053,6219975.0,63_0_yes,45.89536218660929,-93.66900370882006,150.0
54636,44.00732,-91.22682,Holmen,WI,Wisconsin,True,,14838.0,69.0,55063,La Crosse,"{""55063"": 100}",La Crosse,55063,False,False,America/Chicago,"(44.00732, -91.22682)",176.83859357901642,6219975.0,63_0_yes,45.89536218660929,-93.66900370882006,150.0
54642,44.14978,-91.05303,Melrose,WI,Wisconsin,True,,2162.0,9.1,55053,Jackson,"{""55053"": 92.83, ""55121"": 4.31, ""55063"": 2.86}",Jackson|Trempealeau|La Crosse,55053|55121|55063,False,False,America/Chicago,"(44.14978, -91.05303)",175.67488152020047,6219975.0,63_0_yes,45.89536218660929,-93.66900370882006,150.0
54643,44.18758,-90.63432,Millston,WI,Wisconsin,True,,2.0,2.5,55053,Jackson,"{""55053"": 100}",Jackson,55053,False,False,America/Chicago,"(44.18758, -90.63432)",189.37904818597434,6219975.0,63_0_yes,45.89536218660929,-93.66900370882006,150.0
54644,44.03089,-91.04326,Mindoro,WI,Wisconsin,True,,1420.0,9.0,55063,La Crosse,"{""55063"": 93.01, ""55053"": 6.99}",La Crosse|Jackson,55063|55053,False,False,America/Chicago,"(44.03089, -91.04326)",181.84097445689295,6219975.0,63_0_yes,45.89536218660929,-93.66900370882006,150.0
54648,43.83544,-90.63553,Norwalk,WI,Wisconsin,True,,1703.0,8.9,55081,Monroe,"{""55081"": 100}",Monroe,55081,False,False,America/Chicago,"(43.83544, -90.63553)",205.70078221962558,6219975.0,63_0_yes,45.89536218660929,-93.66900370882006,150.0
54650,43.9099,-91.22424,Onalaska,WI,Wisconsin,True,,24794.0,309.7,55063,La Crosse,"{""55063"": 100}",La Crosse,55063,False,False,America/Chicago,"(43.9099, -91.22424)",182.00878810711598,6219975.0,63_0_yes,45.89536218660929,-93.66900370882006,150.0
54651,43.72368,-90.57004,Ontario,WI,Wisconsin,True,,1613.0,10.5,55123,Vernon,"{""55123"": 57.02, ""55081"": 42.98}",Vernon|Monroe,55123|55081,False,False,America/Chicago,"(43.72368, -90.57004)",213.48682368491504,6219975.0,63_0_yes,45.89536218660929,-93.66900370882006,150.0
54653,43.82586,-90.9129,Rockland,WI,Wisconsin,True,,910.0,16.3,55063,La Crosse,"{""55063"": 60.9, ""55081"": 39.1}",La Crosse|Monroe,55063|55081,False,False,America/Chicago,"(43.82586, -90.9129)",196.61125567704855,6219975.0,63_0_yes,45.89536218660929,-93.66900370882006,150.0
54656,44.00291,-90.79601,Sparta,WI,Wisconsin,True,,18096.0,24.8,55081,Monroe,"{""55081"": 99.89, ""55063"": 0.11}",Monroe|La Crosse,55081|55063,False,False,America/Chicago,"(44.00291, -90.79601)",191.8984013882052,6219975.0,63_0_yes,45.89536218660929,-93.66900370882006,150.0
54659,44.29704,-91.10065,Taylor,WI,Wisconsin,True,,1307.0,8.6,55053,Jackson,"{""55053"": 97.55, ""55121"": 2.45}",Jackson|Trempealeau,55053|55121,False,False,America/Chicago,"(44.29704, -91.10065)",166.9810185350419,6219975.0,63_0_yes,45.89536218660929,-93.66900370882006,150.0
54661,44.05943,-91.47133,Trempealeau,WI,Wisconsin,True,,3913.0,29.2,55121,Trempealeau,"{""55121"": 99.76, ""55063"": 0.24}",Trempealeau|La Crosse,55121|55063,False,False,America/Chicago,"(44.05943, -91.47133)",166.20468970973468,6219975.0,63_0_yes,45.89536218660929,-93.66900370882006,150.0
54669,43.91171,-91.09046,West Salem,WI,Wisconsin,True,,7825.0,58.5,55063,La Crosse,"{""55063"": 100}",La Crosse,55063,False,False,America/Chicago,"(43.91171, -91.09046)",186.28215279585785,6219975.0,63_0_yes,45.89536218660929,-93.66900370882006,150.0
54701,44.7432,-91.50899,Eau Claire,WI,Wisconsin,True,,41358.0,185.6,55035,Eau Claire,"{""55035"": 95.16, ""55033"": 4.84}",Eau Claire|Dunn,55035|55033,False,False,America/Chicago,"(44.7432, -91.50899)",131.71050862891482,6219975.0,63_0_yes,45.89536218660929,-93.66900370882006,150.0
54703,44.83311,-91.5185,Eau Claire,WI,Wisconsin,True,,43089.0,205.2,55035,Eau Claire,"{""55035"": 77.97, ""55017"": 20.37, ""55033"": 1.66}",Eau Claire|Chippewa|Dunn,55035|55017|55033,False,False,America/Chicago,"(44.83311, -91.5185)",127.60624313056644,6219975.0,63_0_yes,45.89536218660929,-93.66900370882006,150.0
54720,44.80511,-91.43646,Altoona,WI,Wisconsin,True,,7857.0,638.9,55035,Eau Claire,"{""55035"": 100}",Eau Claire,55035,False,False,America/Chicago,"(44.80511, -91.43646)",132.00005080410597,6219975.0,63_0_yes,45.89536218660929,-93.66900370882006,150.0
54721,44.6304,-92.07098,Arkansaw,WI,Wisconsin,True,,1425.0,8.4,55091,Pepin,"{""55091"": 85.86, ""55033"": 11.9, ""55093"": 2.24}",Pepin|Dunn|Pierce,55091|55033|55093,False,False,America/Chicago,"(44.6304, -92.07098)",116.9497291077606,6219975.0,63_0_yes,45.89536218660929,-93.66900370882006,150.0
54722,44.71702,-91.09874,Augusta,WI,Wisconsin,True,,3859.0,10.0,55035,Eau Claire,"{""55035"": 100}",Eau Claire,55035,False,False,America/Chicago,"(44.71702, -91.09874)",149.08127234342712,6219975.0,63_0_yes,45.89536218660929,-93.66900370882006,150.0
54723,44.61063,-92.42893,Bay City,WI,Wisconsin,True,,1049.0,12.4,55093,Pierce,"{""55093"": 100}",Pierce,55093,False,False,America/Chicago,"(44.61063, -92.42893)",107.31730727032058,6219975.0,63_0_yes,45.89536218660929,-93.66900370882006,150.0
54724,45.10793,-91.48458,Bloomer,WI,Wisconsin,True,,7188.0,17.1,55017,Chippewa,"{""55017"": 99.43, ""55033"": 0.57}",Chippewa|Dunn,55017|55033,False,False,America/Chicago,"(45.10793, -91.48458)",118.94971344265613,6219975.0,63_0_yes,45.89536218660929,-93.66900370882006,150.0
54725,45.07103,-92.01062,Boyceville,WI,Wisconsin,True,,2900.0,11.4,55033,Dunn,"{""55033"": 100}",Dunn,55033,False,False,America/Chicago,"(45.07103, -92.01062)",98.47461833062931,6219975.0,63_0_yes,45.89536218660929,-93.66900370882006,150.0
54726,44.94151,-91.01975,Boyd,WI,Wisconsin,True,,1854.0,8.8,55017,Chippewa,"{""55017"": 72.15, ""55035"": 27.85}",Chippewa|Eau Claire,55017|55035,False,False,America/Chicago,"(44.94151, -91.01975)",144.3905706454061,6219975.0,63_0_yes,45.89536218660929,-93.66900370882006,150.0
54727,44.95827,-91.15873,Cadott,WI,Wisconsin,True,,4513.0,12.2,55017,Chippewa,"{""55017"": 94.5, ""55035"": 5.5}",Chippewa|Eau Claire,55017|55035,False,False,America/Chicago,"(44.95827, -91.15873)",137.86524325224605,6219975.0,63_0_yes,45.89536218660929,-93.66900370882006,150.0
54728,45.30778,-91.6417,Chetek,WI,Wisconsin,True,,5997.0,18.4,55005,Barron,"{""55005"": 79.94, ""55107"": 19.29, ""55033"": 0.77}",Barron|Rusk|Dunn,55005|55107|55033,False,False,America/Chicago,"(45.30778, -91.6417)",106.07368101881059,6219975.0,63_0_yes,45.89536218660929,-93.66900370882006,150.0
54729,44.94533,-91.39342,Chippewa Falls,WI,Wisconsin,True,,32927.0,77.0,55017,Chippewa,"{""55017"": 97.14, ""55035"": 2.86}",Chippewa|Eau Claire,55017|55035,False,False,America/Chicago,"(44.94533, -91.39342)",128.39676538574312,6219975.0,63_0_yes,45.89536218660929,-93.66900370882006,150.0
54730,45.01836,-91.72143,Colfax,WI,Wisconsin,True,,5188.0,14.5,55033,Dunn,"{""55033"": 78.28, ""55017"": 21.72}",Dunn|Chippewa,55033|55017,False,False,America/Chicago,"(45.01836, -91.72143)",112.16078609660865,6219975.0,63_0_yes,45.89536218660929,-93.66900370882006,150.0
54731,45.34656,-91.08304,Conrath,WI,Wisconsin,True,,723.0,6.0,55107,Rusk,"{""55107"": 100}",Rusk,55107,False,False,America/Chicago,"(45.34656, -91.08304)",130.58348913561207,6219975.0,63_0_yes,45.89536218660929,-93.66900370882006,150.0
54732,45.14571,-91.16543,Cornell,WI,Wisconsin,True,,3199.0,12.7,55017,Chippewa,"{""55017"": 100}",Chippewa,55017,False,False,America/Chicago,"(45.14571, -91.16543)",131.79555369164066,6219975.0,63_0_yes,45.89536218660929,-93.66900370882006,150.0
54733,45.28331,-91.85641,Dallas,WI,Wisconsin,True,,1216.0,10.5,55005,Barron,"{""55005"": 100}",Barron,55005,False,False,America/Chicago,"(45.28331, -91.85641)",97.30729411425935,6219975.0,63_0_yes,45.89536218660929,-93.66900370882006,150.0
54734,45.09045,-92.11358,Downing,WI,Wisconsin,True,,720.0,8.9,55033,Dunn,"{""55033"": 94.0, ""55109"": 6.0}",Dunn|St. Croix,55033|55109,False,False,America/Chicago,"(45.09045, -92.11358)",93.6368918217765,6219975.0,63_0_yes,45.89536218660929,-93.66900370882006,150.0
54736,44.60345,-91.90455,Durand,WI,Wisconsin,True,,4193.0,12.6,55091,Pepin,"{""55091"": 50.29, ""55011"": 44.79, ""55033"": 4.92}",Pepin|Buffalo|Dunn,55091|55011|55033,False,False,America/Chicago,"(44.60345, -91.90455)",123.82587820535434,6219975.0,63_0_yes,45.89536218660929,-93.66900370882006,150.0
54737,44.71593,-91.98298,Eau Galle,WI,Wisconsin,True,,679.0,12.4,55033,Dunn,"{""55033"": 94.83, ""55091"": 5.17}",Dunn|Pepin,55033|55091,False,False,America/Chicago,"(44.71593, -91.98298)",115.5530594602616,6219975.0,63_0_yes,45.89536218660929,-93.66900370882006,150.0
54738,44.59478,-91.47892,Eleva,WI,Wisconsin,True,,3491.0,13.7,55035,Eau Claire,"{""55035"": 53.48, ""55121"": 45.44, ""55011"": 1.08}",Eau Claire|Trempealeau|Buffalo,55035|55121|55011,False,False,America/Chicago,"(44.59478, -91.47892)",139.36798602854847,6219975.0,63_0_yes,45.89536218660929,-93.66900370882006,150.0
54739,44.86177,-91.70097,Elk Mound,WI,Wisconsin,True,,5429.0,20.4,55033,Dunn,"{""55033"": 81.86, ""55017"": 18.0, ""55035"": 0.14}",Dunn|Chippewa|Eau Claire,55033|55017|55035,False,False,America/Chicago,"(44.86177, -91.70097)",119.25360840776594,6219975.0,63_0_yes,45.89536218660929,-93.66900370882006,150.0
54740,44.74427,-92.15853,Elmwood,WI,Wisconsin,True,,1964.0,9.1,55093,Pierce,"{""55093"": 57.61, ""55033"": 42.39}",Pierce|Dunn,55093|55033,False,False,America/Chicago,"(44.74427, -92.15853)",108.2113321924716,6219975.0,63_0_yes,45.89536218660929,-93.66900370882006,150.0
54741,44.61237,-90.98121,Fairchild,WI,Wisconsin,True,,1901.0,7.6,55035,Eau Claire,"{""55035"": 47.92, ""55053"": 39.23, ""55019"": 12.85}",Eau Claire|Jackson|Clark,55035|55053|55019,False,False,America/Chicago,"(44.61237, -90.98121)",157.93915508032265,6219975.0,63_0_yes,45.89536218660929,-93.66900370882006,150.0
54742,44.76319,-91.2722,Fall Creek,WI,Wisconsin,True,,5347.0,19.1,55035,Eau Claire,"{""55035"": 100}",Eau Claire,55035,False,False,America/Chicago,"(44.76319, -91.2722)",140.25366451075456,6219975.0,63_0_yes,45.89536218660929,-93.66900370882006,150.0
54745,45.24875,-91.13494,Holcombe,WI,Wisconsin,True,,2114.0,6.3,55017,Chippewa,"{""55017"": 85.18, ""55107"": 14.82}",Chippewa|Rusk,55017|55107,False,False,America/Chicago,"(45.24875, -91.13494)",130.44460599760401,6219975.0,63_0_yes,45.89536218660929,-93.66900370882006,150.0
54746,44.54543,-90.87217,Humbird,WI,Wisconsin,True,,710.0,6.2,55019,Clark,"{""55019"": 82.79, ""55053"": 17.21}",Clark|Jackson,55019|55053,False,False,America/Chicago,"(44.54543, -90.87217)",164.99086472281908,6219975.0,63_0_yes,45.89536218660929,-93.66900370882006,150.0
54747,44.39438,-91.5035,Independence,WI,Wisconsin,True,,2299.0,7.5,55121,Trempealeau,"{""55121"": 63.26, ""55011"": 36.74}",Trempealeau|Buffalo,55121|55011,False,False,America/Chicago,"(44.39438, -91.5035)",147.94894219799568,6219975.0,63_0_yes,45.89536218660929,-93.66900370882006,150.0
54748,45.07919,-91.26586,Jim Falls,WI,Wisconsin,True,,1234.0,11.9,55017,Chippewa,"{""55017"": 100}",Chippewa,55017,False,False,America/Chicago,"(45.07919, -91.26586)",129.33885569429836,6219975.0,63_0_yes,45.89536218660929,-93.66900370882006,150.0
54749,44.94862,-92.09785,Knapp,WI,Wisconsin,True,,1552.0,15.0,55033,Dunn,"{""55033"": 83.85, ""55109"": 16.15}",Dunn|St. Croix,55033|55109,False,False,America/Chicago,"(44.94862, -92.09785)",100.41749945188441,6219975.0,63_0_yes,45.89536218660929,-93.66900370882006,150.0
54750,44.62052,-92.29513,Maiden Rock,WI,Wisconsin,True,,936.0,5.5,55093,Pierce,"{""55093"": 100}",Pierce,55093,False,False,America/Chicago,"(44.62052, -92.29513)",110.5561773062644,6219975.0,63_0_yes,45.89536218660929,-93.66900370882006,150.0
54751,44.84971,-91.92994,Menomonie,WI,Wisconsin,True,,25931.0,43.9,55033,Dunn,"{""55033"": 100}",Dunn,55033,False,False,America/Chicago,"(44.84971, -91.92994)",111.10232742468943,6219975.0,63_0_yes,45.89536218660929,-93.66900370882006,150.0
54754,44.42913,-90.77527,Merrillan,WI,Wisconsin,True,,1769.0,9.1,55053,Jackson,"{""55053"": 82.15, ""55019"": 17.85}",Jackson|Clark,55053|55019,False,False,America/Chicago,"(44.42913, -90.77527)",173.58283883093398,6219975.0,63_0_yes,45.89536218660929,-93.66900370882006,150.0
54755,44.57513,-91.67971,Mondovi,WI,Wisconsin,True,,7073.0,10.5,55011,Buffalo,"{""55011"": 60.0, ""55033"": 14.57, ""55091"": 13.4, ""55035"": 12.03}",Buffalo|Dunn|Pepin|Eau Claire,55011|55033|55091|55035,False,False,America/Chicago,"(44.57513, -91.67971)",132.9928789386059,6219975.0,63_0_yes,45.89536218660929,-93.66900370882006,150.0
54756,44.46153,-91.94552,Nelson,WI,Wisconsin,True,,891.0,4.4,55011,Buffalo,"{""55011"": 100}",Buffalo,55011,False,False,America/Chicago,"(44.46153, -91.94552)",129.84149244908187,6219975.0,63_0_yes,45.89536218660929,-93.66900370882006,150.0
54757,45.23085,-91.52498,New Auburn,WI,Wisconsin,True,,3463.0,8.6,55017,Chippewa,"{""55017"": 56.89, ""55005"": 18.79, ""55033"": 15.62, ""55107"": 8.7}",Chippewa|Barron|Dunn|Rusk,55017|55005|55033|55107,False,False,America/Chicago,"(45.23085, -91.52498)",113.41810663656584,6219975.0,63_0_yes,45.89536218660929,-93.66900370882006,150.0
54758,44.54546,-91.2173,Osseo,WI,Wisconsin,True,,4779.0,11.8,55121,Trempealeau,"{""55121"": 52.8, ""55053"": 24.54, ""55035"": 22.66}",Trempealeau|Jackson|Eau Claire,55121|55053|55035,False,False,America/Chicago,"(44.54546, -91.2173)",151.43523228970238,6219975.0,63_0_yes,45.89536218660929,-93.66900370882006,150.0
54759,44.48936,-92.1232,Pepin,WI,Wisconsin,True,,1437.0,10.9,55091,Pepin,"{""55091"": 100}",Pepin,55091,False,False,America/Chicago,"(44.48936, -92.1232)",122.88721549509431,6219975.0,63_0_yes,45.89536218660929,-93.66900370882006,150.0
54760,44.42412,-91.20626,Pigeon Falls,WI,Wisconsin,True,,235.0,595.5,55121,Trempealeau,"{""55121"": 100}",Trempealeau,55121,False,False,America/Chicago,"(44.42412, -91.20626)",157.24325671217477,6219975.0,63_0_yes,45.89536218660929,-93.66900370882006,150.0
54761,44.62667,-92.17908,Plum City,WI,Wisconsin,True,,1307.0,12.5,55093,Pierce,"{""55093"": 100}",Pierce,55093,False,False,America/Chicago,"(44.62667, -92.17908)",113.72512305281498,6219975.0,63_0_yes,45.89536218660929,-93.66900370882006,150.0
54762,45.25107,-91.98967,Prairie Farm,WI,Wisconsin,True,,1235.0,9.0,55005,Barron,"{""55005"": 86.91, ""55033"": 13.09}",Barron|Dunn,55005|55033,False,False,America/Chicago,"(45.25107, -91.98967)",92.61792650208618,6219975.0,63_0_yes,45.89536218660929,-93.66900370882006,150.0
54763,45.179,-91.87683,Ridgeland,WI,Wisconsin,True,,1082.0,6.9,55033,Dunn,"{""55033"": 83.46, ""55005"": 16.54}",Dunn|Barron,55033|55005,False,False,America/Chicago,"(45.179, -91.87683)",99.8598710719496,6219975.0,63_0_yes,45.89536218660929,-93.66900370882006,150.0
54766,45.33667,-90.86566,Sheldon,WI,Wisconsin,True,,1878.0,5.6,55119,Taylor,"{""55119"": 51.66, ""55107"": 38.04, ""55017"": 10.3}",Taylor|Rusk|Chippewa,55119|55107|55017,False,False,America/Chicago,"(45.33667, -90.86566)",140.86419015400938,6219975.0,63_0_yes,45.89536218660929,-93.66900370882006,150.0
54767,44.82645,-92.25513,Spring Valley,WI,Wisconsin,True,,3484.0,16.1,55093,Pierce,"{""55093"": 81.97, ""55109"": 12.64, ""55033"": 5.39}",Pierce|St. Croix|Dunn,55093|55109|55033,False,False,America/Chicago,"(44.82645, -92.25513)",100.82335173350762,6219975.0,63_0_yes,45.89536218660929,-93.66900370882006,150.0
54768,44.96312,-90.92761,Stanley,WI,Wisconsin,True,,6450.0,18.5,55017,Chippewa,"{""55017"": 45.47, ""55019"": 32.4, ""55119"": 12.7, ""55035"": 9.43}",Chippewa|Clark|Taylor|Eau Claire,55017|55019|55119|55035,False,False,America/Chicago,"(44.96312, -90.92761)",147.7000628454254,6219975.0,63_0_yes,45.89536218660929,-93.66900370882006,150.0
54769,44.50897,-92.23304,Stockholm,WI,Wisconsin,True,,539.0,6.4,55091,Pepin,"{""55091"": 79.65, ""55093"": 20.35}",Pepin|Pierce,55091|55093,False,False,America/Chicago,"(44.50897, -92.23304)",118.58280017598977,6219975.0,63_0_yes,45.89536218660929,-93.66900370882006,150.0
54770,44.55121,-91.37259,Strum,WI,Wisconsin,True,,2145.0,12.8,55121,Trempealeau,"{""55121"": 73.5, ""55035"": 26.5}",Trempealeau|Eau Claire,55121|55035,False,False,America/Chicago,"(44.55121, -91.37259)",145.2982174100175,6219975.0,63_0_yes,45.89536218660929,-93.66900370882006,150.0
54771,44.92356,-90.80579,Thorp,WI,Wisconsin,True,,4303.0,11.1,55019,Clark,"{""55019"": 88.19, ""55119"": 11.81}",Clark|Taylor,55019|55119,False,False,America/Chicago,"(44.92356, -90.80579)",154.25001763526035,6219975.0,63_0_yes,45.89536218660929,-93.66900370882006,150.0
54772,45.09668,-91.87303,Wheeler,WI,Wisconsin,True,,1022.0,6.7,55033,Dunn,"{""55033"": 100}",Dunn,55033,False,False,America/Chicago,"(45.09668, -91.87303)",103.00621649213423,6219975.0,63_0_yes,45.89536218660929,-93.66900370882006,150.0
54773,44.39301,-91.3002,Whitehall,WI,Wisconsin,True,,3483.0,19.2,55121,Trempealeau,"{""55121"": 100}",Trempealeau,55121,False,False,America/Chicago,"(44.39301, -91.3002)",155.23297678402128,6219975.0,63_0_yes,45.89536218660929,-93.66900370882006,150.0
54801,45.86711,-91.92266,Spooner,WI,Wisconsin,True,,6527.0,12.8,55129,Washburn,"{""55129"": 78.23, ""55013"": 21.77}",Washburn|Burnett,55129|55013,False,False,America/Chicago,"(45.86711, -91.92266)",84.01880738031589,6219975.0,63_0_yes,45.89536218660929,-93.66900370882006,150.0
54805,45.41465,-92.02311,Almena,WI,Wisconsin,True,,1534.0,19.0,55005,Barron,"{""55005"": 100}",Barron,55005,False,False,America/Chicago,"(45.41465, -92.02311)",86.14600967357941,6219975.0,63_0_yes,45.89536218660929,-93.66900370882006,150.0
54806,46.54784,-90.85061,Ashland,WI,Wisconsin,True,,11210.0,15.0,55003,Ashland,"{""55003"": 66.84, ""55007"": 33.16}",Ashland|Bayfield,55003|55007,False,False,America/Chicago,"(46.54784, -90.85061)",142.062444083003,6219975.0,63_0_yes,45.89536218660929,-93.66900370882006,150.0
54810,45.46126,-92.38403,Balsam Lake,WI,Wisconsin,True,,2625.0,21.8,55095,Polk,"{""55095"": 100}",Polk,55095,False,False,America/Chicago,"(45.46126, -92.38403)",68.90122102686563,6219975.0,63_0_yes,45.89536218660929,-93.66900370882006,150.0
54812,45.39911,-91.88103,Barron,WI,Wisconsin,True,,5554.0,23.8,55005,Barron,"{""55005"": 100}",Barron,55005,False,False,America/Chicago,"(45.39911, -91.88103)",92.91655011218467,6219975.0,63_0_yes,45.89536218660929,-93.66900370882006,150.0
54813,45.65477,-92.03071,Barronett,WI,Wisconsin,True,,659.0,4.6,55013,Burnett,"{""55013"": 51.44, ""55005"": 32.21, ""55129"": 16.35}",Burnett|Barron|Washburn,55013|55005|55129,False,False,America/Chicago,"(45.65477, -92.03071)",80.68060497514689,6219975.0,63_0_yes,45.89536218660929,-93.66900370882006,150.0
54814,46.85672,-90.91876,Bayfield,WI,Wisconsin,True,,2728.0,6.9,55007,Bayfield,"{""55007"": 100}",Bayfield,55007,False,False,America/Chicago,"(46.85672, -90.91876)",146.9566288854504,6219975.0,63_0_yes,45.89536218660929,-93.66900370882006,150.0
54817,45.67056,-91.53942,Birchwood,WI,Wisconsin,True,,1889.0,4.6,55129,Washburn,"{""55129"": 35.12, ""55113"": 32.83, ""55107"": 18.24, ""55005"": 13.81}",Washburn|Sawyer|Rusk|Barron,55129|55113|55107|55005,False,False,America/Chicago,"(45.67056, -91.53942)",103.77802230303134,6219975.0,63_0_yes,45.89536218660929,-93.66900370882006,150.0
54819,45.47636,-91.30307,Bruce,WI,Wisconsin,True,,2321.0,5.9,55107,Rusk,"{""55107"": 100}",Rusk,55107,False,False,America/Chicago,"(45.47636, -91.30307)",117.80649572081946,6219975.0,63_0_yes,45.89536218660929,-93.66900370882006,150.0
54820,46.56024,-91.55475,Brule,WI,Wisconsin,True,,941.0,3.1,55031,Douglas,"{""55031"": 52.37, ""55007"": 47.63}",Douglas|Bayfield,55031|55007,False,False,America/Chicago,"(46.56024, -91.55475)",111.00427675810162,6219975.0,63_0_yes,45.89536218660929,-93.66900370882006,150.0
54821,46.22428,-91.16508,Cable,WI,Wisconsin,True,,1133.0,2.3,55007,Bayfield,"{""55007"": 97.89, ""55113"": 2.11}",Bayfield|Sawyer,55007|55113,False,False,America/Chicago,"(46.22428, -91.16508)",122.17573458261815,6219975.0,63_0_yes,45.89536218660929,-93.66900370882006,150.0
54822,45.3944,-91.69995,Cameron,WI,Wisconsin,True,,4602.0,38.9,55005,Barron,"{""55005"": 100}",Barron,55005,False,False,America/Chicago,"(45.3944, -91.69995)",101.21110533695095,6219975.0,63_0_yes,45.89536218660929,-93.66900370882006,150.0
54824,45.4753,-92.54017,Centuria,WI,Wisconsin,True,,2326.0,23.1,55095,Polk,"{""55095"": 100}",Polk,55095,False,False,America/Chicago,"(45.4753, -92.54017)",61.73421638723146,6219975.0,63_0_yes,45.89536218660929,-93.66900370882006,150.0
54826,45.49971,-92.16422,Comstock,WI,Wisconsin,True,,675.0,5.6,55095,Polk,"{""55095"": 54.99, ""55005"": 45.01}",Polk|Barron,55095|55005,False,False,America/Chicago,"(45.49971, -92.16422)",77.59140112907559,6219975.0,63_0_yes,45.89536218660929,-93.66900370882006,150.0
54827,46.80215,-91.10069,Cornucopia,WI,Wisconsin,True,,315.0,3.4,55007,Bayfield,"{""55007"": 100}",Bayfield,55007,False,False,America/Chicago,"(46.80215, -91.10069)",137.57408641089523,6219975.0,63_0_yes,45.89536218660929,-93.66900370882006,150.0
54828,45.84201,-91.2934,Couderay,WI,Wisconsin,True,,838.0,4.7,55113,Sawyer,"{""55113"": 100}",Sawyer,55113,False,False,America/Chicago,"(45.84201, -91.2934)",114.34574344943958,6219975.0,63_0_yes,45.89536218660929,-93.66900370882006,150.0
54829,45.5592,-92.06603,Cumberland,WI,Wisconsin,True,,5280.0,14.2,55005,Barron,"{""55005"": 75.33, ""55095"": 24.67}",Barron|Polk,55005|55095,False,False,America/Chicago,"(45.5592, -92.06603)",80.72695829759243,6219975.0,63_0_yes,45.89536218660929,-93.66900370882006,150.0
54830,46.10571,-92.22305,Danbury,WI,Wisconsin,True,,2771.0,3.0,55013,Burnett,"{""55013"": 63.81, ""55031"": 36.04, ""55129"": 0.15}",Burnett|Douglas|Washburn,55013|55031|55129,False,False,America/Chicago,"(46.10571, -92.22305)",70.90417715492002,6219975.0,63_0_yes,45.89536218660929,-93.66900370882006,150.0
54832,46.32661,-91.33073,Drummond,WI,Wisconsin,True,,367.0,1.4,55007,Bayfield,"{""55007"": 100}",Bayfield,55007,False,False,America/Chicago,"(46.32661, -91.33073)",115.89386380806545,6219975.0,63_0_yes,45.89536218660929,-93.66900370882006,150.0
54835,45.67974,-91.2522,Exeland,WI,Wisconsin,True,,950.0,2.5,55113,Sawyer,"{""55113"": 82.34, ""55107"": 17.66}",Sawyer|Rusk,55113|55107,False,False,America/Chicago,"(45.67974, -91.2522)",117.38679006691832,6219975.0,63_0_yes,45.89536218660929,-93.66900370882006,150.0
54836,46.43238,-92.19225,Foxboro,WI,Wisconsin,True,,1042.0,2.9,55031,Douglas,"{""55031"": 100}",Douglas,55031,False,False,America/Chicago,"(46.43238, -92.19225)",79.81527821818277,6219975.0,63_0_yes,45.89536218660929,-93.66900370882006,150.0
54837,45.6746,-92.35754,Frederic,WI,Wisconsin,True,,3622.0,8.2,55095,Polk,"{""55095"": 81.74, ""55013"": 18.26}",Polk|Burnett,55095|55013,False,False,America/Chicago,"(45.6746, -92.35754)",65.0036651792462,6219975.0,63_0_yes,45.89536218660929,-93.66900370882006,150.0
54838,46.24836,-91.79179,Gordon,WI,Wisconsin,True,,1090.0,1.7,55031,Douglas,"{""55031"": 97.98, ""55007"": 2.02}",Douglas|Bayfield,55031|55007,False,False,America/Chicago,"(46.24836, -91.79179)",93.22653732030534,6219975.0,63_0_yes,45.89536218660929,-93.66900370882006,150.0
54839,46.35683,-91.14689,Grand View,WI,Wisconsin,True,,263.0,2.4,55007,Bayfield,"{""55007"": 100}",Bayfield,55007,False,False,America/Chicago,"(46.35683, -91.14689)",124.90756794596385,6219975.0,63_0_yes,45.89536218660929,-93.66900370882006,150.0
54840,45.7556,-92.68928,Grantsburg,WI,Wisconsin,True,,4360.0,6.6,55013,Burnett,"{""55013"": 88.32, ""55095"": 11.68}",Burnett|Polk,55013|55095,False,False,America/Chicago,"(45.7556, -92.68928)",48.14918145864912,6219975.0,63_0_yes,45.89536218660929,-93.66900370882006,150.0
54841,45.60776,-91.77887,Haugen,WI,Wisconsin,True,,250.0,193.4,55005,Barron,"{""55005"": 100}",Barron,55005,False,False,America/Chicago,"(45.60776, -91.77887)",93.26496609159831,6219975.0,63_0_yes,45.89536218660929,-93.66900370882006,150.0
54842,46.49891,-91.86234,Hawthorne,WI,Wisconsin,True,,261.0,20.6,55031,Douglas,"{""55031"": 100}",Douglas,55031,False,False,America/Chicago,"(46.49891, -91.86234)",95.93737431143053,6219975.0,63_0_yes,45.89536218660929,-93.66900370882006,150.0
54843,46.0251,-91.29494,Hayward,WI,Wisconsin,True,,11514.0,10.1,55113,Sawyer,"{""55113"": 92.83, ""55129"": 7.17}",Sawyer|Washburn,55113|55129,False,False,America/Chicago,"(46.0251, -91.29494)",114.37569281267103,6219975.0,63_0_yes,45.89536218660929,-93.66900370882006,150.0
54844,46.78649,-91.21441,Herbster,WI,Wisconsin,True,,227.0,1.3,55007,Bayfield,"{""55007"": 100}",Bayfield,55007,False,False,America/Chicago,"(46.78649, -91.21441)",132.27717495298012,6219975.0,63_0_yes,45.89536218660929,-93.66900370882006,150.0
54845,45.80724,-92.13786,Hertel,WI,Wisconsin,True,,111.0,8.2,55013,Burnett,"{""55013"": 100}",Burnett,55013,False,False,America/Chicago,"(45.80724, -92.13786)",73.93648829701951,6219975.0,63_0_yes,45.89536218660929,-93.66900370882006,150.0
54846,46.37737,-90.72481,High Bridge,WI,Wisconsin,True,,675.0,8.0,55003,Ashland,"{""55003"": 100}",Ashland,55003,False,False,America/Chicago,"(46.37737, -90.72481)",144.83295371698495,6219975.0,63_0_yes,45.89536218660929,-93.66900370882006,150.0
54847,46.57047,-91.40055,Iron River,WI,Wisconsin,True,,2328.0,4.7,55007,Bayfield,"{""55007"": 100}",Bayfield,55007,False,False,America/Chicago,"(46.57047, -91.40055)",118.0208854768562,6219975.0,63_0_yes,45.89536218660929,-93.66900370882006,150.0
54848,45.51546,-91.10284,Ladysmith,WI,Wisconsin,True,,5776.0,11.7,55107,Rusk,"{""55107"": 100}",Rusk,55107,False,False,America/Chicago,"(45.51546, -91.10284)",126.56610856119633,6219975.0,63_0_yes,45.89536218660929,-93.66900370882006,150.0
54849,46.47881,-91.71642,Lake Nebagamon,WI,Wisconsin,True,,1702.0,7.6,55031,Douglas,"{""55031"": 100}",Douglas,55031,False,False,America/Chicago,"(46.47881, -91.71642)",101.72407382934372,6219975.0,63_0_yes,45.89536218660929,-93.66900370882006,150.0
54850,46.92255,-90.62389,La Pointe,WI,Wisconsin,True,,239.0,1.2,55003,Ashland,"{""55003"": 100}",Ashland,55003,False,False,America/Chicago,"(46.92255, -90.62389)",161.4848969050533,6219975.0,63_0_yes,45.89536218660929,-93.66900370882006,150.0
54853,45.57106,-92.45211,Luck,WI,Wisconsin,True,,4006.0,17.6,55095,Polk,"{""55095"": 96.0, ""55013"": 4.0}",Polk|Burnett,55095|55013,False,False,America/Chicago,"(45.57106, -92.45211)",62.81869021314917,6219975.0,63_0_yes,45.89536218660929,-93.66900370882006,150.0
54854,46.64127,-91.66864,Maple,WI,Wisconsin,True,,905.0,4.2,55031,Douglas,"{""55031"": 100}",Douglas,55031,False,False,America/Chicago,"(46.64127, -91.66864)",108.55234843677343,6219975.0,63_0_yes,45.89536218660929,-93.66900370882006,150.0
54855,46.37492,-90.84397,Marengo,WI,Wisconsin,True,,933.0,5.1,55003,Ashland,"{""55003"": 100}",Ashland,55003,False,False,America/Chicago,"(46.37492, -90.84397)",139.25042221248398,6219975.0,63_0_yes,45.89536218660929,-93.66900370882006,150.0
54856,46.43401,-91.10279,Mason,WI,Wisconsin,True,,1671.0,3.1,55007,Bayfield,"{""55007"": 98.48, ""55003"": 1.52}",Bayfield|Ashland,55007|55003,False,False,America/Chicago,"(46.43401, -91.10279)",128.3104877179954,6219975.0,63_0_yes,45.89536218660929,-93.66900370882006,150.0
54858,45.51824,-92.46031,Milltown,WI,Wisconsin,True,,1685.0,37.0,55095,Polk,"{""55095"": 100}",Polk,55095,False,False,America/Chicago,"(45.51824, -92.46031)",63.874869479513,6219975.0,63_0_yes,45.89536218660929,-93.66900370882006,150.0
54859,46.12121,-91.82337,Minong,WI,Wisconsin,True,,1803.0,3.9,55129,Washburn,"{""55129"": 80.84, ""55031"": 16.0, ""55013"": 3.16}",Washburn|Douglas|Burnett,55129|55031|55013,False,False,America/Chicago,"(46.12121, -91.82337)",89.93230014281464,6219975.0,63_0_yes,45.89536218660929,-93.66900370882006,150.0
54861,46.59896,-90.64345,Odanah,WI,Wisconsin,True,,143.0,42.2,55003,Ashland,"{""55003"": 100}",Ashland,55003,False,False,America/Chicago,"(46.59896, -90.64345)",152.50843346373082,6219975.0,63_0_yes,45.89536218660929,-93.66900370882006,150.0
54862,45.80385,-91.12132,Ojibwa,WI,Wisconsin,True,,289.0,2.0,55113,Sawyer,"{""55113"": 100}",Sawyer,55113,False,False,America/Chicago,"(45.80385, -91.12132)",122.76907177845949,6219975.0,63_0_yes,45.89536218660929,-93.66900370882006,150.0
54864,46.60431,-91.79443,Poplar,WI,Wisconsin,True,,1376.0,10.3,55031,Douglas,"{""55031"": 100}",Douglas,55031,False,False,America/Chicago,"(46.60431, -91.79443)",102.08118689297736,6219975.0,63_0_yes,45.89536218660929,-93.66900370882006,150.0
54865,46.74787,-91.37517,Port Wing,WI,Wisconsin,True,,489.0,2.9,55007,Bayfield,"{""55007"": 100}",Bayfield,55007,False,False,America/Chicago,"(46.74787, -91.37517)",124.28956536659254,6219975.0,63_0_yes,45.89536218660929,-93.66900370882006,150.0
54867,45.78195,-91.21521,Radisson,WI,Wisconsin,True,,475.0,5.1,55113,Sawyer,"{""55113"": 100}",Sawyer,55113,False,False,America/Chicago,"(45.78195, -91.21521)",118.37096268519011,6219975.0,63_0_yes,45.89536218660929,-93.66900370882006,150.0
54868,45.52723,-91.70977,Rice Lake,WI,Wisconsin,True,,15380.0,28.0,55005,Barron,"{""55005"": 94.33, ""55107"": 4.4, ""55129"": 1.27}",Barron|Rusk|Washburn,55005|55107|55129,False,False,America/Chicago,"(45.52723, -91.70977)",97.88492419440753,6219975.0,63_0_yes,45.89536218660929,-93.66900370882006,150.0
54870,45.71205,-91.76967,Sarona,WI,Wisconsin,True,,1689.0,7.9,55129,Washburn,"{""55129"": 97.41, ""55005"": 2.59}",Washburn|Barron,55129|55005,False,False,America/Chicago,"(45.71205, -91.76967)",92.35421389952599,6219975.0,63_0_yes,45.89536218660929,-93.66900370882006,150.0
54871,45.7412,-92.01503,Shell Lake,WI,Wisconsin,True,,3026.0,10.1,55129,Washburn,"{""55129"": 59.3, ""55013"": 40.7}",Washburn|Burnett,55129|55013,False,False,America/Chicago,"(45.7412, -92.01503)",80.35257392637634,6219975.0,63_0_yes,45.89536218660929,-93.66900370882006,150.0
54872,45.76965,-92.39622,Siren,WI,Wisconsin,True,,2702.0,16.3,55013,Burnett,"{""55013"": 94.59, ""55095"": 5.41}",Burnett|Polk,55013|55095,False,False,America/Chicago,"(45.76965, -92.39622)",61.88548508252351,6219975.0,63_0_yes,45.89536218660929,-93.66900370882006,150.0
54873,46.3448,-91.69292,Solon Springs,WI,Wisconsin,True,,3016.0,4.4,55031,Douglas,"{""55031"": 63.13, ""55007"": 36.87}",Douglas|Bayfield,55031|55007,False,False,America/Chicago,"(46.3448, -91.69292)",99.5998429807598,6219975.0,63_0_yes,45.89536218660929,-93.66900370882006,150.0
54874,46.56911,-91.94304,South Range,WI,Wisconsin,True,,3932.0,10.5,55031,Douglas,"{""55031"": 100}",Douglas,55031,False,False,America/Chicago,"(46.56911, -91.94304)",94.71691835742388,6219975.0,63_0_yes,45.89536218660929,-93.66900370882006,150.0
54875,45.97405,-91.6948,Springbrook,WI,Wisconsin,True,,1151.0,4.0,55129,Washburn,"{""55129"": 100}",Washburn,55129,False,False,America/Chicago,"(45.97405, -91.6948)",95.01948765618026,6219975.0,63_0_yes,45.89536218660929,-93.66900370882006,150.0
54876,45.82811,-91.51439,Stone Lake,WI,Wisconsin,True,,1665.0,6.9,55113,Sawyer,"{""55113"": 60.55, ""55129"": 39.45}",Sawyer|Washburn,55113|55129,False,False,America/Chicago,"(45.82811, -91.51439)",103.77256634849479,6219975.0,63_0_yes,45.89536218660929,-93.66900370882006,150.0
54880,46.59342,-92.12701,Superior,WI,Wisconsin,True,,29792.0,69.2,55031,Douglas,"{""55031"": 100}",Douglas,55031,False,False,America/Chicago,"(46.59342, -92.12701)",88.06188034415773,6219975.0,63_0_yes,45.89536218660929,-93.66900370882006,150.0
54888,45.98046,-91.88803,Trego,WI,Wisconsin,True,,1152.0,4.5,55129,Washburn,"{""55129"": 100}",Washburn,55129,False,False,America/Chicago,"(45.98046, -91.88803)",85.77600284561828,6219975.0,63_0_yes,45.89536218660929,-93.66900370882006,150.0
54889,45.41374,-92.17112,Turtle Lake,WI,Wisconsin,True,,2514.0,13.2,55095,Polk,"{""55095"": 55.03, ""55005"": 44.97}",Polk|Barron,55095|55005,False,False,America/Chicago,"(45.41374, -92.17112)",79.62547036270546,6219975.0,63_0_yes,45.89536218660929,-93.66900370882006,150.0
54891,46.69727,-90.9688,Washburn,WI,Wisconsin,True,,3150.0,17.7,55007,Bayfield,"{""55007"": 100}",Bayfield,55007,False,False,America/Chicago,"(46.69727, -90.9688)",140.29743817321798,6219975.0,63_0_yes,45.89536218660929,-93.66900370882006,150.0
54893,45.87094,-92.30837,Webster,WI,Wisconsin,True,,3800.0,9.6,55013,Burnett,"{""55013"": 100}",Burnett,55013,False,False,America/Chicago,"(45.87094, -92.30837)",65.46414970937093,6219975.0,63_0_yes,45.89536218660929,-93.66900370882006,150.0
54895,45.44233,-91.44605,Weyerhaeuser,WI,Wisconsin,True,,781.0,2.8,55107,Rusk,"{""55107"": 100}",Rusk,55107,False,False,America/Chicago,"(45.44233, -91.44605)",111.797183428452,6219975.0,63_0_yes,45.89536218660929,-93.66900370882006,150.0
54896,45.81178,-90.87888,Winter,WI,Wisconsin,True,,1294.0,1.2,55113,Sawyer,"{""55113"": 100}",Sawyer,55113,False,False,America/Chicago,"(45.81178, -90.87888)",134.38690088367684,6219975.0,63_0_yes,45.89536218660929,-93.66900370882006,150.0
55001,44.90138,-92.81969,Afton,MN,Minnesota,True,,3029.0,43.3,27163,Washington,"{""27163"": 100}",Washington,27163,False,False,America/Chicago,"(44.90138, -92.81969)",80.08915457372619,6219975.0,63_0_yes,45.89536218660929,-93.66900370882006,150.0
55003,45.01183,-92.77883,Bayport,MN,Minnesota,True,,3758.0,698.4,27163,Washington,"{""27163"": 100}",Washington,27163,False,False,America/Chicago,"(45.01183, -92.77883)",74.75272729605979,6219975.0,63_0_yes,45.89536218660929,-93.66900370882006,150.0
55005,45.39281,-93.21725,Bethel,MN,Minnesota,True,,4714.0,96.1,27003,Anoka,"{""27003"": 100}",Anoka,27003,False,False,America/Chicago,"(45.39281, -93.21725)",41.01045249428846,6219975.0,63_0_yes,45.89536218660929,-93.66900370882006,150.0
55006,45.74002,-93.20504,Braham,MN,Minnesota,True,,3651.0,18.5,27065,Kanabec,"{""27065"": 38.17, ""27059"": 34.51, ""27115"": 19.61, ""27025"": 7.71}",Kanabec|Isanti|Pine|Chisago,27065|27059|27115|27025,False,False,America/Chicago,"(45.74002, -93.20504)",24.786161881181012,6219975.0,63_0_yes,45.89536218660929,-93.66900370882006,150.0
55007,45.97511,-93.12223,Brook Park,MN,Minnesota,True,,2361.0,7.7,27065,Kanabec,"{""27065"": 61.85, ""27115"": 38.15}",Kanabec|Pine,27065|27115,False,False,America/Chicago,"(45.97511, -93.12223)",26.845325421153344,6219975.0,63_0_yes,45.89536218660929,-93.66900370882006,150.0
55008,45.57149,-93.26734,Cambridge,MN,Minnesota,True,,15396.0,59.2,27059,Isanti,"{""27059"": 99.31, ""27025"": 0.69}",Isanti|Chisago,27059|27025,False,False,America/Chicago,"(45.57149, -93.26734)",29.597000248155084,6219975.0,63_0_yes,45.89536218660929,-93.66900370882006,150.0
55009,44.48378,-92.86686,Cannon Falls,MN,Minnesota,True,,8017.0,25.3,27049,Goodhue,"{""27049"": 81.65, ""27037"": 18.35}",Goodhue|Dakota,27049|27037,False,False,America/Chicago,"(44.48378, -92.86686)",105.06028037962075,6219975.0,63_0_yes,45.89536218660929,-93.66900370882006,150.0
55011,45.34108,-93.2521,Cedar,MN,Minnesota,True,,10825.0,91.1,27003,Anoka,"{""27003"": 100}",Anoka,27003,False,False,America/Chicago,"(45.34108, -93.2521)",43.27338606017485,6219975.0,63_0_yes,45.89536218660929,-93.66900370882006,150.0
55012,45.44166,-92.78952,Center City,MN,Minnesota,True,,2023.0,32.9,27025,Chisago,"{""27025"": 100}",Chisago,27025,False,False,America/Chicago,"(45.44166, -92.78952)",52.781015601134726,6219975.0,63_0_yes,45.89536218660929,-93.66900370882006,150.0
55013,45.35558,-92.89469,Chisago City,MN,Minnesota,True,,7015.0,98.0,27025,Chisago,"{""27025"": 100}",Chisago,27025,False,False,America/Chicago,"(45.35558, -92.89469)",52.82777309562673,6219975.0,63_0_yes,45.89536218660929,-93.66900370882006,150.0
55014,45.16802,-93.12431,Circle Pines,MN,Minnesota,True,,28782.0,548.4,27003,Anoka,"{""27003"": 100}",Anoka,27003,False,False,America/Chicago,"(45.16802, -93.12431)",56.749660358627835,6219975.0,63_0_yes,45.89536218660929,-93.66900370882006,150.0
55016,44.8172,-92.93373,Cottage Grove,MN,Minnesota,True,,36643.0,470.0,27163,Washington,"{""27163"": 100}",Washington,27163,False,False,America/Chicago,"(44.8172, -92.93373)",82.6049828677238,6219975.0,63_0_yes,45.89536218660929,-93.66900370882006,150.0
55017,45.67291,-93.4314,Dalbo,MN,Minnesota,True,,905.0,13.5,27059,Isanti,"{""27059"": 100}",Isanti,27059,False,False,America/Chicago,"(45.67291, -93.4314)",19.165178403162578,6219975.0,63_0_yes,45.89536218660929,-93.66900370882006,150.0
55018,44.41832,-92.98822,Dennison,MN,Minnesota,True,,839.0,7.3,27049,Goodhue,"{""27049"": 91.16, ""27131"": 8.84}",Goodhue|Rice,27049|27131,False,False,America/Chicago,"(44.41832, -92.98822)",107.30778154694426,6219975.0,63_0_yes,45.89536218660929,-93.66900370882006,150.0
55019,44.41318,-93.25016,Dundas,MN,Minnesota,True,,2243.0,42.3,27131,Rice,"{""27131"": 100}",Rice,27131,False,False,America/Chicago,"(44.41318, -93.25016)",104.42223747599752,6219975.0,63_0_yes,45.89536218660929,-93.66900370882006,150.0
55020,44.57707,-93.37387,Elko New Market,MN,Minnesota,True,,4529.0,73.4,27139,Scott,"{""27139"": 100}",Scott,27139,False,False,America/Chicago,"(44.57707, -93.37387)",92.2100634160335,6219975.0,63_0_yes,45.89536218660929,-93.66900370882006,150.0
55021,44.2973,-93.27414,Faribault,MN,Minnesota,True,,30334.0,66.2,27131,Rice,"{""27131"": 100}",Rice,27131,False,False,America/Chicago,"(44.2973, -93.27414)",112.08219511139635,6219975.0,63_0_yes,45.89536218660929,-93.66900370882006,150.0
55024,44.62738,-93.13605,Farmington,MN,Minnesota,True,,36897.0,167.4,27037,Dakota,"{""27037"": 100}",Dakota,27037,False,False,America/Chicago,"(44.62738, -93.13605)",91.36227624974697,6219975.0,63_0_yes,45.89536218660929,-93.66900370882006,150.0
55025,45.26391,-93.0212,Forest Lake,MN,Minnesota,True,,25709.0,128.8,27003,Anoka,"{""27003"": 52.25, ""27163"": 40.78, ""27025"": 6.97}",Anoka|Washington|Chisago,27003|27163|27025,False,False,America/Chicago,"(45.26391, -93.0212)",53.711051166249675,6219975.0,63_0_yes,45.89536218660929,-93.66900370882006,150.0
55026,44.52179,-92.3369,Frontenac,MN,Minnesota,True,,426.0,45.9,27049,Goodhue,"{""27049"": 100}",Goodhue,27049,False,False,America/Chicago,"(44.52179, -92.3369)",114.93831756502956,6219975.0,63_0_yes,45.89536218660929,-93.66900370882006,150.0
55027,44.40868,-92.62058,Goodhue,MN,Minnesota,True,,2946.0,9.7,27049,Goodhue,"{""27049"": 99.19, ""27157"": 0.81}",Goodhue|Wabasha,27049|27157,False,False,America/Chicago,"(44.40868, -92.62058)",114.71946954320696,6219975.0,63_0_yes,45.89536218660929,-93.66900370882006,150.0
55029,45.63573,-93.20098,Grandy,MN,Minnesota,True,,78.0,117.6,27059,Isanti,"{""27059"": 100}",Isanti,27059,False,False,America/Chicago,"(45.63573, -93.20098)",28.82152371941396,6219975.0,63_0_yes,45.89536218660929,-93.66900370882006,150.0
55030,45.83911,-93.11493,Grasston,MN,Minnesota,True,,1430.0,14.1,27115,Pine,"{""27115"": 79.91, ""27065"": 20.09}",Pine|Kanabec,27115|27065,False,False,America/Chicago,"(45.83911, -93.11493)",26.93903165959051,6219975.0,63_0_yes,45.89536218660929,-93.66900370882006,150.0
55031,44.60772,-92.96647,Hampton,MN,Minnesota,True,,1848.0,17.5,27037,Dakota,"{""27037"": 100}",Dakota,27037,False,False,America/Chicago,"(44.60772, -92.96647)",95.3035748776182,6219975.0,63_0_yes,45.89536218660929,-93.66900370882006,150.0
55032,45.58851,-92.99279,Harris,MN,Minnesota,True,,3744.0,21.3,27025,Chisago,"{""27025"": 100}",Chisago,27025,False,False,America/Chicago,"(45.58851, -92.99279)",38.893313860225604,6219975.0,63_0_yes,45.89536218660929,-93.66900370882006,150.0
55033,44.71139,-92.8585,Hastings,MN,Minnesota,True,,30402.0,81.4,27037,Dakota,"{""27037"": 75.38, ""27163"": 21.47, ""27049"": 3.15}",Dakota|Washington|Goodhue,27037|27163|27049,False,False,America/Chicago,"(44.71139, -92.8585)",90.79202002683257,6219975.0,63_0_yes,45.89536218660929,-93.66900370882006,150.0
55036,45.87114,-93.11999,Henriette,MN,Minnesota,True,,59.0,81.2,27115,Pine,"{""27115"": 100}",Pine,27115,False,False,America/Chicago,"(45.87114, -93.11999)",26.4591144040963,6219975.0,63_0_yes,45.89536218660929,-93.66900370882006,150.0
55037,46.01071,-92.78934,Hinckley,MN,Minnesota,True,,4717.0,5.9,27115,Pine,"{""27115"": 92.98, ""27065"": 7.02}",Pine|Kanabec,27115|27065,False,False,America/Chicago,"(46.01071, -92.78934)",43.00120699969744,6219975.0,63_0_yes,45.89536218660929,-93.66900370882006,150.0
55038,45.169,-92.98059,Hugo,MN,Minnesota,True,,22921.0,175.3,27163,Washington,"{""27163"": 68.95, ""27003"": 30.73, ""27123"": 0.32}",Washington|Anoka|Ramsey,27163|27003|27123,False,False,America/Chicago,"(45.169, -92.98059)",60.23990888497226,6219975.0,63_0_yes,45.89536218660929,-93.66900370882006,150.0
55040,45.4678,-93.27951,Isanti,MN,Minnesota,True,,13490.0,53.1,27059,Isanti,"{""27059"": 100}",Isanti,27059,False,False,America/Chicago,"(45.4678, -93.27951)",35.01721248390184,6219975.0,63_0_yes,45.89536218660929,-93.66900370882006,150.0
55041,44.39544,-92.31923,Lake City,MN,Minnesota,True,,7498.0,20.1,27157,Wabasha,"{""27157"": 83.44, ""27049"": 16.56}",Wabasha|Goodhue,27157|27049,False,False,America/Chicago,"(44.39544, -92.31923)",122.74262525837504,6219975.0,63_0_yes,45.89536218660929,-93.66900370882006,150.0
55042,44.99253,-92.898,Lake Elmo,MN,Minnesota,True,,9918.0,153.9,27163,Washington,"{""27163"": 100}",Washington,27163,False,False,America/Chicago,"(44.99253, -92.898)",72.71886239424657,6219975.0,63_0_yes,45.89536218660929,-93.66900370882006,150.0
55043,44.94064,-92.76902,Lakeland,MN,Minnesota,True,,3659.0,375.4,27163,Washington,"{""27163"": 100}",Washington,27163,False,False,America/Chicago,"(44.94064, -92.76902)",79.09699645219791,6219975.0,63_0_yes,45.89536218660929,-93.66900370882006,150.0
55044,44.64156,-93.27858,Lakeville,MN,Minnesota,True,,55722.0,329.6,27037,Dakota,"{""27037"": 70.37, ""27139"": 29.63}",Dakota|Scott,27037|27139,False,False,America/Chicago,"(44.64156, -93.27858)",88.68507536787764,6219975.0,63_0_yes,45.89536218660929,-93.66900370882006,150.0
55045,45.39777,-92.83074,Lindstrom,MN,Minnesota,True,,7362.0,81.6,27025,Chisago,"{""27025"": 100}",Chisago,27025,False,False,America/Chicago,"(45.39777, -92.83074)",53.11661949794436,6219975.0,63_0_yes,45.89536218660929,-93.66900370882006,150.0
55046,44.44629,-93.4162,Lonsdale,MN,Minnesota,True,,5621.0,48.7,27131,Rice,"{""27131"": 100}",Rice,27131,False,False,America/Chicago,"(44.44629, -93.4162)",100.87562637910928,6219975.0,63_0_yes,45.89536218660929,-93.66900370882006,150.0
55047,45.20553,-92.82137,Marine On Saint Croix,MN,Minnesota,True,,2405.0,31.8,27163,Washington,"{""27163"": 98.54, ""55109"": 1.46}",Washington|St. Croix,27163|55109,False,False,America/Chicago,"(45.20553, -92.82137)",62.8783135452244,6219975.0,63_0_yes,45.89536218660929,-93.66900370882006,150.0
55049,44.17628,-93.24101,Medford,MN,Minnesota,True,,2607.0,21.7,27147,Steele,"{""27147"": 90.85, ""27131"": 9.15}",Steele|Rice,27147|27131,False,False,America/Chicago,"(44.17628, -93.24101)",120.60098707879774,6219975.0,63_0_yes,45.89536218660929,-93.66900370882006,150.0
55051,45.93818,-93.33201,Mora,MN,Minnesota,True,,9445.0,16.7,27065,Kanabec,"{""27065"": 86.48, ""27095"": 13.52}",Kanabec|Mille Lacs,27065|27095,False,False,America/Chicago,"(45.93818, -93.33201)",16.46669550598649,6219975.0,63_0_yes,45.89536218660929,-93.66900370882006,150.0
55052,44.23369,-93.4398,Morristown,MN,Minnesota,True,,2123.0,18.2,27131,Rice,"{""27131"": 84.91, ""27161"": 9.59, ""27147"": 5.5}",Rice|Waseca|Steele,27131|27161|27147,False,False,America/Chicago,"(44.23369, -93.4398)",115.35404587874203,6219975.0,63_0_yes,45.89536218660929,-93.66900370882006,150.0
55053,44.34957,-93.06579,Nerstrand,MN,Minnesota,True,,957.0,7.5,27131,Rice,"{""27131"": 68.7, ""27049"": 31.3}",Rice|Goodhue,27131|27049,False,False,America/Chicago,"(44.34957, -93.06579)",110.77776233678385,6219975.0,63_0_yes,45.89536218660929,-93.66900370882006,150.0
55054,44.57148,-93.35087,Elko New Market,MN,Minnesota,True,,2502.0,943.5,27139,Scott,"{""27139"": 100}",Scott,27139,False,False,America/Chicago,"(44.57148, -93.35087)",92.77183290487172,6219975.0,63_0_yes,45.89536218660929,-93.66900370882006,150.0
55055,44.87437,-92.99746,Newport,MN,Minnesota,True,,3664.0,390.5,27163,Washington,"{""27163"": 100}",Washington,27163,False,False,America/Chicago,"(44.87437, -92.99746)",77.70647944088202,6219975.0,63_0_yes,45.89536218660929,-93.66900370882006,150.0
55056,45.50915,-92.9543,North Branch,MN,Minnesota,True,,14088.0,54.7,27025,Chisago,"{""27025"": 69.39, ""27059"": 30.61}",Chisago|Isanti,27025|27059,False,False,America/Chicago,"(45.50915, -92.9543)",43.60527633910497,6219975.0,63_0_yes,45.89536218660929,-93.66900370882006,150.0
55057,44.47281,-93.17939,Northfield,MN,Minnesota,True,,25247.0,78.2,27131,Rice,"{""27131"": 53.88, ""27037"": 45.89, ""27049"": 0.23}",Rice|Dakota|Goodhue,27131|27037|27049,False,False,America/Chicago,"(44.47281, -93.17939)",101.13917808106301,6219975.0,63_0_yes,45.89536218660929,-93.66900370882006,150.0
55060,44.05966,-93.22639,Owatonna,MN,Minnesota,True,,29100.0,55.2,27147,Steele,"{""27147"": 100}",Steele,27147,False,False,America/Chicago,"(44.05966, -93.22639)",128.66595537687058,6219975.0,63_0_yes,45.89536218660929,-93.66900370882006,150.0
55063,45.83263,-92.90584,Pine City,MN,Minnesota,True,,9640.0,23.4,27115,Pine,"{""27115"": 100}",Pine,27115,False,False,America/Chicago,"(45.83263, -92.90584)",36.97377191877905,6219975.0,63_0_yes,45.89536218660929,-93.66900370882006,150.0
55065,44.54662,-93.01835,Randolph,MN,Minnesota,True,,1328.0,15.7,27037,Dakota,"{""27037"": 98.36, ""27049"": 1.64}",Dakota|Goodhue,27037|27049,False,False,America/Chicago,"(44.54662, -93.01835)",98.42132273980725,6219975.0,63_0_yes,45.89536218660929,-93.66900370882006,150.0
55066,44.51581,-92.5441,Red Wing,MN,Minnesota,True,,18679.0,59.6,27049,Goodhue,"{""27049"": 100}",Goodhue,27049,False,False,America/Chicago,"(44.51581, -92.5441)",109.92576435851579,6219975.0,63_0_yes,45.89536218660929,-93.66900370882006,150.0
55068,44.73555,-93.06876,Rosemount,MN,Minnesota,True,,30178.0,253.5,27037,Dakota,"{""27037"": 100}",Dakota,27037,False,False,America/Chicago,"(44.73555, -93.06876)",85.27654535489137,6219975.0,63_0_yes,45.89536218660929,-93.66900370882006,150.0
55069,45.6928,-92.96768,Rush City,MN,Minnesota,True,,5522.0,28.8,27025,Chisago,"{""27025"": 83.13, ""27115"": 16.87}",Chisago|Pine,27025|27115,False,False,America/Chicago,"(45.6928, -92.96768)",36.569968021493715,6219975.0,63_0_yes,45.89536218660929,-93.66900370882006,150.0
55070,45.41413,-93.3849,Saint Francis,MN,Minnesota,True,,8567.0,129.8,27003,Anoka,"{""27003"": 63.78, ""27059"": 36.22}",Anoka|Isanti,27003|27059,False,False,America/Chicago,"(45.41413, -93.3849)",35.9696508640435,6219975.0,63_0_yes,45.89536218660929,-93.66900370882006,150.0
55071,44.82257,-92.99677,Saint Paul Park,MN,Minnesota,True,,5692.0,439.7,27163,Washington,"{""27163"": 100}",Washington,27163,False,False,America/Chicago,"(44.82257, -92.99677)",80.98895733543425,6219975.0,63_0_yes,45.89536218660929,-93.66900370882006,150.0
55072,46.15118,-92.59274,Sandstone,MN,Minnesota,True,,4543.0,5.0,27115,Pine,"{""27115"": 94.04, ""27065"": 5.96}",Pine|Kanabec,27115|27065,False,False,America/Chicago,"(46.15118, -92.59274)",54.575891302628726,6219975.0,63_0_yes,45.89536218660929,-93.66900370882006,150.0
55073,45.27363,-92.82783,Scandia,MN,Minnesota,True,,3599.0,49.6,27163,Washington,"{""27163"": 86.47, ""27025"": 13.53}",Washington|Chisago,27163|27025,False,False,America/Chicago,"(45.27363, -92.82783)",59.15875970859425,6219975.0,63_0_yes,45.89536218660929,-93.66900370882006,150.0
55074,45.38351,-92.73292,Shafer,MN,Minnesota,True,,2197.0,24.7,27025,Chisago,"{""27025"": 100}",Chisago,27025,False,False,America/Chicago,"(45.38351, -92.73292)",57.406775978914425,6219975.0,63_0_yes,45.89536218660929,-93.66900370882006,150.0
55075,44.88794,-93.0411,South Saint Paul,MN,Minnesota,True,,20132.0,1390.5,27037,Dakota,"{""27037"": 100}",Dakota,27037,False,False,America/Chicago,"(44.88794, -93.0411)",75.98123254616948,6219975.0,63_0_yes,45.89536218660929,-93.66900370882006,150.0
55076,44.83318,-93.0334,Inver Grove Heights,MN,Minnesota,True,,22681.0,882.6,27037,Dakota,"{""27037"": 100}",Dakota,27037,False,False,America/Chicago,"(44.83318, -93.0334)",79.61152019801811,6219975.0,63_0_yes,45.89536218660929,-93.66900370882006,150.0
55077,44.81989,-93.07574,Inver Grove Heights,MN,Minnesota,True,,12742.0,271.0,27037,Dakota,"{""27037"": 100}",Dakota,27037,False,False,America/Chicago,"(44.81989, -93.07574)",79.69448780122876,6219975.0,63_0_yes,45.89536218660929,-93.66900370882006,150.0
55079,45.41385,-93.03117,Stacy,MN,Minnesota,True,,8682.0,52.7,27025,Chisago,"{""27025"": 42.59, ""27059"": 30.71, ""27003"": 26.7}",Chisago|Isanti|Anoka,27025|27059|27003,False,False,America/Chicago,"(45.41385, -93.03117)",45.34004444572233,6219975.0,63_0_yes,45.89536218660929,-93.66900370882006,150.0
55080,45.66322,-93.21881,Stanchfield,MN,Minnesota,True,,2887.0,16.3,27059,Isanti,"{""27059"": 75.36, ""27025"": 24.64}",Isanti|Chisago,27059|27025,False,False,America/Chicago,"(45.66322, -93.21881)",26.979196202815462,6219975.0,63_0_yes,45.89536218660929,-93.66900370882006,150.0
55082,45.07446,-92.84006,Stillwater,MN,Minnesota,True,,36736.0,179.1,27163,Washington,"{""27163"": 100}",Washington,27163,False,False,America/Chicago,"(45.07446, -92.84006)",69.49342702191804,6219975.0,63_0_yes,45.89536218660929,-93.66900370882006,150.0
55084,45.46029,-92.70747,Taylors Falls,MN,Minnesota,True,,1855.0,28.9,27025,Chisago,"{""27025"": 100}",Chisago,27025,False,False,America/Chicago,"(45.46029, -92.70747)",55.30108314199022,6219975.0,63_0_yes,45.89536218660929,-93.66900370882006,150.0
55085,44.6731,-92.96432,Vermillion,MN,Minnesota,True,,477.0,200.3,27037,Dakota,"{""27037"": 100}",Dakota,27037,False,False,America/Chicago,"(44.6731, -92.96432)",91.13292649360034,6219975.0,63_0_yes,45.89536218660929,-93.66900370882006,150.0
55087,44.23894,-93.40614,Warsaw,MN,Minnesota,True,,447.0,156.2,27131,Rice,"{""27131"": 100}",Rice,27131,False,False,America/Chicago,"(44.23894, -93.40614)",115.16429384769793,6219975.0,63_0_yes,45.89536218660929,-93.66900370882006,150.0
55088,44.52945,-93.38479,Webster,MN,Minnesota,True,,1573.0,16.5,27131,Rice,"{""27131"": 75.49, ""27139"": 24.51}",Rice|Scott,27131|27139,False,False,America/Chicago,"(44.52945, -93.38479)",95.38390014057524,6219975.0,63_0_yes,45.89536218660929,-93.66900370882006,150.0
55089,44.59296,-92.70223,Welch,MN,Minnesota,True,,1544.0,8.9,27049,Goodhue,"{""27049"": 97.24, ""27037"": 2.76}",Goodhue|Dakota,27049|27037,False,False,America/Chicago,"(44.59296, -92.70223)",101.53460441199084,6219975.0,63_0_yes,45.89536218660929,-93.66900370882006,150.0
55090,45.05382,-92.9573,Willernie,MN,Minnesota,True,,331.0,1123.7,27163,Washington,"{""27163"": 100}",Washington,27163,False,False,America/Chicago,"(45.05382, -92.9573)",67.60002534492304,6219975.0,63_0_yes,45.89536218660929,-93.66900370882006,150.0
55092,45.33647,-93.07214,Wyoming,MN,Minnesota,True,,10925.0,125.4,27003,Anoka,"{""27003"": 67.16, ""27025"": 32.84}",Anoka|Chisago,27003|27025,False,False,America/Chicago,"(45.33647, -93.07214)",48.19967189298337,6219975.0,63_0_yes,45.89536218660929,-93.66900370882006,150.0
55101,44.95111,-93.08739,Saint Paul,MN,Minnesota,True,,7306.0,3626.1,27123,Ramsey,"{""27123"": 100}",Ramsey,27123,False,False,America/Chicago,"(44.95111, -93.08739)",71.07676637792846,6219975.0,63_0_yes,45.89536218660929,-93.66900370882006,150.0
55102,44.93216,-93.12149,Saint Paul,MN,Minnesota,True,,18757.0,2206.0,27123,Ramsey,"{""27123"": 100}",Ramsey,27123,False,False,America/Chicago,"(44.93216, -93.12149)",71.65305923984664,6219975.0,63_0_yes,45.89536218660929,-93.66900370882006,150.0
55103,44.96399,-93.12418,Saint Paul,MN,Minnesota,True,,13483.0,2637.8,27123,Ramsey,"{""27123"": 100}",Ramsey,27123,False,False,America/Chicago,"(44.96399, -93.12418)",69.5627283029181,6219975.0,63_0_yes,45.89536218660929,-93.66900370882006,150.0
55104,44.95423,-93.16283,Saint Paul,MN,Minnesota,True,,45211.0,2892.6,27123,Ramsey,"{""27123"": 100}",Ramsey,27123,False,False,America/Chicago,"(44.95423, -93.16283)",69.50413917655516,6219975.0,63_0_yes,45.89536218660929,-93.66900370882006,150.0
55105,44.93465,-93.16689,Saint Paul,MN,Minnesota,True,,27014.0,2981.3,27123,Ramsey,"{""27123"": 100}",Ramsey,27123,False,False,America/Chicago,"(44.93465, -93.16689)",70.70483902595538,6219975.0,63_0_yes,45.89536218660929,-93.66900370882006,150.0
55106,44.95743,-93.04679,Saint Paul,MN,Minnesota,True,,58335.0,2390.7,27123,Ramsey,"{""27123"": 100}",Ramsey,27123,False,False,America/Chicago,"(44.95743, -93.04679)",71.48388886502649,6219975.0,63_0_yes,45.89536218660929,-93.66900370882006,150.0
55107,44.93105,-93.07945,Saint Paul,MN,Minnesota,True,,14575.0,1369.6,27123,Ramsey,"{""27123"": 100}",Ramsey,27123,False,False,America/Chicago,"(44.93105, -93.07945)",72.50401930128473,6219975.0,63_0_yes,45.89536218660929,-93.66900370882006,150.0
55108,44.98095,-93.1749,Saint Paul,MN,Minnesota,True,,15810.0,1527.3,27123,Ramsey,"{""27123"": 100}",Ramsey,27123,False,False,America/Chicago,"(44.98095, -93.1749)",67.56831735302195,6219975.0,63_0_yes,45.89536218660929,-93.66900370882006,150.0
55109,45.0144,-93.02616,Saint Paul,MN,Minnesota,True,,33926.0,1121.1,27123,Ramsey,"{""27123"": 100}",Ramsey,27123,False,False,America/Chicago,"(45.0144, -93.02616)",68.37875810930633,6219975.0,63_0_yes,45.89536218660929,-93.66900370882006,150.0
55110,45.08961,-93.00418,Saint Paul,MN,Minnesota,True,,40302.0,629.2,27123,Ramsey,"{""27123"": 63.48, ""27163"": 32.71, ""27003"": 3.81}",Ramsey|Washington|Anoka,27123|27163|27003,False,False,America/Chicago,"(45.08961, -93.00418)",64.31320660312149,6219975.0,63_0_yes,45.89536218660929,-93.66900370882006,150.0
55111,44.885,-93.19518,Saint Paul,MN,Minnesota,True,,64.0,10.8,27053,Hennepin,"{""27053"": 100}",Hennepin,27053,False,False,America/Chicago,"(44.885, -93.19518)",73.49751577851124,6219975.0,63_0_yes,45.89536218660929,-93.66900370882006,150.0
55112,45.07443,-93.19169,Saint Paul,MN,Minnesota,True,,46244.0,1022.4,27123,Ramsey,"{""27123"": 100}",Ramsey,27123,False,False,America/Chicago,"(45.07443, -93.19169)",61.25230480737932,6219975.0,63_0_yes,45.89536218660929,-93.66900370882006,150.0
55113,45.01295,-93.15512,Saint Paul,MN,Minnesota,True,,42242.0,1098.7,27123,Ramsey,"{""27123"": 100}",Ramsey,27123,False,False,America/Chicago,"(45.01295, -93.15512)",65.85967213796157,6219975.0,63_0_yes,45.89536218660929,-93.66900370882006,150.0
55114,44.9662,-93.19407,Saint Paul,MN,Minnesota,True,,3136.0,912.8,27123,Ramsey,"{""27123"": 100}",Ramsey,27123,False,False,America/Chicago,"(44.9662, -93.19407)",68.20389364651558,6219975.0,63_0_yes,45.89536218660929,-93.66900370882006,150.0
55115,45.06675,-92.95087,Saint Paul,MN,Minnesota,True,,9342.0,592.3,27163,Washington,"{""27163"": 100}",Washington,27163,False,False,America/Chicago,"(45.06675, -92.95087)",66.99235329037106,6219975.0,63_0_yes,45.89536218660929,-93.66900370882006,150.0
55116,44.91001,-93.17033,Saint Paul,MN,Minnesota,True,,25125.0,1754.1,27123,Ramsey,"{""27123"": 100}",Ramsey,27123,False,False,America/Chicago,"(44.91001, -93.17033)",72.25124446459748,6219975.0,63_0_yes,45.89536218660929,-93.66900370882006,150.0
55117,44.99918,-93.09713,Saint Paul,MN,Minnesota,True,,46053.0,1941.9,27123,Ramsey,"{""27123"": 100}",Ramsey,27123,False,False,America/Chicago,"(44.99918, -93.09713)",67.84169062900433,6219975.0,63_0_yes,45.89536218660929,-93.66900370882006,150.0
55118,44.8968,-93.10365,Saint Paul,MN,Minnesota,True,,27767.0,1024.3,27037,Dakota,"{""27037"": 99.87, ""27123"": 0.13}",Dakota|Ramsey,27037|27123,False,False,America/Chicago,"(44.8968, -93.10365)",74.24609307580762,6219975.0,63_0_yes,45.89536218660929,-93.66900370882006,150.0
55119,44.93972,-93.0066,Saint Paul,MN,Minnesota,True,,43876.0,1282.8,27123,Ramsey,"{""27123"": 100}",Ramsey,27123,False,False,America/Chicago,"(44.93972, -93.0066)",73.42852966834903,6219975.0,63_0_yes,45.89536218660929,-93.66900370882006,150.0
55120,44.87259,-93.14881,Saint Paul,MN,Minnesota,True,,5036.0,359.6,27037,Dakota,"{""27037"": 100}",Dakota,27037,False,False,America/Chicago,"(44.87259, -93.14881)",75.03988540381025,6219975.0,63_0_yes,45.89536218660929,-93.66900370882006,150.0
55121,44.84591,-93.15932,Saint Paul,MN,Minnesota,True,,8679.0,348.6,27037,Dakota,"{""27037"": 100}",Dakota,27037,False,False,America/Chicago,"(44.84591, -93.15932)",76.61407738174044,6219975.0,63_0_yes,45.89536218660929,-93.66900370882006,150.0
55122,44.80326,-93.1962,Saint Paul,MN,Minnesota,True,,30976.0,1110.8,27037,Dakota,"{""27037"": 100}",Dakota,27037,False,False,America/Chicago,"(44.80326, -93.1962)",78.87194896562428,6219975.0,63_0_yes,45.89536218660929,-93.66900370882006,150.0
55123,44.8043,-93.13699,Saint Paul,MN,Minnesota,True,,26821.0,962.0,27037,Dakota,"{""27037"": 100}",Dakota,27037,False,False,America/Chicago,"(44.8043, -93.13699)",79.68811418605627,6219975.0,63_0_yes,45.89536218660929,-93.66900370882006,150.0
55124,44.74566,-93.20042,Saint Paul,MN,Minnesota,True,,53781.0,1231.3,27037,Dakota,"{""27037"": 100}",Dakota,27037,False,False,America/Chicago,"(44.74566, -93.20042)",82.6340275541594,6219975.0,63_0_yes,45.89536218660929,-93.66900370882006,150.0
55125,44.91998,-92.94388,Saint Paul,MN,Minnesota,True,,44446.0,1118.1,27163,Washington,"{""27163"": 100}",Washington,27163,False,False,America/Chicago,"(44.91998, -92.94388)",76.01859405863486,6219975.0,63_0_yes,45.89536218660929,-93.66900370882006,150.0
55126,45.08614,-93.13581,Saint Paul,MN,Minnesota,True,,27125.0,763.9,27123,Ramsey,"{""27123"": 96.82, ""27003"": 3.18}",Ramsey|Anoka,27123|27003,False,False,America/Chicago,"(45.08614, -93.13581)",61.58791153502358,6219975.0,63_0_yes,45.89536218660929,-93.66900370882006,150.0
55127,45.08394,-93.08243,Saint Paul,MN,Minnesota,True,,19037.0,545.9,27123,Ramsey,"{""27123"": 100}",Ramsey,27123,False,False,America/Chicago,"(45.08394, -93.08243)",62.8517618235075,6219975.0,63_0_yes,45.89536218660929,-93.66900370882006,150.0
55128,44.98812,-92.96405,Saint Paul,MN,Minnesota,True,,28752.0,988.6,27163,Washington,"{""27163"": 100}",Washington,27163,False,False,America/Chicago,"(44.98812, -92.96405)",71.3944150667015,6219975.0,63_0_yes,45.89536218660929,-93.66900370882006,150.0
55129,44.89422,-92.90638,Saint Paul,MN,Minnesota,True,,26852.0,531.0,27163,Washington,"{""27163"": 100}",Washington,27163,False,False,America/Chicago,"(44.89422, -92.90638)",78.44595182780209,6219975.0,63_0_yes,45.89536218660929,-93.66900370882006,150.0
55130,44.97315,-93.08241,Saint Paul,MN,Minnesota,True,,19510.0,3731.0,27123,Ramsey,"{""27123"": 100}",Ramsey,27123,False,False,America/Chicago,"(44.97315, -93.08241)",69.77743809606382,6219975.0,63_0_yes,45.89536218660929,-93.66900370882006,150.0
55150,44.88717,-93.16157,Mendota,MN,Minnesota,True,,143.0,183.6,27037,Dakota,"{""27037"": 100}",Dakota,27037,False,False,America/Chicago,"(44.88717, -93.16157)",73.88228343866803,6219975.0,63_0_yes,45.89536218660929,-93.66900370882006,150.0
55301,45.24448,-93.66219,Albertville,MN,Minnesota,True,,13708.0,647.4,27171,Wright,"{""27171"": 100}",Wright,27171,False,False,America/Chicago,"(45.24448, -93.66219)",44.97288313755277,6219975.0,63_0_yes,45.89536218660929,-93.66900370882006,150.0
55302,45.24464,-94.11638,Annandale,MN,Minnesota,True,,7393.0,42.1,27171,Wright,"{""27171"": 100}",Wright,27171,False,False,America/Chicago,"(45.24464, -94.11638)",49.896574068778854,6219975.0,63_0_yes,45.89536218660929,-93.66900370882006,150.0
55303,45.28872,-93.42333,Anoka,MN,Minnesota,True,,49786.0,298.7,27003,Anoka,"{""27003"": 100}",Anoka,27003,False,False,America/Chicago,"(45.28872, -93.42333)",43.56545545232618,6219975.0,63_0_yes,45.89536218660929,-93.66900370882006,150.0
55304,45.25583,-93.26455,Andover,MN,Minnesota,True,,50177.0,282.3,27003,Anoka,"{""27003"": 100}",Anoka,27003,False,False,America/Chicago,"(45.25583, -93.26455)",48.32322636206287,6219975.0,63_0_yes,45.89536218660929,-93.66900370882006,150.0
55305,44.95477,-93.43229,Hopkins,MN,Minnesota,True,,21337.0,884.8,27053,Hennepin,"{""27053"": 100}",Hennepin,27053,False,False,America/Chicago,"(44.95477, -93.43229)",65.99460041757158,6219975.0,63_0_yes,45.89536218660929,-93.66900370882006,150.0
55306,44.73071,-93.29195,Burnsville,MN,Minnesota,True,,15824.0,982.3,27037,Dakota,"{""27037"": 100}",Dakota,27037,False,False,America/Chicago,"(44.73071, -93.29195)",82.52869103586394,6219975.0,63_0_yes,45.89536218660929,-93.66900370882006,150.0
55307,44.59871,-94.10475,Arlington,MN,Minnesota,True,,3441.0,17.9,27143,Sibley,"{""27143"": 100}",Sibley,27143,False,False,America/Chicago,"(44.59871, -94.10475)",92.06316693151022,6219975.0,63_0_yes,45.89536218660929,-93.66900370882006,150.0
55308,45.42944,-93.83561,Becker,MN,Minnesota,True,,9946.0,63.5,27141,Sherburne,"{""27141"": 100}",Sherburne,27141,False,False,America/Chicago,"(45.42944, -93.83561)",33.182190385208756,6219975.0,63_0_yes,45.89536218660929,-93.66900370882006,150.0
55309,45.37758,-93.74107,Big Lake,MN,Minnesota,True,,19733.0,122.3,27141,Sherburne,"{""27141"": 100}",Sherburne,27141,False,False,America/Chicago,"(45.37758, -93.74107)",35.94434687118327,6219975.0,63_0_yes,45.89536218660929,-93.66900370882006,150.0
55310,44.75599,-94.87624,Bird Island,MN,Minnesota,True,,1297.0,5.2,27129,Renville,"{""27129"": 100}",Renville,27129,False,False,America/Chicago,"(44.75599, -94.87624)",98.1633588823081,6219975.0,63_0_yes,45.89536218660929,-93.66900370882006,150.0
55311,45.1052,-93.49495,Maple Grove,MN,Minnesota,True,,39229.0,922.0,27053,Hennepin,"{""27053"": 100}",Hennepin,27053,False,False,America/Chicago,"(45.1052, -93.49495)",55.24182600580976,6219975.0,63_0_yes,45.89536218660929,-93.66900370882006,150.0
55312,44.70853,-94.34489,Brownton,MN,Minnesota,True,,1448.0,7.6,27085,McLeod,"{""27085"": 99.27, ""27143"": 0.73}",McLeod|Sibley,27085|27143,False,False,America/Chicago,"(44.70853, -94.34489)",88.33534102954938,6219975.0,63_0_yes,45.89536218660929,-93.66900370882006,150.0
55313,45.17382,-93.84859,Buffalo,MN,Minnesota,True,,25150.0,90.1,27171,Wright,"{""27171"": 99.9, ""27053"": 0.1}",Wright|Hennepin,27171|27053,False,False,America/Chicago,"(45.17382, -93.84859)",50.6057756420069,6219975.0,63_0_yes,45.89536218660929,-93.66900370882006,150.0
55314,44.77214,-94.6,Buffalo Lake,MN,Minnesota,True,,1114.0,5.9,27129,Renville,"{""27129"": 75.62, ""27143"": 24.38}",Renville|Sibley,27129|27143,False,False,America/Chicago,"(44.77214, -94.6)",89.81867403959117,6219975.0,63_0_yes,45.89536218660929,-93.66900370882006,150.0
55315,44.71731,-93.68347,Carver,MN,Minnesota,True,,5932.0,83.5,27019,Carver,"{""27019"": 100}",Carver,27019,False,False,America/Chicago,"(44.71731, -93.68347)",81.39868851666861,6219975.0,63_0_yes,45.89536218660929,-93.66900370882006,150.0
55316,45.17021,-93.39032,Champlin,MN,Minnesota,True,,24980.0,1183.3,27053,Hennepin,"{""27053"": 100}",Hennepin,27053,False,False,America/Chicago,"(45.17021, -93.39032)",51.886982501695684,6219975.0,63_0_yes,45.89536218660929,-93.66900370882006,150.0
55317,44.85711,-93.55096,Chanhassen,MN,Minnesota,True,,22003.0,646.1,27019,Carver,"{""27019"": 98.36, ""27053"": 1.64}",Carver|Hennepin,27019|27053,False,False,America/Chicago,"(44.85711, -93.55096)",71.96478430280986,6219975.0,63_0_yes,45.89536218660929,-93.66900370882006,150.0
55318,44.81169,-93.63703,Chaska,MN,Minnesota,True,,28959.0,280.1,27019,Carver,"{""27019"": 100}",Carver,27019,False,False,America/Chicago,"(44.81169, -93.63703)",74.89070705312498,6219975.0,63_0_yes,45.89536218660929,-93.66900370882006,150.0
55319,45.47181,-93.94359,Clear Lake,MN,Minnesota,True,,5567.0,30.1,27141,Sherburne,"{""27141"": 100}",Sherburne,27141,False,False,America/Chicago,"(45.47181, -93.94359)",32.12621603219679,6219975.0,63_0_yes,45.89536218660929,-93.66900370882006,150.0
55320,45.39613,-94.08366,Clearwater,MN,Minnesota,True,,5755.0,45.6,27145,Stearns,"{""27145"": 58.72, ""27171"": 41.28}",Stearns|Wright,27145|27171,False,False,America/Chicago,"(45.39613, -94.08366)",39.88687392192786,6219975.0,63_0_yes,45.89536218660929,-93.66900370882006,150.0
55321,45.08406,-94.193,Cokato,MN,Minnesota,True,,5238.0,25.0,27171,Wright,"{""27171"": 100}",Wright,27171,False,False,America/Chicago,"(45.08406, -94.193)",61.53353334036312,6219975.0,63_0_yes,45.89536218660929,-93.66900370882006,150.0
55322,44.77006,-93.7861,Cologne,MN,Minnesota,True,,3872.0,26.1,27019,Carver,"{""27019"": 100}",Carver,27019,False,False,America/Chicago,"(44.77006, -93.7861)",77.95869815269121,6219975.0,63_0_yes,45.89536218660929,-93.66900370882006,150.0
55324,45.05676,-94.42554,Darwin,MN,Minnesota,True,,1085.0,11.9,27093,Meeker,"{""27093"": 100}",Meeker,27093,False,False,America/Chicago,"(45.05676, -94.42554)",68.56104856975765,6219975.0,63_0_yes,45.89536218660929,-93.66900370882006,150.0
55325,45.08432,-94.32031,Dassel,MN,Minnesota,True,,4757.0,24.0,27093,Meeker,"{""27093"": 100}",Meeker,27093,False,False,America/Chicago,"(45.08432, -94.32031)",64.3069153588414,6219975.0,63_0_yes,45.89536218660929,-93.66900370882006,150.0
55327,45.19922,-93.4753,Dayton,MN,Minnesota,True,,3925.0,86.3,27053,Hennepin,"{""27053"": 100}",Hennepin,27053,False,False,America/Chicago,"(45.19922, -93.4753)",49.00351485579125,6219975.0,63_0_yes,45.89536218660929,-93.66900370882006,150.0
55328,45.03246,-93.80981,Delano,MN,Minnesota,True,,9626.0,82.8,27171,Wright,"{""27171"": 86.34, ""27019"": 6.84, ""27053"": 6.82}",Wright|Carver|Hennepin,27171|27019|27053,False,False,America/Chicago,"(45.03246, -93.80981)",60.01001535591325,6219975.0,63_0_yes,45.89536218660929,-93.66900370882006,150.0
55329,45.30798,-94.57039,Eden Valley,MN,Minnesota,True,,2077.0,15.9,27093,Meeker,"{""27093"": 68.4, ""27145"": 31.6}",Meeker|Stearns,27093|27145,False,False,America/Chicago,"(45.30798, -94.57039)",59.54539498409871,6219975.0,63_0_yes,45.89536218660929,-93.66900370882006,150.0
55330,45.33359,-93.5679,Elk River,MN,Minnesota,True,,39634.0,143.5,27141,Sherburne,"{""27141"": 62.01, ""27003"": 21.2, ""27171"": 16.79}",Sherburne|Anoka|Wright,27141|27003|27171,False,False,America/Chicago,"(45.33359, -93.5679)",39.1211053783641,6219975.0,63_0_yes,45.89536218660929,-93.66900370882006,150.0
55331,44.90124,-93.60832,Excelsior,MN,Minnesota,True,,19696.0,466.1,27053,Hennepin,"{""27053"": 71.47, ""27019"": 28.53}",Hennepin|Carver,27053|27019,False,False,America/Chicago,"(44.90124, -93.60832)",68.75036120375059,6219975.0,63_0_yes,45.89536218660929,-93.66900370882006,150.0
55332,44.51852,-94.70761,Fairfax,MN,Minnesota,True,,1761.0,5.9,27129,Renville,"{""27129"": 81.85, ""27103"": 16.58, ""27143"": 1.57}",Renville|Nicollet|Sibley,27129|27103|27143,False,False,America/Chicago,"(44.51852, -94.70761)",107.72898922735705,6219975.0,63_0_yes,45.89536218660929,-93.66900370882006,150.0
55333,44.55987,-94.86593,Franklin,MN,Minnesota,True,,839.0,4.7,27129,Renville,"{""27129"": 91.74, ""27015"": 4.36, ""27127"": 3.9}",Renville|Brown|Redwood,27129|27015|27127,False,False,America/Chicago,"(44.55987, -94.86593)",109.11557487729118,6219975.0,63_0_yes,45.89536218660929,-93.66900370882006,150.0
55334,44.53578,-94.20772,Gaylord,MN,Minnesota,True,,2667.0,12.1,27143,Sibley,"{""27143"": 87.92, ""27103"": 11.4, ""27085"": 0.68}",Sibley|Nicollet|McLeod,27143|27103|27085,False,False,America/Chicago,"(44.53578, -94.20772)",97.5282811598877,6219975.0,63_0_yes,45.89536218660929,-93.66900370882006,150.0
55335,44.52969,-94.54621,Gibbon,MN,Minnesota,True,,1570.0,5.4,27143,Sibley,"{""27143"": 83.71, ""27103"": 16.29}",Sibley|Nicollet,27143|27103,False,False,America/Chicago,"(44.52969, -94.54621)",103.56812739612288,6219975.0,63_0_yes,45.89536218660929,-93.66900370882006,150.0
55336,44.76627,-94.17803,Glencoe,MN,Minnesota,True,,7930.0,22.5,27085,McLeod,"{""27085"": 79.46, ""27143"": 20.54}",McLeod|Sibley,27085|27143,False,False,America/Chicago,"(44.76627, -94.17803)",81.83676506083314,6219975.0,63_0_yes,45.89536218660929,-93.66900370882006,150.0
55337,44.77673,-93.27491,Burnsville,MN,Minnesota,True,,45659.0,941.9,27037,Dakota,"{""27037"": 100}",Dakota,27037,False,False,America/Chicago,"(44.77673, -93.27491)",79.624640053706,6219975.0,63_0_yes,45.89536218660929,-93.66900370882006,150.0
55338,44.66996,-93.99688,Green Isle,MN,Minnesota,True,,1047.0,9.9,27143,Sibley,"{""27143"": 100}",Sibley,27143,False,False,America/Chicago,"(44.66996, -93.99688)",86.15434866105007,6219975.0,63_0_yes,45.89536218660929,-93.66900370882006,150.0
55339,44.7289,-93.95905,Hamburg,MN,Minnesota,True,,1016.0,17.1,27019,Carver,"{""27019"": 65.35, ""27143"": 30.73, ""27085"": 3.92}",Carver|Sibley|McLeod,27019|27143|27085,False,False,America/Chicago,"(44.7289, -93.95905)",81.8176156043628,6219975.0,63_0_yes,45.89536218660929,-93.66900370882006,150.0
55340,45.07761,-93.57508,Hamel,MN,Minnesota,True,,8679.0,94.0,27053,Hennepin,"{""27053"": 100}",Hennepin,27053,False,False,America/Chicago,"(45.07761, -93.57508)",56.684161283940945,6219975.0,63_0_yes,45.89536218660929,-93.66900370882006,150.0
55341,45.15917,-93.65913,Hanover,MN,Minnesota,True,,3300.0,262.7,27171,Wright,"{""27171"": 57.56, ""27053"": 42.44}",Wright|Hennepin,27171|27053,False,False,America/Chicago,"(45.15917, -93.65913)",50.86828035001673,6219975.0,63_0_yes,45.89536218660929,-93.66900370882006,150.0
55342,44.74152,-94.72982,Hector,MN,Minnesota,True,,1761.0,4.2,27129,Renville,"{""27129"": 99.73, ""27093"": 0.27}",Renville|Meeker,27129|27093,False,False,America/Chicago,"(44.74152, -94.72982)",94.92939382558528,6219975.0,63_0_yes,45.89536218660929,-93.66900370882006,150.0
55343,44.91433,-93.41568,Hopkins,MN,Minnesota,True,,25734.0,1291.0,27053,Hennepin,"{""27053"": 100}",Hennepin,27053,False,False,America/Chicago,"(44.91433, -93.41568)",68.88769777922442,6219975.0,63_0_yes,45.89536218660929,-93.66900370882006,150.0
55344,44.86452,-93.43037,Eden Prairie,MN,Minnesota,True,,15907.0,693.2,27053,Hennepin,"{""27053"": 100}",Hennepin,27053,False,False,America/Chicago,"(44.86452, -93.43037)",72.15972963531964,6219975.0,63_0_yes,45.89536218660929,-93.66900370882006,150.0
55345,44.91526,-93.4838,Minnetonka,MN,Minnesota,True,,22081.0,750.0,27053,Hennepin,"{""27053"": 100}",Hennepin,27053,False,False,America/Chicago,"(44.91526, -93.4838)",68.31191166536144,6219975.0,63_0_yes,45.89536218660929,-93.66900370882006,150.0
55346,44.87882,-93.48157,Eden Prairie,MN,Minnesota,True,,17907.0,1022.5,27053,Hennepin,"{""27053"": 100}",Hennepin,27053,False,False,America/Chicago,"(44.87882, -93.48157)",70.822760175088,6219975.0,63_0_yes,45.89536218660929,-93.66900370882006,150.0
55347,44.82931,-93.46638,Eden Prairie,MN,Minnesota,True,,30667.0,702.2,27053,Hennepin,"{""27053"": 100}",Hennepin,27053,False,False,America/Chicago,"(44.82931, -93.46638)",74.31103764198829,6219975.0,63_0_yes,45.89536218660929,-93.66900370882006,150.0
55349,45.06238,-94.07438,Howard Lake,MN,Minnesota,True,,3723.0,23.1,27171,Wright,"{""27171"": 100}",Wright,27171,False,False,America/Chicago,"(45.06238, -94.07438)",60.8118220537895,6219975.0,63_0_yes,45.89536218660929,-93.66900370882006,150.0
55350,44.89743,-94.39195,Hutchinson,MN,Minnesota,True,,17938.0,43.3,27085,McLeod,"{""27085"": 86.48, ""27093"": 11.43, ""27129"": 2.09}",McLeod|Meeker|Renville,27085|27093|27129,False,False,America/Chicago,"(44.89743, -94.39195)",77.35841166809202,6219975.0,63_0_yes,45.89536218660929,-93.66900370882006,150.0
55352,44.65505,-93.5862,Jordan,MN,Minnesota,True,,9760.0,55.7,27139,Scott,"{""27139"": 100}",Scott,27139,False,False,America/Chicago,"(44.65505, -93.5862)",85.79191241775665,6219975.0,63_0_yes,45.89536218660929,-93.66900370882006,150.0
55353,45.32034,-94.31607,Kimball,MN,Minnesota,True,,3535.0,16.8,27145,Stearns,"{""27145"": 67.05, ""27093"": 32.95}",Stearns|Meeker,27145|27093,False,False,America/Chicago,"(45.32034, -94.31607)",50.563359531309494,6219975.0,63_0_yes,45.89536218660929,-93.66900370882006,150.0
55354,44.88466,-94.0701,Lester Prairie,MN,Minnesota,True,,2859.0,34.0,27085,McLeod,"{""27085"": 100}",McLeod,27085,False,False,America/Chicago,"(44.88466, -94.0701)",72.49392686361679,6219975.0,63_0_yes,45.89536218660929,-93.66900370882006,150.0
55355,45.09709,-94.54017,Litchfield,MN,Minnesota,True,,9581.0,21.5,27093,Meeker,"{""27093"": 100}",Meeker,27093,False,False,America/Chicago,"(45.09709, -94.54017)",69.44156089031691,6219975.0,63_0_yes,45.89536218660929,-93.66900370882006,150.0
55356,44.99565,-93.58628,Long Lake,MN,Minnesota,True,,6027.0,178.3,27053,Hennepin,"{""27053"": 100}",Hennepin,27053,False,False,America/Chicago,"(44.99565, -93.58628)",62.293384052384255,6219975.0,63_0_yes,45.89536218660929,-93.66900370882006,150.0
55357,45.09906,-93.65913,Loretto,MN,Minnesota,True,,3438.0,68.0,27053,Hennepin,"{""27053"": 100}",Hennepin,27053,False,False,America/Chicago,"(45.09906, -93.65913)",55.02131849209843,6219975.0,63_0_yes,45.89536218660929,-93.66900370882006,150.0
55358,45.24637,-94.00049,Maple Lake,MN,Minnesota,True,,5031.0,35.6,27171,Wright,"{""27171"": 100}",Wright,27171,False,False,America/Chicago,"(45.24637, -94.00049)",47.62111925828485,6219975.0,63_0_yes,45.89536218660929,-93.66900370882006,150.0
55359,45.00464,-93.70112,Maple Plain,MN,Minnesota,True,,6601.0,59.7,27053,Hennepin,"{""27053"": 100}",Hennepin,27053,False,False,America/Chicago,"(45.00464, -93.70112)",61.562724822194525,6219975.0,63_0_yes,45.89536218660929,-93.66900370882006,150.0
55360,44.91331,-93.92065,Mayer,MN,Minnesota,True,,3130.0,39.5,27019,Carver,"{""27019"": 100}",Carver,27019,False,False,America/Chicago,"(44.91331, -93.92065)",68.94261007661675,6219975.0,63_0_yes,45.89536218660929,-93.66900370882006,150.0
55362,45.30099,-93.83563,Monticello,MN,Minnesota,True,,19253.0,113.9,27171,Wright,"{""27171"": 100}",Wright,27171,False,False,America/Chicago,"(45.30099, -93.83563)",41.84974791711247,6219975.0,63_0_yes,45.89536218660929,-93.66900370882006,150.0
55363,45.04385,-93.91352,Montrose,MN,Minnesota,True,,5240.0,72.2,27171,Wright,"{""27171"": 99.12, ""27019"": 0.88}",Wright|Carver,27171|27019,False,False,America/Chicago,"(45.04385, -93.91352)",60.01489762974892,6219975.0,63_0_yes,45.89536218660929,-93.66900370882006,150.0
55364,44.93974,-93.67486,Mound,MN,Minnesota,True,,14970.0,380.9,27053,Hennepin,"{""27053"": 100}",Hennepin,27053,False,False,America/Chicago,"(44.93974, -93.67486)",66.02781495554979,6219975.0,63_0_yes,45.89536218660929,-93.66900370882006,150.0
55366,44.67233,-94.2346,New Auburn,MN,Minnesota,True,,484.0,391.3,27143,Sibley,"{""27143"": 100}",Sibley,27143,False,False,America/Chicago,"(44.67233, -94.2346)",88.86357829824748,6219975.0,63_0_yes,45.89536218660929,-93.66900370882006,150.0
55367,44.89142,-93.97499,New Germany,MN,Minnesota,True,,941.0,18.8,27019,Carver,"{""27019"": 100}",Carver,27019,False,False,America/Chicago,"(44.89142, -93.97499)",70.93663600787504,6219975.0,63_0_yes,45.89536218660929,-93.66900370882006,150.0
55368,44.7458,-93.89679,Norwood Young America,MN,Minnesota,True,,2001.0,22.6,27019,Carver,"{""27019"": 100}",Carver,27019,False,False,America/Chicago,"(44.7458, -93.89679)",80.19429673121566,6219975.0,63_0_yes,45.89536218660929,-93.66900370882006,150.0
55369,45.12834,-93.44837,Osseo,MN,Minnesota,True,,38081.0,594.0,27053,Hennepin,"{""27053"": 100}",Hennepin,27053,False,False,America/Chicago,"(45.12834, -93.44837)",54.06207128002388,6219975.0,63_0_yes,45.89536218660929,-93.66900370882006,150.0
55370,44.78077,-94.03892,Plato,MN,Minnesota,True,,617.0,11.5,27085,McLeod,"{""27085"": 100}",McLeod,27085,False,False,America/Chicago,"(44.78077, -94.03892)",79.07857552812182,6219975.0,63_0_yes,45.89536218660929,-93.66900370882006,150.0
55371,45.57677,-93.59581,Princeton,MN,Minnesota,True,,16859.0,33.2,27095,Mille Lacs,"{""27095"": 41.02, ""27141"": 29.66, ""27059"": 27.08, ""27009"": 2.23}",Mille Lacs|Sherburne|Isanti|Benton,27095|27141|27059|27009,False,False,America/Chicago,"(45.57677, -93.59581)",22.293823944815472,6219975.0,63_0_yes,45.89536218660929,-93.66900370882006,150.0
55372,44.67791,-93.41237,Prior Lake,MN,Minnesota,True,,34188.0,225.6,27139,Scott,"{""27139"": 100}",Scott,27139,False,False,America/Chicago,"(44.67791, -93.41237)",85.03785398881536,6219975.0,63_0_yes,45.89536218660929,-93.66900370882006,150.0
55373,45.08779,-93.72282,Rockford,MN,Minnesota,True,,5590.0,202.1,27053,Hennepin,"{""27053"": 76.78, ""27171"": 23.22}",Hennepin|Wright,27053|27171,False,False,America/Chicago,"(45.08779, -93.72282)",55.85877058561897,6219975.0,63_0_yes,45.89536218660929,-93.66900370882006,150.0
55374,45.17715,-93.58035,Rogers,MN,Minnesota,True,,15959.0,180.0,27053,Hennepin,"{""27053"": 95.36, ""27171"": 4.64}",Hennepin|Wright,27053|27171,False,False,America/Chicago,"(45.17715, -93.58035)",49.80886641368457,6219975.0,63_0_yes,45.89536218660929,-93.66900370882006,150.0
55375,44.89475,-93.73129,Saint Bonifacius,MN,Minnesota,True,,4405.0,330.6,27053,Hennepin,"{""27053"": 62.04, ""27019"": 37.96}",Hennepin|Carver,27053|27019,False,False,America/Chicago,"(44.89475, -93.73129)",69.20172755280146,6219975.0,63_0_yes,45.89536218660929,-93.66900370882006,150.0
55376,45.21161,-93.68508,Saint Michael,MN,Minnesota,True,,17793.0,234.9,27171,Wright,"{""27171"": 100}",Wright,27171,False,False,America/Chicago,"(45.21161, -93.68508)",47.24917847502451,6219975.0,63_0_yes,45.89536218660929,-93.66900370882006,150.0
55378,44.75685,-93.36209,Savage,MN,Minnesota,True,,31829.0,858.0,27139,Scott,"{""27139"": 100}",Scott,27139,False,False,America/Chicago,"(44.75685, -93.36209)",80.06390854291156,6219975.0,63_0_yes,45.89536218660929,-93.66900370882006,150.0
55379,44.75492,-93.51713,Shakopee,MN,Minnesota,True,,45001.0,300.2,27139,Scott,"{""27139"": 100}",Scott,27139,False,False,America/Chicago,"(44.75492, -93.51713)",79.14164122271691,6219975.0,63_0_yes,45.89536218660929,-93.66900370882006,150.0
55381,44.92763,-94.18623,Silver Lake,MN,Minnesota,True,,1987.0,17.4,27085,McLeod,"{""27085"": 100}",McLeod,27085,False,False,America/Chicago,"(44.92763, -94.18623)",71.41507831185432,6219975.0,63_0_yes,45.89536218660929,-93.66900370882006,150.0
55382,45.30521,-94.20438,South Haven,MN,Minnesota,True,,3455.0,17.5,27145,Stearns,"{""27145"": 49.45, ""27171"": 37.63, ""27093"": 12.92}",Stearns|Wright|Meeker,27145|27171|27093,False,False,America/Chicago,"(45.30521, -94.20438)",48.295512902606454,6219975.0,63_0_yes,45.89536218660929,-93.66900370882006,150.0
55384,44.9364,-93.63201,Spring Park,MN,Minnesota,True,,2136.0,2336.0,27053,Hennepin,"{""27053"": 100}",Hennepin,27053,False,False,America/Chicago,"(44.9364, -93.63201)",66.28226233456216,6219975.0,63_0_yes,45.89536218660929,-93.66900370882006,150.0
55385,44.73732,-94.49281,Stewart,MN,Minnesota,True,,1300.0,5.1,27085,McLeod,"{""27085"": 52.68, ""27129"": 29.24, ""27143"": 18.08}",McLeod|Renville|Sibley,27085|27129|27143,False,False,America/Chicago,"(44.73732, -94.49281)",89.46447382973693,6219975.0,63_0_yes,45.89536218660929,-93.66900370882006,150.0
55386,44.85686,-93.66435,Victoria,MN,Minnesota,True,,8211.0,495.7,27019,Carver,"{""27019"": 100}",Carver,27019,False,False,America/Chicago,"(44.85686, -93.66435)",71.75402214698619,6219975.0,63_0_yes,45.89536218660929,-93.66900370882006,150.0
55387,44.85643,-93.77903,Waconia,MN,Minnesota,True,,13501.0,165.3,27019,Carver,"{""27019"": 99.36, ""27053"": 0.64}",Carver|Hennepin,27019|27053,False,False,America/Chicago,"(44.85643, -93.77903)",71.98171135008943,6219975.0,63_0_yes,45.89536218660929,-93.66900370882006,150.0
55388,44.95,-93.84729,Watertown,MN,Minnesota,True,,5955.0,61.1,27019,Carver,"{""27019"": 80.01, ""27171"": 15.15, ""27053"": 4.84}",Carver|Wright|Hennepin,27019|27171|27053,False,False,America/Chicago,"(44.95, -93.84729)",65.88798294152936,6219975.0,63_0_yes,45.89536218660929,-93.66900370882006,150.0
55389,45.2998,-94.43748,Watkins,MN,Minnesota,True,,2571.0,13.3,27093,Meeker,"{""27093"": 62.98, ""27145"": 37.02}",Meeker|Stearns,27093|27145,False,False,America/Chicago,"(45.2998, -94.43748)",55.43860461349367,6219975.0,63_0_yes,45.89536218660929,-93.66900370882006,150.0
55390,45.06812,-93.97912,Waverly,MN,Minnesota,True,,2692.0,28.2,27171,Wright,"{""27171"": 100}",Wright,27171,False,False,America/Chicago,"(45.06812, -93.97912)",59.09825087967796,6219975.0,63_0_yes,45.89536218660929,-93.66900370882006,150.0
55391,44.96009,-93.54225,Wayzata,MN,Minnesota,True,,15730.0,367.6,27053,Hennepin,"{""27053"": 100}",Hennepin,27053,False,False,America/Chicago,"(44.96009, -93.54225)",64.91276734748674,6219975.0,63_0_yes,45.89536218660929,-93.66900370882006,150.0
55395,44.9572,-94.06085,Winsted,MN,Minnesota,True,,2595.0,41.9,27085,McLeod,"{""27085"": 76.98, ""27171"": 11.9, ""27019"": 11.12}",McLeod|Wright|Carver,27085|27171|27019,False,False,America/Chicago,"(44.9572, -94.06085)",67.54816122130403,6219975.0,63_0_yes,45.89536218660929,-93.66900370882006,150.0
55396,44.54473,-94.36755,Winthrop,MN,Minnesota,True,,2175.0,7.8,27143,Sibley,"{""27143"": 99.15, ""27085"": 0.85}",Sibley|McLeod,27143|27085,False,False,America/Chicago,"(44.54473, -94.36755)",99.31851176502212,6219975.0,63_0_yes,45.89536218660929,-93.66900370882006,150.0
55397,44.81712,-93.93452,Young America,MN,Minnesota,True,,3020.0,41.2,27019,Carver,"{""27019"": 96.67, ""27085"": 3.33}",Carver|McLeod,27019|27085,False,False,America/Chicago,"(44.81712, -93.93452)",75.60642277742677,6219975.0,63_0_yes,45.89536218660929,-93.66900370882006,150.0
55398,45.45787,-93.5903,Zimmerman,MN,Minnesota,True,,17039.0,90.0,27141,Sherburne,"{""27141"": 82.64, ""27059"": 17.36}",Sherburne|Isanti,27141|27059,False,False,America/Chicago,"(45.45787, -93.5903)",30.46568103172559,6219975.0,63_0_yes,45.89536218660929,-93.66900370882006,150.0
55401,44.98526,-93.26984,Minneapolis,MN,Minnesota,True,,10942.0,5339.2,27053,Hennepin,"{""27053"": 100}",Hennepin,27053,False,False,America/Chicago,"(44.98526, -93.26984)",65.79204783837166,6219975.0,63_0_yes,45.89536218660929,-93.66900370882006,150.0
55402,44.97608,-93.27119,Minneapolis,MN,Minnesota,True,,514.0,1177.0,27053,Hennepin,"{""27053"": 100}",Hennepin,27053,False,False,America/Chicago,"(44.97608, -93.27119)",66.37994159419192,6219975.0,63_0_yes,45.89536218660929,-93.66900370882006,150.0
55403,44.97023,-93.28588,Minneapolis,MN,Minnesota,True,,16437.0,4670.6,27053,Hennepin,"{""27053"": 100}",Hennepin,27053,False,False,America/Chicago,"(44.97023, -93.28588)",66.56483676710418,6219975.0,63_0_yes,45.89536218660929,-93.66900370882006,150.0
55404,44.9619,-93.26145,Minneapolis,MN,Minnesota,True,,28586.0,6112.5,27053,Hennepin,"{""27053"": 100}",Hennepin,27053,False,False,America/Chicago,"(44.9619, -93.26145)",67.45554567386186,6219975.0,63_0_yes,45.89536218660929,-93.66900370882006,150.0
55405,44.97034,-93.30461,Minneapolis,MN,Minnesota,True,,16277.0,2218.0,27053,Hennepin,"{""27053"": 100}",Hennepin,27053,False,False,America/Chicago,"(44.97034, -93.30461)",66.30982988886954,6219975.0,63_0_yes,45.89536218660929,-93.66900370882006,150.0
55406,44.93932,-93.22071,Minneapolis,MN,Minnesota,True,,33709.0,2600.4,27053,Hennepin,"{""27053"": 100}",Hennepin,27053,False,False,America/Chicago,"(44.93932, -93.22071)",69.5419975649485,6219975.0,63_0_yes,45.89536218660929,-93.66900370882006,150.0
55407,44.93484,-93.25263,Minneapolis,MN,Minnesota,True,,40792.0,3923.4,27053,Hennepin,"{""27053"": 100}",Hennepin,27053,False,False,America/Chicago,"(44.93484, -93.25263)",69.370000962355,6219975.0,63_0_yes,45.89536218660929,-93.66900370882006,150.0
55408,44.94364,-93.2937,Minneapolis,MN,Minnesota,True,,32276.0,4638.0,27053,Hennepin,"{""27053"": 100}",Hennepin,27053,False,False,America/Chicago,"(44.94364, -93.2937)",68.23001064039946,6219975.0,63_0_yes,45.89536218660929,-93.66900370882006,150.0
55409,44.93018,-93.28146,Minneapolis,MN,Minnesota,True,,11631.0,3432.7,27053,Hennepin,"{""27053"": 100}",Hennepin,27053,False,False,America/Chicago,"(44.93018, -93.28146)",69.28600600677373,6219975.0,63_0_yes,45.89536218660929,-93.66900370882006,150.0
55410,44.91364,-93.31725,Minneapolis,MN,Minnesota,True,,20087.0,2526.5,27053,Hennepin,"{""27053"": 100}",Hennepin,27053,False,False,America/Chicago,"(44.91364, -93.31725)",69.94370517452444,6219975.0,63_0_yes,45.89536218660929,-93.66900370882006,150.0
55411,44.9993,-93.2979,Minneapolis,MN,Minnesota,True,,31685.0,3037.3,27053,Hennepin,"{""27053"": 100}",Hennepin,27053,False,False,America/Chicago,"(44.9993, -93.2979)",64.47217476307397,6219975.0,63_0_yes,45.89536218660929,-93.66900370882006,150.0
55412,45.02612,-93.29952,Minneapolis,MN,Minnesota,True,,24402.0,2765.8,27053,Hennepin,"{""27053"": 100}",Hennepin,27053,False,False,America/Chicago,"(45.02612, -93.29952)",62.67111819147277,6219975.0,63_0_yes,45.89536218660929,-93.66900370882006,150.0
55413,44.99826,-93.24276,Minneapolis,MN,Minnesota,True,,14769.0,1817.7,27053,Hennepin,"{""27053"": 100}",Hennepin,27053,False,False,America/Chicago,"(44.99826, -93.24276)",65.33657686360756,6219975.0,63_0_yes,45.89536218660929,-93.66900370882006,150.0
55414,44.97915,-93.2259,Minneapolis,MN,Minnesota,True,,36017.0,4452.1,27053,Hennepin,"{""27053"": 100}",Hennepin,27053,False,False,America/Chicago,"(44.97915, -93.2259)",66.84973833578582,6219975.0,63_0_yes,45.89536218660929,-93.66900370882006,150.0
55415,44.97463,-93.2578,Minneapolis,MN,Minnesota,True,,5177.0,4562.3,27053,Hennepin,"{""27053"": 100}",Hennepin,27053,False,False,America/Chicago,"(44.97463, -93.2578)",66.66712256146967,6219975.0,63_0_yes,45.89536218660929,-93.66900370882006,150.0
55416,44.94961,-93.34157,Minneapolis,MN,Minnesota,True,,32956.0,1734.5,27053,Hennepin,"{""27053"": 100}",Hennepin,27053,False,False,America/Chicago,"(44.94961, -93.34157)",67.2466800489853,6219975.0,63_0_yes,45.89536218660929,-93.66900370882006,150.0
55417,44.9059,-93.23534,Minneapolis,MN,Minnesota,True,,26035.0,2275.2,27053,Hennepin,"{""27053"": 100}",Hennepin,27053,False,False,America/Chicago,"(44.9059, -93.23534)",71.52897402461736,6219975.0,63_0_yes,45.89536218660929,-93.66900370882006,150.0
55418,45.0208,-93.24244,Minneapolis,MN,Minnesota,True,,30209.0,1669.0,27053,Hennepin,"{""27053"": 99.84, ""27123"": 0.16}",Hennepin|Ramsey,27053|27123,False,False,America/Chicago,"(45.0208, -93.24244)",63.86472195070963,6219975.0,63_0_yes,45.89536218660929,-93.66900370882006,150.0
55419,44.90586,-93.28743,Minneapolis,MN,Minnesota,True,,28792.0,2647.9,27053,Hennepin,"{""27053"": 100}",Hennepin,27053,False,False,America/Chicago,"(44.90586, -93.28743)",70.82963200798312,6219975.0,63_0_yes,45.89536218660929,-93.66900370882006,150.0
55420,44.83564,-93.27745,Minneapolis,MN,Minnesota,True,,22215.0,1288.1,27053,Hennepin,"{""27053"": 100}",Hennepin,27053,False,False,America/Chicago,"(44.83564, -93.27745)",75.64645021152985,6219975.0,63_0_yes,45.89536218660929,-93.66900370882006,150.0
