zip,lat,lng,city,state_id,state_name,zcta,parent_zcta,population,density,county_fips,county_name,county_weights,county_names_all,county_fips_all,imprecise,military,timezone,Coord,distance_miles,market_total_population,market_id,market_center_lat,market_center_lng,radius_miles
28902,35.02503,-83.9571,Brasstown,NC,North Carolina,True,,1262.0,21.6,37043,Clay,"{""37043"": 66.77, ""37039"": 33.23}",Clay|Cherokee,37043|37039,False,False,America/New_York,"(35.02503, -83.9571)",249.5893397998156,20177193.0,12_0_no,32.71849371842212,-87.30613541353725,200.0
28905,35.1631,-83.9409,Marble,NC,North Carolina,True,,2999.0,25.6,37039,Cherokee,"{""37039"": 100}",Cherokee,37039,False,False,America/New_York,"(35.1631, -83.9409)",256.3639196206757,20177193.0,12_0_no,32.71849371842212,-87.30613541353725,200.0
28906,35.11873,-84.13343,Murphy,NC,North Carolina,True,,19665.0,22.8,37039,Cherokee,"{""37039"": 100}",Cherokee,37039,False,False,America/New_York,"(35.11873, -84.13343)",246.1304973532453,20177193.0,12_0_no,32.71849371842212,-87.30613541353725,200.0
28909,35.00125,-83.90319,Warne,NC,North Carolina,True,,836.0,33.9,37043,Clay,"{""37043"": 100}",Clay,37043,False,False,America/New_York,"(35.00125, -83.90319)",250.9622418102558,20177193.0,12_0_no,32.71849371842212,-87.30613541353725,200.0
30002,33.77309,-84.26093,Avondale Estates,GA,Georgia,True,,5902.0,1342.4,13089,DeKalb,"{""13089"": 100}",DeKalb,13089,False,False,America/New_York,"(33.77309, -84.26093)",190.44498714347984,20177193.0,12_0_no,32.71849371842212,-87.30613541353725,200.0
30004,34.14352,-84.29926,Alpharetta,GA,Georgia,True,,66538.0,443.4,13121,Fulton,"{""13121"": 68.46, ""13117"": 15.9, ""13057"": 15.64}",Fulton|Forsyth|Cherokee,13121|13117|13057,False,False,America/New_York,"(34.14352, -84.29926)",199.37417159380178,20177193.0,12_0_no,32.71849371842212,-87.30613541353725,200.0
30005,34.08582,-84.22158,Alpharetta,GA,Georgia,True,,40213.0,983.3,13121,Fulton,"{""13121"": 70.51, ""13117"": 29.49}",Fulton|Forsyth,13121|13117,False,False,America/New_York,"(34.08582, -84.22158)",201.43260416234824,20177193.0,12_0_no,32.71849371842212,-87.30613541353725,200.0
30008,33.8966,-84.58847,Marietta,GA,Georgia,True,,34709.0,1404.5,13067,Cobb,"{""13067"": 100}",Cobb,13067,False,False,America/New_York,"(33.8966, -84.58847)",176.7737804740847,20177193.0,12_0_no,32.71849371842212,-87.30613541353725,200.0
30009,34.07711,-84.3029,Alpharetta,GA,Georgia,True,,18625.0,789.6,13121,Fulton,"{""13121"": 100}",Fulton,13121,False,False,America/New_York,"(34.07711, -84.3029)",197.02309318009736,20177193.0,12_0_no,32.71849371842212,-87.30613541353725,200.0
30012,33.71739,-83.99913,Conyers,GA,Georgia,True,,31427.0,285.9,13247,Rockdale,"{""13247"": 96.61, ""13297"": 2.8, ""13089"": 0.59}",Rockdale|Walton|DeKalb,13247|13297|13089,False,False,America/New_York,"(33.71739, -83.99913)",203.2202007328763,20177193.0,12_0_no,32.71849371842212,-87.30613541353725,200.0
30013,33.643,-83.97147,Conyers,GA,Georgia,True,,25218.0,343.4,13247,Rockdale,"{""13247"": 94.99, ""13217"": 5.01}",Rockdale|Newton,13247|13217,False,False,America/New_York,"(33.643, -83.97147)",203.12791850537485,20177193.0,12_0_no,32.71849371842212,-87.30613541353725,200.0
30016,33.51836,-83.93073,Covington,GA,Georgia,True,,56934.0,242.1,13217,Newton,"{""13217"": 99.62, ""13247"": 0.38}",Newton|Rockdale,13217|13247,False,False,America/New_York,"(33.51836, -83.93073)",202.98650404207808,20177193.0,12_0_no,32.71849371842212,-87.30613541353725,200.0
30017,33.88939,-83.96348,Grayson,GA,Georgia,True,,23788.0,794.6,13135,Gwinnett,"{""13135"": 100}",Gwinnett,13135,False,False,America/New_York,"(33.88939, -83.96348)",209.2790450437538,20177193.0,12_0_no,32.71849371842212,-87.30613541353725,200.0
30019,33.97642,-83.88252,Dacula,GA,Georgia,True,,48443.0,399.1,13135,Gwinnett,"{""13135"": 96.05, ""13297"": 3.95}",Gwinnett|Walton,13135|13297,False,False,America/New_York,"(33.97642, -83.88252)",215.85539606827268,20177193.0,12_0_no,32.71849371842212,-87.30613541353725,200.0
30021,33.80803,-84.23909,Clarkston,GA,Georgia,True,,24138.0,2606.5,13089,DeKalb,"{""13089"": 100}",DeKalb,13089,False,False,America/New_York,"(33.80803, -84.23909)",192.50943599962653,20177193.0,12_0_no,32.71849371842212,-87.30613541353725,200.0
30022,34.02745,-84.24643,Alpharetta,GA,Georgia,True,,69135.0,1127.5,13121,Fulton,"{""13121"": 100}",Fulton,13121,False,False,America/New_York,"(34.02745, -84.24643)",198.3498941562772,20177193.0,12_0_no,32.71849371842212,-87.30613541353725,200.0
30024,34.06341,-84.09116,Suwanee,GA,Georgia,True,,80598.0,747.0,13135,Gwinnett,"{""13135"": 65.29, ""13117"": 31.96, ""13121"": 2.75}",Gwinnett|Forsyth|Fulton,13135|13117|13121,False,False,America/New_York,"(34.06341, -84.09116)",207.4287953618626,20177193.0,12_0_no,32.71849371842212,-87.30613541353725,200.0
30028,34.28928,-84.17985,Cumming,GA,Georgia,True,,30609.0,236.5,13117,Forsyth,"{""13117"": 92.71, ""13057"": 7.29}",Forsyth|Cherokee,13117|13057,False,False,America/New_York,"(34.28928, -84.17985)",210.27032366849926,20177193.0,12_0_no,32.71849371842212,-87.30613541353725,200.0
30030,33.7721,-84.29135,Decatur,GA,Georgia,True,,31856.0,1826.1,13089,DeKalb,"{""13089"": 100}",DeKalb,13089,False,False,America/New_York,"(33.7721, -84.29135)",188.7968831361279,20177193.0,12_0_no,32.71849371842212,-87.30613541353725,200.0
30032,33.73987,-84.2641,Decatur,GA,Georgia,True,,47267.0,1337.1,13089,DeKalb,"{""13089"": 100}",DeKalb,13089,False,False,America/New_York,"(33.73987, -84.2641)",189.44000562327514,20177193.0,12_0_no,32.71849371842212,-87.30613541353725,200.0
30033,33.81342,-84.28355,Decatur,GA,Georgia,True,,32782.0,1433.0,13089,DeKalb,"{""13089"": 100}",DeKalb,13089,False,False,America/New_York,"(33.81342, -84.28355)",190.29110749348172,20177193.0,12_0_no,32.71849371842212,-87.30613541353725,200.0
30034,33.69198,-84.24835,Decatur,GA,Georgia,True,,45968.0,1057.0,13089,DeKalb,"{""13089"": 100}",DeKalb,13089,False,False,America/New_York,"(33.69198, -84.24835)",189.1284449396818,20177193.0,12_0_no,32.71849371842212,-87.30613541353725,200.0
30035,33.72563,-84.20541,Decatur,GA,Georgia,True,,23087.0,1045.5,13089,DeKalb,"{""13089"": 100}",DeKalb,13089,False,False,America/New_York,"(33.72563, -84.20541)",192.24699445942124,20177193.0,12_0_no,32.71849371842212,-87.30613541353725,200.0
30038,33.67078,-84.14209,Lithonia,GA,Georgia,True,,39543.0,530.1,13089,DeKalb,"{""13089"": 100}",DeKalb,13089,False,False,America/New_York,"(33.67078, -84.14209)",194.40168103403315,20177193.0,12_0_no,32.71849371842212,-87.30613541353725,200.0
30039,33.79871,-84.03414,Snellville,GA,Georgia,True,,46640.0,712.5,13135,Gwinnett,"{""13135"": 94.31, ""13089"": 5.69}",Gwinnett|DeKalb,13135|13089,False,False,America/New_York,"(33.79871, -84.03414)",203.23033550153056,20177193.0,12_0_no,32.71849371842212,-87.30613541353725,200.0
30040,34.21622,-84.17978,Cumming,GA,Georgia,True,,72858.0,487.8,13117,Forsyth,"{""13117"": 97.84, ""13057"": 2.16}",Forsyth|Cherokee,13117|13057,False,False,America/New_York,"(34.21622, -84.17978)",207.7802534504714,20177193.0,12_0_no,32.71849371842212,-87.30613541353725,200.0
30041,34.20166,-84.09371,Cumming,GA,Georgia,True,,71750.0,464.0,13117,Forsyth,"{""13117"": 100}",Forsyth,13117,False,False,America/New_York,"(34.20166, -84.09371)",211.6205047735749,20177193.0,12_0_no,32.71849371842212,-87.30613541353725,200.0
30043,34.00353,-84.00703,Lawrenceville,GA,Georgia,True,,88276.0,1030.5,13135,Gwinnett,"{""13135"": 100}",Gwinnett,13135,False,False,America/New_York,"(34.00353, -84.00703)",210.05599466923672,20177193.0,12_0_no,32.71849371842212,-87.30613541353725,200.0
30044,33.92207,-84.06924,Lawrenceville,GA,Georgia,True,,93987.0,1461.4,13135,Gwinnett,"{""13135"": 100}",Gwinnett,13135,False,False,America/New_York,"(33.92207, -84.06924)",204.53623506006534,20177193.0,12_0_no,32.71849371842212,-87.30613541353725,200.0
30045,33.93046,-83.93019,Lawrenceville,GA,Georgia,True,,46088.0,837.0,13135,Gwinnett,"{""13135"": 100}",Gwinnett,13135,False,False,America/New_York,"(33.93046, -83.93019)",212.11419709931678,20177193.0,12_0_no,32.71849371842212,-87.30613541353725,200.0
30046,33.9497,-83.99389,Lawrenceville,GA,Georgia,True,,37919.0,924.9,13135,Gwinnett,"{""13135"": 100}",Gwinnett,13135,False,False,America/New_York,"(33.9497, -83.99389)",209.2582652616127,20177193.0,12_0_no,32.71849371842212,-87.30613541353725,200.0
30047,33.87104,-84.11304,Lilburn,GA,Georgia,True,,68700.0,969.2,13135,Gwinnett,"{""13135"": 100}",Gwinnett,13135,False,False,America/New_York,"(33.87104, -84.11304)",200.85483987806248,20177193.0,12_0_no,32.71849371842212,-87.30613541353725,200.0
30052,33.81654,-83.89538,Loganville,GA,Georgia,True,,69518.0,301.9,13297,Walton,"{""13297"": 66.97, ""13135"": 27.12, ""13247"": 4.61, ""13217"": 1.3}",Walton|Gwinnett|Rockdale|Newton,13297|13135|13247|13217,False,False,America/New_York,"(33.81654, -83.89538)",211.12704699909582,20177193.0,12_0_no,32.71849371842212,-87.30613541353725,200.0
30054,33.67651,-83.87558,Oxford,GA,Georgia,True,,11867.0,111.9,13217,Newton,"{""13217"": 85.03, ""13297"": 14.97}",Newton|Walton,13217|13297,False,False,America/New_York,"(33.67651, -83.87558)",209.08312177961068,20177193.0,12_0_no,32.71849371842212,-87.30613541353725,200.0
30058,33.7377,-84.10779,Lithonia,GA,Georgia,True,,61247.0,774.5,13089,DeKalb,"{""13089"": 99.51, ""13247"": 0.49}",DeKalb|Rockdale,13089|13247,False,False,America/New_York,"(33.7377, -84.10779)",197.7999693604043,20177193.0,12_0_no,32.71849371842212,-87.30613541353725,200.0
30060,33.9209,-84.543,Marietta,GA,Georgia,True,,40055.0,997.5,13067,Cobb,"{""13067"": 100}",Cobb,13067,False,False,America/New_York,"(33.9209, -84.543)",179.85754660623658,20177193.0,12_0_no,32.71849371842212,-87.30613541353725,200.0
30062,33.99977,-84.46899,Marietta,GA,Georgia,True,,63906.0,953.6,13067,Cobb,"{""13067"": 100}",Cobb,13067,False,False,America/New_York,"(33.99977, -84.46899)",186.11993570781414,20177193.0,12_0_no,32.71849371842212,-87.30613541353725,200.0
30064,33.93809,-84.61691,Marietta,GA,Georgia,True,,49849.0,626.5,13067,Cobb,"{""13067"": 100}",Cobb,13067,False,False,America/New_York,"(33.93809, -84.61691)",176.63418004579978,20177193.0,12_0_no,32.71849371842212,-87.30613541353725,200.0
30066,34.034,-84.50798,Marietta,GA,Georgia,True,,57953.0,823.9,13067,Cobb,"{""13067"": 100}",Cobb,13067,False,False,America/New_York,"(34.034, -84.50798)",185.26462325400755,20177193.0,12_0_no,32.71849371842212,-87.30613541353725,200.0
30067,33.93286,-84.46187,Marietta,GA,Georgia,True,,46482.0,1248.9,13067,Cobb,"{""13067"": 100}",Cobb,13067,False,False,America/New_York,"(33.93286, -84.46187)",184.38853933176117,20177193.0,12_0_no,32.71849371842212,-87.30613541353725,200.0
30068,33.96887,-84.43273,Marietta,GA,Georgia,True,,32798.0,879.2,13067,Cobb,"{""13067"": 100}",Cobb,13067,False,False,America/New_York,"(33.96887, -84.43273)",186.99337363026396,20177193.0,12_0_no,32.71849371842212,-87.30613541353725,200.0
30070,33.5733,-83.89546,Porterdale,GA,Georgia,True,,444.0,6604.8,13217,Newton,"{""13217"": 100}",Newton,13217,False,False,America/New_York,"(33.5733, -83.89546)",205.9472509215982,20177193.0,12_0_no,32.71849371842212,-87.30613541353725,200.0
30071,33.93977,-84.20561,Norcross,GA,Georgia,True,,25865.0,825.5,13135,Gwinnett,"{""13135"": 100}",Gwinnett,13135,False,False,America/New_York,"(33.93977, -84.20561)",197.87180433796706,20177193.0,12_0_no,32.71849371842212,-87.30613541353725,200.0
30072,33.79115,-84.20598,Pine Lake,GA,Georgia,True,,806.0,2427.0,13089,DeKalb,"{""13089"": 100}",DeKalb,13089,False,False,America/New_York,"(33.79115, -84.20598)",193.83838462993387,20177193.0,12_0_no,32.71849371842212,-87.30613541353725,200.0
30075,34.05282,-84.38739,Roswell,GA,Georgia,True,,55945.0,726.5,13121,Fulton,"{""13121"": 84.27, ""13067"": 14.03, ""13057"": 1.7}",Fulton|Cobb|Cherokee,13121|13067|13057,False,False,America/New_York,"(34.05282, -84.38739)",191.96194951693866,20177193.0,12_0_no,32.71849371842212,-87.30613541353725,200.0
30076,34.02777,-84.31723,Roswell,GA,Georgia,True,,46739.0,1126.0,13121,Fulton,"{""13121"": 100}",Fulton,13121,False,False,America/New_York,"(34.02777, -84.31723)",194.7335376566597,20177193.0,12_0_no,32.71849371842212,-87.30613541353725,200.0
30078,33.86118,-84.01795,Snellville,GA,Georgia,True,,38472.0,858.3,13135,Gwinnett,"{""13135"": 100}",Gwinnett,13135,False,False,America/New_York,"(33.86118, -84.01795)",205.65465948254865,20177193.0,12_0_no,32.71849371842212,-87.30613541353725,200.0
30079,33.79173,-84.25839,Scottdale,GA,Georgia,True,,3846.0,1266.9,13089,DeKalb,"{""13089"": 100}",DeKalb,13089,False,False,America/New_York,"(33.79173, -84.25839)",191.0591976524414,20177193.0,12_0_no,32.71849371842212,-87.30613541353725,200.0
30080,33.87864,-84.5053,Smyrna,GA,Georgia,True,,58806.0,1800.2,13067,Cobb,"{""13067"": 100}",Cobb,13067,False,False,America/New_York,"(33.87864, -84.5053)",180.51043165017563,20177193.0,12_0_no,32.71849371842212,-87.30613541353725,200.0
30082,33.85517,-84.5373,Smyrna,GA,Georgia,True,,26442.0,970.6,13067,Cobb,"{""13067"": 100}",Cobb,13067,False,False,America/New_York,"(33.85517, -84.5373)",178.1554044792426,20177193.0,12_0_no,32.71849371842212,-87.30613541353725,200.0
30083,33.79641,-84.19231,Stone Mountain,GA,Georgia,True,,59798.0,1293.0,13089,DeKalb,"{""13089"": 100}",DeKalb,13089,False,False,America/New_York,"(33.79641, -84.19231)",194.70200180509593,20177193.0,12_0_no,32.71849371842212,-87.30613541353725,200.0
30084,33.85457,-84.21657,Tucker,GA,Georgia,True,,37354.0,969.2,13089,DeKalb,"{""13089"": 82.47, ""13135"": 17.53}",DeKalb|Gwinnett,13089|13135,False,False,America/New_York,"(33.85457, -84.21657)",194.9355208952355,20177193.0,12_0_no,32.71849371842212,-87.30613541353725,200.0
30087,33.81087,-84.13135,Stone Mountain,GA,Georgia,True,,38304.0,653.7,13089,DeKalb,"{""13089"": 68.67, ""13135"": 31.33}",DeKalb|Gwinnett,13089|13135,False,False,America/New_York,"(33.81087, -84.13135)",198.3241709222507,20177193.0,12_0_no,32.71849371842212,-87.30613541353725,200.0
30088,33.75959,-84.17918,Stone Mountain,GA,Georgia,True,,30760.0,1514.5,13089,DeKalb,"{""13089"": 100}",DeKalb,13089,False,False,America/New_York,"(33.75959, -84.17918)",194.48336725497518,20177193.0,12_0_no,32.71849371842212,-87.30613541353725,200.0
30092,33.97145,-84.23537,Peachtree Corners,GA,Georgia,True,,37025.0,1279.0,13135,Gwinnett,"{""13135"": 98.52, ""13121"": 1.48}",Gwinnett|Fulton,13135|13121,False,False,America/New_York,"(33.97145, -84.23537)",197.2408202034164,20177193.0,12_0_no,32.71849371842212,-87.30613541353725,200.0
30093,33.90879,-84.17839,Norcross,GA,Georgia,True,,53896.0,1733.7,13135,Gwinnett,"{""13135"": 100}",Gwinnett,13135,False,False,America/New_York,"(33.90879, -84.17839)",198.42680260397597,20177193.0,12_0_no,32.71849371842212,-87.30613541353725,200.0
30094,33.61243,-84.0555,Conyers,GA,Georgia,True,,32359.0,318.0,13247,Rockdale,"{""13247"": 99.38, ""13089"": 0.62}",Rockdale|DeKalb,13247|13089,False,False,America/New_York,"(33.61243, -84.0555)",197.88366913582806,20177193.0,12_0_no,32.71849371842212,-87.30613541353725,200.0
30096,33.97691,-84.14791,Duluth,GA,Georgia,True,,68570.0,1163.9,13135,Gwinnett,"{""13135"": 100}",Gwinnett,13135,False,False,America/New_York,"(33.97691, -84.14791)",201.9450527943855,20177193.0,12_0_no,32.71849371842212,-87.30613541353725,200.0
30097,34.0271,-84.14702,Duluth,GA,Georgia,True,,45894.0,753.3,13121,Fulton,"{""13121"": 49.66, ""13135"": 43.03, ""13117"": 7.31}",Fulton|Gwinnett|Forsyth,13121|13135|13117,False,False,America/New_York,"(34.0271, -84.14702)",203.46049090548988,20177193.0,12_0_no,32.71849371842212,-87.30613541353725,200.0
30101,34.04355,-84.71244,Acworth,GA,Georgia,True,,58844.0,554.7,13067,Cobb,"{""13067"": 68.59, ""13223"": 25.3, ""13015"": 5.54, ""13057"": 0.57}",Cobb|Paulding|Bartow|Cherokee,13067|13223|13015|13057,False,False,America/New_York,"(34.04355, -84.71244)",175.41838022158709,20177193.0,12_0_no,32.71849371842212,-87.30613541353725,200.0
30102,34.10857,-84.64622,Acworth,GA,Georgia,True,,42232.0,518.8,13057,Cherokee,"{""13057"": 46.5, ""13015"": 43.42, ""13067"": 10.08}",Cherokee|Bartow|Cobb,13057|13015|13067,False,False,America/New_York,"(34.10857, -84.64622)",180.9815565005448,20177193.0,12_0_no,32.71849371842212,-87.30613541353725,200.0
30103,34.36457,-84.92014,Adairsville,GA,Georgia,True,,15246.0,56.7,13015,Bartow,"{""13015"": 68.57, ""13129"": 24.03, ""13115"": 7.4}",Bartow|Gordon|Floyd,13015|13129|13115,False,False,America/New_York,"(34.36457, -84.92014)",178.35821118166143,20177193.0,12_0_no,32.71849371842212,-87.30613541353725,200.0
30104,34.0879,-85.06982,Aragon,GA,Georgia,True,,5552.0,63.1,13233,Polk,"{""13233"": 56.83, ""13115"": 30.95, ""13015"": 12.22}",Polk|Floyd|Bartow,13233|13115|13015,False,False,America/New_York,"(34.0879, -85.06982)",159.96471938268022,20177193.0,12_0_no,32.71849371842212,-87.30613541353725,200.0
30105,34.47012,-85.15532,Armuchee,GA,Georgia,True,,1947.0,13.8,13115,Floyd,"{""13115"": 80.77, ""13055"": 19.23}",Floyd|Chattooga,13115|13055,False,False,America/New_York,"(34.47012, -85.15532)",173.10970212994357,20177193.0,12_0_no,32.71849371842212,-87.30613541353725,200.0
30106,33.83476,-84.62947,Austell,GA,Georgia,True,,22433.0,687.5,13067,Cobb,"{""13067"": 97.66, ""13097"": 2.34}",Cobb|Douglas,13067|13097,False,False,America/New_York,"(33.83476, -84.62947)",172.77574926913854,20177193.0,12_0_no,32.71849371842212,-87.30613541353725,200.0
30107,34.3352,-84.34744,Ball Ground,GA,Georgia,True,,14083.0,50.3,13057,Cherokee,"{""13057"": 80.47, ""13227"": 14.97, ""13117"": 4.56}",Cherokee|Pickens|Forsyth,13057|13227|13117,False,False,America/New_York,"(34.3352, -84.34744)",203.7466488496805,20177193.0,12_0_no,32.71849371842212,-87.30613541353725,200.0
30108,33.53172,-85.26242,Bowdon,GA,Georgia,True,,8494.0,36.7,13045,Carroll,"{""13045"": 96.4, ""13149"": 3.6}",Carroll|Heard,13045|13149,False,False,America/New_York,"(33.53172, -85.26242)",130.92431955820493,20177193.0,12_0_no,32.71849371842212,-87.30613541353725,200.0
30110,33.74071,-85.137,Bremen,GA,Georgia,True,,14232.0,76.3,13143,Haralson,"{""13143"": 89.42, ""13045"": 10.58}",Haralson|Carroll,13143|13045,False,False,America/New_York,"(33.74071, -85.137)",143.88702755476666,20177193.0,12_0_no,32.71849371842212,-87.30613541353725,200.0
30113,33.8531,-85.20967,Buchanan,GA,Georgia,True,,6152.0,23.3,13143,Haralson,"{""13143"": 92.37, ""13233"": 7.63}",Haralson|Polk,13143|13233,False,False,America/New_York,"(33.8531, -85.20967)",144.24394572538444,20177193.0,12_0_no,32.71849371842212,-87.30613541353725,200.0
30114,34.24433,-84.5393,Canton,GA,Georgia,True,,57013.0,231.3,13057,Cherokee,"{""13057"": 100}",Cherokee,13057,False,False,America/New_York,"(34.24433, -84.5393)",191.13674680254482,20177193.0,12_0_no,32.71849371842212,-87.30613541353725,200.0
30115,34.21296,-84.40138,Canton,GA,Georgia,True,,44811.0,236.4,13057,Cherokee,"{""13057"": 100}",Cherokee,13057,False,False,America/New_York,"(34.21296, -84.40138)",196.6935850541106,20177193.0,12_0_no,32.71849371842212,-87.30613541353725,200.0
30116,33.55224,-85.01298,Carrollton,GA,Georgia,True,,23886.0,87.9,13045,Carroll,"{""13045"": 100}",Carroll,13045,False,False,America/New_York,"(33.55224, -85.01298)",144.63782092700728,20177193.0,12_0_no,32.71849371842212,-87.30613541353725,200.0
30117,33.58113,-85.13197,Carrollton,GA,Georgia,True,,35097.0,125.4,13045,Carroll,"{""13045"": 100}",Carroll,13045,False,False,America/New_York,"(33.58113, -85.13197)",139.17469745938797,20177193.0,12_0_no,32.71849371842212,-87.30613541353725,200.0
30118,33.57288,-85.09938,Carrollton,GA,Georgia,True,,2118.0,4080.1,13045,Carroll,"{""13045"": 100}",Carroll,13045,False,False,America/New_York,"(33.57288, -85.09938)",140.64580123382876,20177193.0,12_0_no,32.71849371842212,-87.30613541353725,200.0
30120,34.16639,-84.85597,Cartersville,GA,Georgia,True,,40008.0,166.1,13015,Bartow,"{""13015"": 99.62, ""13223"": 0.38}",Bartow|Paulding,13015|13223,False,False,America/New_York,"(34.16639, -84.85597)",173.08888915491303,20177193.0,12_0_no,32.71849371842212,-87.30613541353725,200.0
30121,34.21073,-84.77802,Cartersville,GA,Georgia,True,,25309.0,169.4,13015,Bartow,"{""13015"": 100}",Bartow,13015,False,False,America/New_York,"(34.21073, -84.77802)",178.49570831806125,20177193.0,12_0_no,32.71849371842212,-87.30613541353725,200.0
30122,33.76329,-84.6386,Lithia Springs,GA,Georgia,True,,27580.0,430.4,13097,Douglas,"{""13097"": 99.38, ""13067"": 0.62}",Douglas|Cobb,13097|13067,False,False,America/New_York,"(33.76329, -84.6386)",170.20868409518351,20177193.0,12_0_no,32.71849371842212,-87.30613541353725,200.0
30124,34.12872,-85.35589,Cave Spring,GA,Georgia,True,,3048.0,19.6,13115,Floyd,"{""13115"": 98.94, ""13233"": 1.06}",Floyd|Polk,13115|13233,False,False,America/New_York,"(34.12872, -85.35589)",148.79666111974763,20177193.0,12_0_no,32.71849371842212,-87.30613541353725,200.0
30125,34.00067,-85.27331,Cedartown,GA,Georgia,True,,23793.0,50.4,13233,Polk,"{""13233"": 97.27, ""13115"": 2.22, ""13143"": 0.51}",Polk|Floyd|Haralson,13233|13115|13143,False,False,America/New_York,"(34.00067, -85.27331)",146.99914533248833,20177193.0,12_0_no,32.71849371842212,-87.30613541353725,200.0
30126,33.81588,-84.55171,Mableton,GA,Georgia,True,,42794.0,805.3,13067,Cobb,"{""13067"": 100}",Cobb,13067,False,False,America/New_York,"(33.81588, -84.55171)",176.25657544188104,20177193.0,12_0_no,32.71849371842212,-87.30613541353725,200.0
30127,33.87647,-84.69648,Powder Springs,GA,Georgia,True,,71709.0,539.4,13067,Cobb,"{""13067"": 84.59, ""13223"": 15.41}",Cobb|Paulding,13067|13223,False,False,America/New_York,"(33.87647, -84.69648)",170.62106573193418,20177193.0,12_0_no,32.71849371842212,-87.30613541353725,200.0
30132,33.99042,-84.85279,Dallas,GA,Georgia,True,,47378.0,178.6,13223,Paulding,"{""13223"": 100}",Paulding,13223,False,False,America/New_York,"(33.99042, -84.85279)",166.63698087041072,20177193.0,12_0_no,32.71849371842212,-87.30613541353725,200.0
30134,33.77436,-84.78241,Douglasville,GA,Georgia,True,,43504.0,322.6,13097,Douglas,"{""13097"": 67.5, ""13223"": 32.5}",Douglas|Paulding,13097|13223,False,False,America/New_York,"(33.77436, -84.78241)",163.05405688738307,20177193.0,12_0_no,32.71849371842212,-87.30613541353725,200.0
30135,33.67285,-84.74523,Douglasville,GA,Georgia,True,,67853.0,313.4,13097,Douglas,"{""13097"": 100}",Douglas,13097,False,False,America/New_York,"(33.67285, -84.74523)",162.07802543390122,20177193.0,12_0_no,32.71849371842212,-87.30613541353725,200.0
30137,34.11657,-84.7657,Emerson,GA,Georgia,True,,2060.0,249.2,13015,Bartow,"{""13015"": 100}",Bartow,13015,False,False,America/New_York,"(34.11657, -84.7657)",175.4780181616579,20177193.0,12_0_no,32.71849371842212,-87.30613541353725,200.0
30139,34.43346,-84.70575,Fairmount,GA,Georgia,True,,4147.0,22.1,13129,Gordon,"{""13129"": 60.24, ""13227"": 21.71, ""13015"": 18.05}",Gordon|Pickens|Bartow,13129|13227|13015,False,False,America/New_York,"(34.43346, -84.70575)",190.90119730373078,20177193.0,12_0_no,32.71849371842212,-87.30613541353725,200.0
30141,33.86244,-84.77521,Hiram,GA,Georgia,True,,26494.0,370.3,13223,Paulding,"{""13223"": 99.76, ""13067"": 0.24}",Paulding|Cobb,13223|13067,False,False,America/New_York,"(33.86244, -84.77521)",166.16650611511957,20177193.0,12_0_no,32.71849371842212,-87.30613541353725,200.0
30143,34.46198,-84.42385,Jasper,GA,Georgia,True,,22726.0,60.4,13227,Pickens,"{""13227"": 88.1, ""13085"": 9.89, ""13057"": 2.01}",Pickens|Dawson|Cherokee,13227|13085|13057,False,False,America/New_York,"(34.46198, -84.42385)",205.0001214593429,20177193.0,12_0_no,32.71849371842212,-87.30613541353725,200.0
30144,34.03672,-84.59174,Kennesaw,GA,Georgia,True,,59085.0,1030.9,13067,Cobb,"{""13067"": 100}",Cobb,13067,False,False,America/New_York,"(34.03672, -84.59174)",181.16178619830384,20177193.0,12_0_no,32.71849371842212,-87.30613541353725,200.0
30145,34.24177,-84.98076,Kingston,GA,Georgia,True,,8807.0,45.7,13015,Bartow,"{""13015"": 82.0, ""13115"": 18.0}",Bartow|Floyd,13015|13115,False,False,America/New_York,"(34.24177, -84.98076)",170.3895589615241,20177193.0,12_0_no,32.71849371842212,-87.30613541353725,200.0
30147,34.13751,-85.21877,Lindale,GA,Georgia,True,,5901.0,120.8,13115,Floyd,"{""13115"": 92.54, ""13233"": 7.46}",Floyd|Polk,13115|13233,False,False,America/New_York,"(34.13751, -85.21877)",155.23675313935314,20177193.0,12_0_no,32.71849371842212,-87.30613541353725,200.0
30148,34.46009,-84.2648,Marble Hill,GA,Georgia,True,,637.0,24.9,13085,Dawson,"{""13085"": 54.36, ""13227"": 45.64}",Dawson|Pickens,13085|13227,False,False,America/New_York,"(34.46009, -84.2648)",212.40139172867396,20177193.0,12_0_no,32.71849371842212,-87.30613541353725,200.0
30149,34.31107,-85.21691,Mount Berry,GA,Georgia,True,,1966.0,113.1,13115,Floyd,"{""13115"": 100}",Floyd,13115,False,False,America/New_York,"(34.31107, -85.21691)",163.06461019991912,20177193.0,12_0_no,32.71849371842212,-87.30613541353725,200.0
30152,33.99435,-84.6474,Kennesaw,GA,Georgia,True,,44115.0,762.9,13067,Cobb,"{""13067"": 100}",Cobb,13067,False,False,America/New_York,"(33.99435, -84.6474)",176.94948523773851,20177193.0,12_0_no,32.71849371842212,-87.30613541353725,200.0
30153,33.96678,-85.05425,Rockmart,GA,Georgia,True,,17906.0,56.1,13233,Polk,"{""13233"": 70.92, ""13223"": 19.95, ""13143"": 9.13}",Polk|Paulding|Haralson,13233|13223|13143,False,False,America/New_York,"(33.96678, -85.05425)",155.9852588299425,20177193.0,12_0_no,32.71849371842212,-87.30613541353725,200.0
30157,33.88641,-84.8731,Dallas,GA,Georgia,True,,48446.0,219.8,13223,Paulding,"{""13223"": 99.0, ""13067"": 1.0}",Paulding|Cobb,13223|13067,False,False,America/New_York,"(33.88641, -84.8731)",162.01782398239237,20177193.0,12_0_no,32.71849371842212,-87.30613541353725,200.0
30161,34.23758,-85.17319,Rome,GA,Georgia,True,,35344.0,95.3,13115,Floyd,"{""13115"": 98.51, ""13015"": 1.49}",Floyd|Bartow,13115|13015,False,False,America/New_York,"(34.23758, -85.17319)",161.62874164542916,20177193.0,12_0_no,32.71849371842212,-87.30613541353725,200.0
30165,34.30279,-85.27233,Rome,GA,Georgia,True,,40349.0,93.3,13115,Floyd,"{""13115"": 98.16, ""01019"": 0.93, ""13055"": 0.91}",Floyd|Cherokee|Chattooga,13115|01019|13055,False,False,America/New_York,"(34.30279, -85.27233)",160.3362858944954,20177193.0,12_0_no,32.71849371842212,-87.30613541353725,200.0
30168,33.78354,-84.58765,Austell,GA,Georgia,True,,24936.0,778.5,13067,Cobb,"{""13067"": 90.45, ""13097"": 9.55}",Cobb|Douglas,13067|13097,False,False,America/New_York,"(33.78354, -84.58765)",173.45149442361904,20177193.0,12_0_no,32.71849371842212,-87.30613541353725,200.0
30170,33.43065,-85.16821,Roopville,GA,Georgia,True,,2986.0,25.4,13045,Carroll,"{""13045"": 52.09, ""13149"": 47.91}",Carroll|Heard,13045|13149,False,False,America/New_York,"(33.43065, -85.16821)",133.19855113980725,20177193.0,12_0_no,32.71849371842212,-87.30613541353725,200.0
30171,34.36122,-84.73584,Rydal,GA,Georgia,True,,2893.0,27.1,13015,Bartow,"{""13015"": 85.86, ""13129"": 14.14}",Bartow|Gordon,13015|13129,False,False,America/New_York,"(34.36122, -84.73584)",186.5167868536486,20177193.0,12_0_no,32.71849371842212,-87.30613541353725,200.0
30173,34.13541,-85.14217,Silver Creek,GA,Georgia,True,,5679.0,62.8,13115,Floyd,"{""13115"": 90.38, ""13233"": 9.62}",Floyd|Polk,13115|13233,False,False,America/New_York,"(34.13541, -85.14217)",158.59707208881855,20177193.0,12_0_no,32.71849371842212,-87.30613541353725,200.0
30175,34.54239,-84.52793,Talking Rock,GA,Georgia,True,,5526.0,24.5,13227,Pickens,"{""13227"": 57.19, ""13123"": 42.81}",Pickens|Gilmer,13227|13123,False,False,America/New_York,"(34.54239, -84.52793)",203.51689962546078,20177193.0,12_0_no,32.71849371842212,-87.30613541353725,200.0
30176,33.76972,-85.30398,Tallapoosa,GA,Georgia,True,,7221.0,33.5,13143,Haralson,"{""13143"": 100}",Haralson,13143,False,False,America/New_York,"(33.76972, -85.30398)",136.60102932615933,20177193.0,12_0_no,32.71849371842212,-87.30613541353725,200.0
30177,34.40705,-84.37401,Tate,GA,Georgia,True,,1759.0,187.2,13227,Pickens,"{""13227"": 100}",Pickens,13227,False,False,America/New_York,"(34.40705, -84.37401)",205.19064242296636,20177193.0,12_0_no,32.71849371842212,-87.30613541353725,200.0
30178,34.09709,-84.97051,Taylorsville,GA,Georgia,True,,3024.0,19.8,13015,Bartow,"{""13015"": 60.87, ""13233"": 22.37, ""13223"": 16.76}",Bartow|Polk|Paulding,13015|13233|13223,False,False,America/New_York,"(34.09709, -84.97051)",164.97769149217726,20177193.0,12_0_no,32.71849371842212,-87.30613541353725,200.0
30179,33.78088,-85.01961,Temple,GA,Georgia,True,,16763.0,88.2,13045,Carroll,"{""13045"": 52.01, ""13223"": 27.19, ""13143"": 20.8}",Carroll|Paulding|Haralson,13045|13223|13143,False,False,America/New_York,"(33.78088, -85.01961)",151.1358158887113,20177193.0,12_0_no,32.71849371842212,-87.30613541353725,200.0
30180,33.72018,-84.91956,Villa Rica,GA,Georgia,True,,38203.0,190.5,13045,Carroll,"{""13045"": 62.78, ""13097"": 27.52, ""13223"": 9.7}",Carroll|Douglas|Paulding,13045|13097|13223,False,False,America/New_York,"(33.72018, -84.91956)",154.3309747806435,20177193.0,12_0_no,32.71849371842212,-87.30613541353725,200.0
30182,33.65603,-85.24628,Waco,GA,Georgia,True,,3178.0,34.9,13045,Carroll,"{""13045"": 63.54, ""13143"": 36.46}",Carroll|Haralson,13045|13143,False,False,America/New_York,"(33.65603, -85.24628)",135.57873278383698,20177193.0,12_0_no,32.71849371842212,-87.30613541353725,200.0
30183,34.33854,-84.59762,Waleska,GA,Georgia,True,,6772.0,41.6,13057,Cherokee,"{""13057"": 95.98, ""13227"": 3.61, ""13015"": 0.41}",Cherokee|Pickens|Bartow,13057|13227|13015,False,False,America/New_York,"(34.33854, -84.59762)",191.99210111268724,20177193.0,12_0_no,32.71849371842212,-87.30613541353725,200.0
30184,34.26042,-84.71603,White,GA,Georgia,True,,6535.0,33.1,13015,Bartow,"{""13015"": 89.51, ""13057"": 10.49}",Bartow|Cherokee,13015|13057,False,False,America/New_York,"(34.26042, -84.71603)",183.36124098331933,20177193.0,12_0_no,32.71849371842212,-87.30613541353725,200.0
30185,33.51975,-84.90879,Whitesburg,GA,Georgia,True,,4578.0,28.4,13045,Carroll,"{""13045"": 95.5, ""13097"": 4.5}",Carroll|Douglas,13045|13097,False,False,America/New_York,"(33.51975, -84.90879)",149.36336224743866,20177193.0,12_0_no,32.71849371842212,-87.30613541353725,200.0
30187,33.65736,-84.85454,Winston,GA,Georgia,True,,7123.0,87.4,13097,Douglas,"{""13097"": 98.51, ""13045"": 1.49}",Douglas|Carroll,13097|13045,False,False,America/New_York,"(33.65736, -84.85454)",155.88944928218427,20177193.0,12_0_no,32.71849371842212,-87.30613541353725,200.0
30188,34.11873,-84.45526,Woodstock,GA,Georgia,True,,63869.0,564.6,13057,Cherokee,"{""13057"": 99.08, ""13067"": 0.92}",Cherokee|Cobb,13057|13067,False,False,America/New_York,"(34.11873, -84.45526)",190.75109131372898,20177193.0,12_0_no,32.71849371842212,-87.30613541353725,200.0
30189,34.12835,-84.57148,Woodstock,GA,Georgia,True,,39522.0,793.7,13057,Cherokee,"{""13057"": 100}",Cherokee,13057,False,False,America/New_York,"(34.12835, -84.57148)",185.34770226886224,20177193.0,12_0_no,32.71849371842212,-87.30613541353725,200.0
30204,33.05844,-84.12343,Barnesville,GA,Georgia,True,,13735.0,42.3,13171,Lamar,"{""13171"": 92.0, ""13293"": 4.15, ""13207"": 3.85}",Lamar|Upson|Monroe,13171|13293|13207,False,False,America/New_York,"(33.05844, -84.12343)",186.14005712069857,20177193.0,12_0_no,32.71849371842212,-87.30613541353725,200.0
30205,33.26911,-84.46634,Brooks,GA,Georgia,True,,3147.0,33.1,13113,Fayette,"{""13113"": 60.78, ""13255"": 39.22}",Fayette|Spalding,13113|13255,False,False,America/New_York,"(33.26911, -84.46634)",168.9019983590686,20177193.0,12_0_no,32.71849371842212,-87.30613541353725,200.0
30206,33.09671,-84.46303,Concord,GA,Georgia,True,,3763.0,29.4,13231,Pike,"{""13231"": 100}",Pike,13231,False,False,America/New_York,"(33.09671, -84.46303)",166.9725998500891,20177193.0,12_0_no,32.71849371842212,-87.30613541353725,200.0
30213,33.59113,-84.6333,Fairburn,GA,Georgia,True,,37948.0,235.8,13121,Fulton,"{""13121"": 99.78, ""13113"": 0.22}",Fulton|Fayette,13121|13113,False,False,America/New_York,"(33.59113, -84.6333)",165.94283447326868,20177193.0,12_0_no,32.71849371842212,-87.30613541353725,200.0
30214,33.49222,-84.48697,Fayetteville,GA,Georgia,True,,30232.0,221.6,13113,Fayette,"{""13113"": 99.62, ""13121"": 0.38}",Fayette|Fulton,13113|13121,False,False,America/New_York,"(33.49222, -84.48697)",171.69287714183804,20177193.0,12_0_no,32.71849371842212,-87.30613541353725,200.0
30215,33.3888,-84.45709,Fayetteville,GA,Georgia,True,,36953.0,201.3,13113,Fayette,"{""13113"": 97.69, ""13063"": 2.31}",Fayette|Clayton,13113|13063,False,False,America/New_York,"(33.3888, -84.45709)",171.36212653531254,20177193.0,12_0_no,32.71849371842212,-87.30613541353725,200.0
30216,33.23951,-83.88162,Flovilla,GA,Georgia,True,,2112.0,20.6,13035,Butts,"{""13035"": 100}",Butts,13035,False,False,America/New_York,"(33.23951, -83.88162)",201.71423737581344,20177193.0,12_0_no,32.71849371842212,-87.30613541353725,200.0
30217,33.28671,-85.13309,Franklin,GA,Georgia,True,,9595.0,14.6,13149,Heard,"{""13149"": 96.73, ""13285"": 3.27}",Heard|Troup,13149|13285,False,False,America/New_York,"(33.28671, -85.13309)",131.8922273796065,20177193.0,12_0_no,32.71849371842212,-87.30613541353725,200.0
30218,33.12706,-84.58093,Gay,GA,Georgia,True,,2134.0,12.5,13199,Meriwether,"{""13199"": 100}",Meriwether,13199,False,False,America/New_York,"(33.12706, -84.58093)",160.5505772725794,20177193.0,12_0_no,32.71849371842212,-87.30613541353725,200.0
30220,33.22849,-84.82463,Grantville,GA,Georgia,True,,6216.0,47.1,13077,Coweta,"{""13077"": 56.63, ""13199"": 43.37}",Coweta|Meriwether,13077|13199,False,False,America/New_York,"(33.22849, -84.82463)",148.08708787363767,20177193.0,12_0_no,32.71849371842212,-87.30613541353725,200.0
30222,33.04113,-84.74294,Greenville,GA,Georgia,True,,4101.0,10.5,13199,Meriwether,"{""13199"": 100}",Meriwether,13199,False,False,America/New_York,"(33.04113, -84.74294)",150.38776629600014,20177193.0,12_0_no,32.71849371842212,-87.30613541353725,200.0
30223,33.28635,-84.28012,Griffin,GA,Georgia,True,,36797.0,131.6,13255,Spalding,"{""13255"": 100}",Spalding,13255,False,False,America/New_York,"(33.28635, -84.28012)",179.67112223737718,20177193.0,12_0_no,32.71849371842212,-87.30613541353725,200.0
30224,33.20411,-84.23587,Griffin,GA,Georgia,True,,27139.0,154.9,13255,Spalding,"{""13255"": 74.69, ""13231"": 15.19, ""13171"": 10.12}",Spalding|Pike|Lamar,13255|13231|13171,False,False,America/New_York,"(33.20411, -84.23587)",181.11703660362613,20177193.0,12_0_no,32.71849371842212,-87.30613541353725,200.0
30228,33.40374,-84.30575,Hampton,GA,Georgia,True,,43753.0,231.0,13151,Henry,"{""13151"": 66.13, ""13063"": 28.22, ""13255"": 5.65}",Henry|Clayton|Spalding,13151|13063|13255,False,False,America/New_York,"(33.40374, -84.30575)",180.06924861854762,20177193.0,12_0_no,32.71849371842212,-87.30613541353725,200.0
30230,33.16699,-84.92071,Hogansville,GA,Georgia,True,,9727.0,26.9,13285,Troup,"{""13285"": 56.3, ""13199"": 22.01, ""13149"": 16.59, ""13077"": 5.1}",Troup|Meriwether|Heard|Coweta,13285|13199|13149|13077,False,False,America/New_York,"(33.16699, -84.92071)",141.74205871604468,20177193.0,12_0_no,32.71849371842212,-87.30613541353725,200.0
30233,33.29492,-83.97501,Jackson,GA,Georgia,True,,24398.0,63.7,13035,Butts,"{""13035"": 86.71, ""13207"": 5.76, ""13151"": 4.36, ""13171"": 2.99, ""13217"": 0.18}",Butts|Monroe|Henry|Lamar|Newton,13035|13207|13151|13171|13217,False,False,America/New_York,"(33.29492, -83.97501)",197.0693153901025,20177193.0,12_0_no,32.71849371842212,-87.30613541353725,200.0
30234,33.33001,-84.02617,Jenkinsburg,GA,Georgia,True,,1480.0,56.0,13035,Butts,"{""13035"": 93.5, ""13151"": 6.5}",Butts|Henry,13035|13151,False,False,America/New_York,"(33.33001, -84.02617)",194.6420992450965,20177193.0,12_0_no,32.71849371842212,-87.30613541353725,200.0
30236,33.52157,-84.32405,Jonesboro,GA,Georgia,True,,53224.0,634.4,13063,Clayton,"{""13063"": 89.89, ""13151"": 10.11}",Clayton|Henry,13063|13151,False,False,America/New_York,"(33.52157, -84.32405)",181.25905698667646,20177193.0,12_0_no,32.71849371842212,-87.30613541353725,200.0
30238,33.4949,-84.38181,Jonesboro,GA,Georgia,True,,39310.0,877.2,13063,Clayton,"{""13063"": 86.07, ""13113"": 13.93}",Clayton|Fayette,13063|13113,False,False,America/New_York,"(33.4949, -84.38181)",177.53955696922608,20177193.0,12_0_no,32.71849371842212,-87.30613541353725,200.0
30240,33.03757,-85.12222,Lagrange,GA,Georgia,True,,31223.0,86.4,13285,Troup,"{""13285"": 99.82, ""13149"": 0.18}",Troup|Heard,13285|13149,False,False,America/New_York,"(33.03757, -85.12222)",128.62593546335663,20177193.0,12_0_no,32.71849371842212,-87.30613541353725,200.0
30241,33.02115,-84.95285,Lagrange,GA,Georgia,True,,23449.0,80.5,13285,Troup,"{""13285"": 100}",Troup,13285,False,False,America/New_York,"(33.02115, -84.95285)",138.15438961382796,20177193.0,12_0_no,32.71849371842212,-87.30613541353725,200.0
30248,33.34975,-84.10838,Locust Grove,GA,Georgia,True,,27747.0,151.6,13151,Henry,"{""13151"": 83.89, ""13035"": 8.08, ""13255"": 8.03}",Henry|Butts|Spalding,13151|13035|13255,False,False,America/New_York,"(33.34975, -84.10838)",190.28422106119513,20177193.0,12_0_no,32.71849371842212,-87.30613541353725,200.0
30250,33.43473,-84.30603,Lovejoy,GA,Georgia,True,,667.0,8908.9,13063,Clayton,"{""13063"": 100}",Clayton,13063,False,False,America/New_York,"(33.43473, -84.30603)",180.59883014939695,20177193.0,12_0_no,32.71849371842212,-87.30613541353725,200.0
30251,33.18871,-84.69983,Luthersville,GA,Georgia,True,,1882.0,20.0,13199,Meriwether,"{""13199"": 97.18, ""13077"": 2.82}",Meriwether|Coweta,13199|13077,False,False,America/New_York,"(33.18871, -84.69983)",154.5544573639991,20177193.0,12_0_no,32.71849371842212,-87.30613541353725,200.0
30252,33.47206,-84.06416,Mcdonough,GA,Georgia,True,,47005.0,192.9,13151,Henry,"{""13151"": 94.99, ""13247"": 5.01}",Henry|Rockdale,13151|13247,False,False,America/New_York,"(33.47206, -84.06416)",194.73732881610286,20177193.0,12_0_no,32.71849371842212,-87.30613541353725,200.0
30253,33.45028,-84.18579,Mcdonough,GA,Georgia,True,,57889.0,476.9,13151,Henry,"{""13151"": 100}",Henry,13151,False,False,America/New_York,"(33.45028, -84.18579)",187.57396141416075,20177193.0,12_0_no,32.71849371842212,-87.30613541353725,200.0
30256,33.01654,-84.31515,Meansville,GA,Georgia,True,,2819.0,30.5,13231,Pike,"{""13231"": 70.97, ""13293"": 20.51, ""13171"": 8.52}",Pike|Upson|Lamar,13231|13293|13171,False,False,America/New_York,"(33.01654, -84.31515)",174.7883738214955,20177193.0,12_0_no,32.71849371842212,-87.30613541353725,200.0
30257,33.14218,-84.18606,Milner,GA,Georgia,True,,4024.0,36.9,13171,Lamar,"{""13171"": 90.93, ""13231"": 9.07}",Lamar|Pike,13171|13231,False,False,America/New_York,"(33.14218, -84.18606)",183.28577765989198,20177193.0,12_0_no,32.71849371842212,-87.30613541353725,200.0
30258,32.99278,-84.47024,Molena,GA,Georgia,True,,3165.0,22.6,13231,Pike,"{""13231"": 61.8, ""13293"": 38.2}",Pike|Upson,13231|13293,False,False,America/New_York,"(32.99278, -84.47024)",165.68105254305345,20177193.0,12_0_no,32.71849371842212,-87.30613541353725,200.0
30259,33.26522,-84.74073,Moreland,GA,Georgia,True,,3674.0,41.4,13077,Coweta,"{""13077"": 100}",Coweta,13077,False,False,America/New_York,"(33.26522, -84.74073)",153.38951511433808,20177193.0,12_0_no,32.71849371842212,-87.30613541353725,200.0
30260,33.5862,-84.33046,Morrow,GA,Georgia,True,,27183.0,962.8,13063,Clayton,"{""13063"": 100}",Clayton,13063,False,False,America/New_York,"(33.5862, -84.33046)",182.26483374307153,20177193.0,12_0_no,32.71849371842212,-87.30613541353725,200.0
30263,33.38852,-84.85911,Newnan,GA,Georgia,True,,60769.0,118.4,13077,Coweta,"{""13077"": 99.49, ""13149"": 0.51}",Coweta|Heard,13077|13149,False,False,America/New_York,"(33.38852, -84.85911)",149.0761272783314,20177193.0,12_0_no,32.71849371842212,-87.30613541353725,200.0
30265,33.41649,-84.70749,Newnan,GA,Georgia,True,,34596.0,303.5,13077,Coweta,"{""13077"": 100}",Coweta,13077,False,False,America/New_York,"(33.41649, -84.70749)",158.00154969091597,20177193.0,12_0_no,32.71849371842212,-87.30613541353725,200.0
30268,33.54357,-84.72262,Palmetto,GA,Georgia,True,,10099.0,56.3,13121,Fulton,"{""13121"": 87.27, ""13077"": 12.73}",Fulton|Coweta,13121|13077,False,False,America/New_York,"(33.54357, -84.72262)",159.9783370321728,20177193.0,12_0_no,32.71849371842212,-87.30613541353725,200.0
30269,33.39375,-84.56974,Peachtree City,GA,Georgia,True,,36578.0,539.5,13113,Fayette,"{""13113"": 100}",Fayette,13113,False,False,America/New_York,"(33.39375, -84.56974)",165.18321116428518,20177193.0,12_0_no,32.71849371842212,-87.30613541353725,200.0
30273,33.58365,-84.27208,Rex,GA,Georgia,True,,15720.0,849.7,13063,Clayton,"{""13063"": 85.91, ""13151"": 14.09}",Clayton|Henry,13063|13151,False,False,America/New_York,"(33.58365, -84.27208)",185.40246514832063,20177193.0,12_0_no,32.71849371842212,-87.30613541353725,200.0
30274,33.55583,-84.40091,Riverdale,GA,Georgia,True,,34426.0,1301.7,13063,Clayton,"{""13063"": 100}",Clayton,13063,False,False,America/New_York,"(33.55583, -84.40091)",177.75547821528212,20177193.0,12_0_no,32.71849371842212,-87.30613541353725,200.0
30276,33.26552,-84.582,Senoia,GA,Georgia,True,,18128.0,72.9,13077,Coweta,"{""13077"": 76.89, ""13199"": 18.89, ""13113"": 4.22}",Coweta|Meriwether|Fayette,13077|13199|13113,False,False,America/New_York,"(33.26552, -84.582)",162.32450990247492,20177193.0,12_0_no,32.71849371842212,-87.30613541353725,200.0
30277,33.37962,-84.64767,Sharpsburg,GA,Georgia,True,,23365.0,197.9,13077,Coweta,"{""13077"": 100}",Coweta,13077,False,False,America/New_York,"(33.37962, -84.64767)",160.59100311996033,20177193.0,12_0_no,32.71849371842212,-87.30613541353725,200.0
30281,33.56338,-84.1961,Stockbridge,GA,Georgia,True,,70098.0,390.7,13151,Henry,"{""13151"": 79.25, ""13247"": 19.14, ""13063"": 1.61}",Henry|Rockdale|Clayton,13151|13247|13063,False,False,America/New_York,"(33.56338, -84.1961)",189.1507253456071,20177193.0,12_0_no,32.71849371842212,-87.30613541353725,200.0
30284,33.34032,-84.28858,Sunny Side,GA,Georgia,True,,81.0,1328.8,13255,Spalding,"{""13255"": 100}",Spalding,13255,False,False,America/New_York,"(33.34032, -84.28858)",179.99378905716864,20177193.0,12_0_no,32.71849371842212,-87.30613541353725,200.0
30285,32.98647,-84.25255,The Rock,GA,Georgia,True,,682.0,16.4,13293,Upson,"{""13293"": 61.81, ""13171"": 20.94, ""13231"": 17.25}",Upson|Lamar|Pike,13293|13171|13231,False,False,America/New_York,"(32.98647, -84.25255)",178.19819092216684,20177193.0,12_0_no,32.71849371842212,-87.30613541353725,200.0
30286,32.88078,-84.33334,Thomaston,GA,Georgia,True,,22270.0,43.1,13293,Upson,"{""13293"": 100}",Upson,13293,False,False,America/New_York,"(32.88078, -84.33334)",173.01151361219112,20177193.0,12_0_no,32.71849371842212,-87.30613541353725,200.0
30288,33.65502,-84.32813,Conley,GA,Georgia,True,,10181.0,565.4,13089,DeKalb,"{""13089"": 71.99, ""13063"": 28.01}",DeKalb|Clayton,13089|13063,False,False,America/New_York,"(33.65502, -84.32813)",183.9460162638875,20177193.0,12_0_no,32.71849371842212,-87.30613541353725,200.0
30289,33.32358,-84.63368,Turin,GA,Georgia,True,,34.0,107.8,13077,Coweta,"{""13077"": 100}",Coweta,13077,False,False,America/New_York,"(33.32358, -84.63368)",160.3626317937727,20177193.0,12_0_no,32.71849371842212,-87.30613541353725,200.0
30290,33.47675,-84.58804,Tyrone,GA,Georgia,True,,8706.0,188.3,13113,Fayette,"{""13113"": 100}",Fayette,13113,False,False,America/New_York,"(33.47675, -84.58804)",165.81696909735777,20177193.0,12_0_no,32.71849371842212,-87.30613541353725,200.0
30291,33.57569,-84.5408,Union City,GA,Georgia,True,,22636.0,810.9,13121,Fulton,"{""13121"": 100}",Fulton,13121,False,False,America/New_York,"(33.57569, -84.5408)",170.57827613363563,20177193.0,12_0_no,32.71849371842212,-87.30613541353725,200.0
30292,33.17207,-84.39438,Williamson,GA,Georgia,True,,5631.0,37.5,13231,Pike,"{""13231"": 77.69, ""13255"": 22.31}",Pike|Spalding,13231|13255,False,False,America/New_York,"(33.17207, -84.39438)",171.7086984565945,20177193.0,12_0_no,32.71849371842212,-87.30613541353725,200.0
30293,32.97581,-84.59612,Woodbury,GA,Georgia,True,,2482.0,12.7,13199,Meriwether,"{""13199"": 100}",Meriwether,13199,False,False,America/New_York,"(32.97581, -84.59612)",158.30462905782113,20177193.0,12_0_no,32.71849371842212,-87.30613541353725,200.0
30294,33.6371,-84.26289,Ellenwood,GA,Georgia,True,,41096.0,484.6,13089,DeKalb,"{""13089"": 36.39, ""13063"": 35.09, ""13151"": 27.37, ""13247"": 1.15}",DeKalb|Clayton|Henry|Rockdale,13089|13063|13151|13247,False,False,America/New_York,"(33.6371, -84.26289)",187.0749168204275,20177193.0,12_0_no,32.71849371842212,-87.30613541353725,200.0
30295,33.09319,-84.31819,Zebulon,GA,Georgia,True,,4750.0,38.6,13231,Pike,"{""13231"": 97.38, ""13171"": 2.62}",Pike|Lamar,13231|13171,False,False,America/New_York,"(33.09319, -84.31819)",175.24226089192305,20177193.0,12_0_no,32.71849371842212,-87.30613541353725,200.0
30296,33.56351,-84.44254,Riverdale,GA,Georgia,True,,27579.0,1019.8,13063,Clayton,"{""13063"": 80.24, ""13121"": 19.76}",Clayton|Fulton,13063|13121,False,False,America/New_York,"(33.56351, -84.44254)",175.64883717920316,20177193.0,12_0_no,32.71849371842212,-87.30613541353725,200.0
30297,33.61511,-84.37145,Forest Park,GA,Georgia,True,,28503.0,1004.7,13063,Clayton,"{""13063"": 100}",Clayton,13063,False,False,America/New_York,"(33.61511, -84.37145)",180.6761123055024,20177193.0,12_0_no,32.71849371842212,-87.30613541353725,200.0
30303,33.75284,-84.39028,Atlanta,GA,Georgia,True,,6840.0,2547.3,13121,Fulton,"{""13121"": 100}",Fulton,13121,False,False,America/New_York,"(33.75284, -84.39028)",183.0297356666274,20177193.0,12_0_no,32.71849371842212,-87.30613541353725,200.0
30305,33.83518,-84.38931,Atlanta,GA,Georgia,True,,25139.0,1494.2,13121,Fulton,"{""13121"": 100}",Fulton,13121,False,False,America/New_York,"(33.83518, -84.38931)",185.30312400060876,20177193.0,12_0_no,32.71849371842212,-87.30613541353725,200.0
30306,33.78867,-84.35136,Atlanta,GA,Georgia,True,,24915.0,2107.6,13121,Fulton,"{""13121"": 58.79, ""13089"": 41.21}",Fulton|DeKalb,13121|13089,False,False,America/New_York,"(33.78867, -84.35136)",186.03960839831214,20177193.0,12_0_no,32.71849371842212,-87.30613541353725,200.0
30307,33.77053,-84.33419,Atlanta,GA,Georgia,True,,20337.0,1727.4,13089,DeKalb,"{""13089"": 82.16, ""13121"": 17.84}",DeKalb|Fulton,13089|13121,False,False,America/New_York,"(33.77053, -84.33419)",186.47467379352295,20177193.0,12_0_no,32.71849371842212,-87.30613541353725,200.0
30308,33.77094,-84.37773,Atlanta,GA,Georgia,True,,20438.0,4939.3,13121,Fulton,"{""13121"": 100}",Fulton,13121,False,False,America/New_York,"(33.77094, -84.37773)",184.17144454358697,20177193.0,12_0_no,32.71849371842212,-87.30613541353725,200.0
30309,33.798,-84.38774,Atlanta,GA,Georgia,True,,25852.0,3016.6,13121,Fulton,"{""13121"": 100}",Fulton,13121,False,False,America/New_York,"(33.798, -84.38774)",184.36441607543046,20177193.0,12_0_no,32.71849371842212,-87.30613541353725,200.0
30310,33.72695,-84.42726,Atlanta,GA,Georgia,True,,28597.0,1285.3,13121,Fulton,"{""13121"": 100}",Fulton,13121,False,False,America/New_York,"(33.72695, -84.42726)",180.38882293061633,20177193.0,12_0_no,32.71849371842212,-87.30613541353725,200.0
30311,33.72345,-84.47442,Atlanta,GA,Georgia,True,,35523.0,1101.1,13121,Fulton,"{""13121"": 100}",Fulton,13121,False,False,America/New_York,"(33.72345, -84.47442)",177.78641812317005,20177193.0,12_0_no,32.71849371842212,-87.30613541353725,200.0
30312,33.74463,-84.37577,Atlanta,GA,Georgia,True,,23921.0,2789.7,13121,Fulton,"{""13121"": 100}",Fulton,13121,False,False,America/New_York,"(33.74463, -84.37577)",183.58950695162054,20177193.0,12_0_no,32.71849371842212,-87.30613541353725,200.0
30313,33.76369,-84.39761,Atlanta,GA,Georgia,True,,11761.0,3866.3,13121,Fulton,"{""13121"": 100}",Fulton,13121,False,False,America/New_York,"(33.76369, -84.39761)",182.92483364803633,20177193.0,12_0_no,32.71849371842212,-87.30613541353725,200.0
30314,33.75787,-84.43193,Atlanta,GA,Georgia,True,,25752.0,2179.6,13121,Fulton,"{""13121"": 100}",Fulton,13121,False,False,America/New_York,"(33.75787, -84.43193)",180.94973413022183,20177193.0,12_0_no,32.71849371842212,-87.30613541353725,200.0
30315,33.70312,-84.38272,Atlanta,GA,Georgia,True,,36296.0,1221.9,13121,Fulton,"{""13121"": 99.45, ""13089"": 0.55}",Fulton|DeKalb,13121|13089,False,False,America/New_York,"(33.70312, -84.38272)",182.1660476405128,20177193.0,12_0_no,32.71849371842212,-87.30613541353725,200.0
30316,33.71277,-84.33218,Atlanta,GA,Georgia,True,,33832.0,1001.5,13089,DeKalb,"{""13089"": 84.31, ""13121"": 15.69}",DeKalb|Fulton,13089|13121,False,False,America/New_York,"(33.71277, -84.33218)",185.11663546107582,20177193.0,12_0_no,32.71849371842212,-87.30613541353725,200.0
30317,33.74913,-84.31537,Atlanta,GA,Georgia,True,,13959.0,1523.0,13089,DeKalb,"{""13089"": 99.8, ""13121"": 0.2}",DeKalb|Fulton,13089|13121,False,False,America/New_York,"(33.74913, -84.31537)",186.9279684334556,20177193.0,12_0_no,32.71849371842212,-87.30613541353725,200.0
30318,33.79235,-84.44831,Atlanta,GA,Georgia,True,,57136.0,1086.2,13121,Fulton,"{""13121"": 100}",Fulton,13121,False,False,America/New_York,"(33.79235, -84.44831)",181.01457172281494,20177193.0,12_0_no,32.71849371842212,-87.30613541353725,200.0
30319,33.87875,-84.33596,Atlanta,GA,Georgia,True,,45135.0,1689.2,13089,DeKalb,"{""13089"": 85.59, ""13121"": 14.41}",DeKalb|Fulton,13089|13121,False,False,America/New_York,"(33.87875, -84.33596)",189.32440177502093,20177193.0,12_0_no,32.71849371842212,-87.30613541353725,200.0
30322,33.7948,-84.32539,Atlanta,GA,Georgia,True,,2308.0,1895.5,13089,DeKalb,"{""13089"": 100}",DeKalb,13089,False,False,America/New_York,"(33.7948, -84.32539)",187.579192141469,20177193.0,12_0_no,32.71849371842212,-87.30613541353725,200.0
30324,33.8196,-84.3572,Atlanta,GA,Georgia,True,,28654.0,2095.5,13121,Fulton,"{""13121"": 75.35, ""13089"": 24.65}",Fulton|DeKalb,13121|13089,False,False,America/New_York,"(33.8196, -84.3572)",186.56330809497078,20177193.0,12_0_no,32.71849371842212,-87.30613541353725,200.0
30326,33.84957,-84.36342,Atlanta,GA,Georgia,True,,6643.0,3402.7,13121,Fulton,"{""13121"": 100}",Fulton,13121,False,False,America/New_York,"(33.84957, -84.36342)",187.06396745987934,20177193.0,12_0_no,32.71849371842212,-87.30613541353725,200.0
30327,33.86708,-84.42358,Atlanta,GA,Georgia,True,,23059.0,509.6,13121,Fulton,"{""13121"": 100}",Fulton,13121,False,False,America/New_York,"(33.86708, -84.42358)",184.41516525882233,20177193.0,12_0_no,32.71849371842212,-87.30613541353725,200.0
30328,33.93194,-84.38617,Atlanta,GA,Georgia,True,,38685.0,1172.1,13121,Fulton,"{""13121"": 100}",Fulton,13121,False,False,America/New_York,"(33.93194, -84.38617)",188.26260418088663,20177193.0,12_0_no,32.71849371842212,-87.30613541353725,200.0
30329,33.82625,-84.32282,Atlanta,GA,Georgia,True,,26980.0,1900.4,13089,DeKalb,"{""13089"": 100}",DeKalb,13089,False,False,America/New_York,"(33.82625, -84.32282)",188.55823233293927,20177193.0,12_0_no,32.71849371842212,-87.30613541353725,200.0
30331,33.70627,-84.54439,Atlanta,GA,Georgia,True,,65996.0,675.5,13121,Fulton,"{""13121"": 100}",Fulton,13121,False,False,America/New_York,"(33.70627, -84.54439)",173.6153669212987,20177193.0,12_0_no,32.71849371842212,-87.30613541353725,200.0
30332,33.77757,-84.40429,Atlanta,GA,Georgia,True,,3162.0,13591.5,13121,Fulton,"{""13121"": 100}",Fulton,13121,False,False,America/New_York,"(33.77757, -84.40429)",182.93940271832605,20177193.0,12_0_no,32.71849371842212,-87.30613541353725,200.0
30336,33.73718,-84.56768,Atlanta,GA,Georgia,True,,876.0,33.2,13121,Fulton,"{""13121"": 100}",Fulton,13121,False,False,America/New_York,"(33.73718, -84.56768)",173.20924348344144,20177193.0,12_0_no,32.71849371842212,-87.30613541353725,200.0
30337,33.64019,-84.44962,Atlanta,GA,Georgia,True,,13309.0,420.1,13121,Fulton,"{""13121"": 53.11, ""13063"": 46.89}",Fulton|Clayton,13121|13063,False,False,America/New_York,"(33.64019, -84.44962)",177.0300107190937,20177193.0,12_0_no,32.71849371842212,-87.30613541353725,200.0
30338,33.9437,-84.31801,Atlanta,GA,Georgia,True,,35680.0,1397.9,13089,DeKalb,"{""13089"": 98.19, ""13121"": 1.81}",DeKalb|Fulton,13089|13121,False,False,America/New_York,"(33.9437, -84.31801)",192.1393677121399,20177193.0,12_0_no,32.71849371842212,-87.30613541353725,200.0
30339,33.86786,-84.46483,Atlanta,GA,Georgia,True,,25318.0,990.2,13067,Cobb,"{""13067"": 95.62, ""13121"": 4.38}",Cobb|Fulton,13067|13121,False,False,America/New_York,"(33.86786, -84.46483)",182.29067239440957,20177193.0,12_0_no,32.71849371842212,-87.30613541353725,200.0
30340,33.89808,-84.25113,Atlanta,GA,Georgia,True,,29069.0,1360.8,13089,DeKalb,"{""13089"": 80.81, ""13135"": 19.19}",DeKalb|Gwinnett,13089|13135,False,False,America/New_York,"(33.89808, -84.25113)",194.31130529196867,20177193.0,12_0_no,32.71849371842212,-87.30613541353725,200.0
30341,33.88711,-84.28992,Atlanta,GA,Georgia,True,,32134.0,1241.1,13089,DeKalb,"{""13089"": 100}",DeKalb,13089,False,False,America/New_York,"(33.88711, -84.28992)",191.97060071087233,20177193.0,12_0_no,32.71849371842212,-87.30613541353725,200.0
30342,33.88227,-84.37429,Atlanta,GA,Georgia,True,,31828.0,1370.9,13121,Fulton,"{""13121"": 100}",Fulton,13121,False,False,America/New_York,"(33.88227, -84.37429)",187.42280177536495,20177193.0,12_0_no,32.71849371842212,-87.30613541353725,200.0
30344,33.67508,-84.46029,Atlanta,GA,Georgia,True,,32155.0,1021.9,13121,Fulton,"{""13121"": 100}",Fulton,13121,False,False,America/New_York,"(33.67508, -84.46029)",177.30806002773994,20177193.0,12_0_no,32.71849371842212,-87.30613541353725,200.0
30345,33.85082,-84.28317,Atlanta,GA,Georgia,True,,25777.0,1407.0,13089,DeKalb,"{""13089"": 100}",DeKalb,13089,False,False,America/New_York,"(33.85082, -84.28317)",191.3186384014184,20177193.0,12_0_no,32.71849371842212,-87.30613541353725,200.0
30346,33.92425,-84.33881,Atlanta,GA,Georgia,True,,5008.0,1915.4,13089,DeKalb,"{""13089"": 100}",DeKalb,13089,False,False,America/New_York,"(33.92425, -84.33881)",190.4881287238552,20177193.0,12_0_no,32.71849371842212,-87.30613541353725,200.0
30349,33.62346,-84.52591,Atlanta,GA,Georgia,True,,75647.0,636.6,13121,Fulton,"{""13121"": 85.52, ""13063"": 14.48}",Fulton|Clayton,13121|13063,False,False,America/New_York,"(33.62346, -84.52591)",172.51344653619964,20177193.0,12_0_no,32.71849371842212,-87.30613541353725,200.0
30350,33.97881,-84.33366,Atlanta,GA,Georgia,True,,38785.0,1187.9,13121,Fulton,"{""13121"": 99.42, ""13089"": 0.58}",Fulton|DeKalb,13121|13089,False,False,America/New_York,"(33.97881, -84.33366)",192.38325764639808,20177193.0,12_0_no,32.71849371842212,-87.30613541353725,200.0
30354,33.66058,-84.38609,Atlanta,GA,Georgia,True,,16660.0,600.3,13121,Fulton,"{""13121"": 87.16, ""13063"": 12.84}",Fulton|Clayton,13121|13063,False,False,America/New_York,"(33.66058, -84.38609)",180.94578929262323,20177193.0,12_0_no,32.71849371842212,-87.30613541353725,200.0
30360,33.93198,-84.27302,Atlanta,GA,Georgia,True,,16099.0,1016.9,13089,DeKalb,"{""13089"": 72.72, ""13135"": 27.28}",DeKalb|Gwinnett,13089|13135,False,False,America/New_York,"(33.93198, -84.27302)",194.13354830054925,20177193.0,12_0_no,32.71849371842212,-87.30613541353725,200.0
30363,33.79147,-84.39887,Atlanta,GA,Georgia,True,,4737.0,7405.9,13121,Fulton,"{""13121"": 100}",Fulton,13121,False,False,America/New_York,"(33.79147, -84.39887)",183.59975559860519,20177193.0,12_0_no,32.71849371842212,-87.30613541353725,200.0
30504,34.26639,-83.88751,Gainesville,GA,Georgia,True,,27242.0,579.6,13139,Hall,"{""13139"": 100}",Hall,13139,False,False,America/New_York,"(34.26639, -83.88751)",224.1254708236225,20177193.0,12_0_no,32.71849371842212,-87.30613541353725,200.0
30506,34.34918,-83.89486,Gainesville,GA,Georgia,True,,43974.0,169.0,13139,Hall,"{""13139"": 72.93, ""13117"": 27.07}",Hall|Forsyth,13139|13117,False,False,America/New_York,"(34.34918, -83.89486)",226.46042450421163,20177193.0,12_0_no,32.71849371842212,-87.30613541353725,200.0
30512,34.85667,-83.97204,Blairsville,GA,Georgia,True,,22646.0,39.4,13291,Union,"{""13291"": 99.16, ""13111"": 0.84}",Union|Fannin,13291|13111,False,False,America/New_York,"(34.85667, -83.97204)",241.8011884533055,20177193.0,12_0_no,32.71849371842212,-87.30613541353725,200.0
30513,34.82469,-84.31891,Blue Ridge,GA,Georgia,True,,12504.0,32.5,13111,Fannin,"{""13111"": 95.22, ""13123"": 4.78}",Fannin|Gilmer,13111|13123,False,False,America/New_York,"(34.82469, -84.31891)",224.95289687581356,20177193.0,12_0_no,32.71849371842212,-87.30613541353725,200.0
30518,34.132,-84.02578,Buford,GA,Georgia,True,,54832.0,528.8,13135,Gwinnett,"{""13135"": 69.8, ""13139"": 30.2}",Gwinnett|Hall,13135|13139,False,False,America/New_York,"(34.132, -84.02578)",212.87120572392703,20177193.0,12_0_no,32.71849371842212,-87.30613541353725,200.0
30519,34.08792,-83.9423,Buford,GA,Georgia,True,,49986.0,571.7,13135,Gwinnett,"{""13135"": 88.42, ""13139"": 11.58}",Gwinnett|Hall,13135|13139,False,False,America/New_York,"(34.08792, -83.9423)",215.85133052845717,20177193.0,12_0_no,32.71849371842212,-87.30613541353725,200.0
30522,34.78351,-84.34233,Cherry Log,GA,Georgia,True,,1430.0,11.9,13123,Gilmer,"{""13123"": 73.21, ""13111"": 26.79}",Gilmer|Fannin,13123|13111,False,False,America/New_York,"(34.78351, -84.34233)",222.12259129167316,20177193.0,12_0_no,32.71849371842212,-87.30613541353725,200.0
30533,34.57344,-84.01576,Dahlonega,GA,Georgia,True,,27738.0,44.1,13187,Lumpkin,"{""13187"": 95.32, ""13085"": 2.57, ""13139"": 1.71, ""13311"": 0.4}",Lumpkin|Dawson|Hall|White,13187|13085|13139|13311,False,False,America/New_York,"(34.57344, -84.01576)",228.5486007292176,20177193.0,12_0_no,32.71849371842212,-87.30613541353725,200.0
30534,34.43085,-84.1439,Dawsonville,GA,Georgia,True,,30848.0,55.9,13085,Dawson,"{""13085"": 85.36, ""13187"": 9.71, ""13117"": 3.0, ""13227"": 1.27, ""13057"": 0.66}",Dawson|Lumpkin|Forsyth|Pickens|Cherokee,13085|13187|13117|13227|13057,False,False,America/New_York,"(34.43085, -84.1439)",217.08853457743865,20177193.0,12_0_no,32.71849371842212,-87.30613541353725,200.0
30536,34.65151,-84.35223,Ellijay,GA,Georgia,True,,9290.0,23.3,13123,Gilmer,"{""13123"": 97.75, ""13085"": 2.25}",Gilmer|Dawson,13123|13085,False,False,America/New_York,"(34.65151, -84.35223)",216.0347562435215,20177193.0,12_0_no,32.71849371842212,-87.30613541353725,200.0
30540,34.72313,-84.54421,Ellijay,GA,Georgia,True,,19732.0,38.8,13123,Gilmer,"{""13123"": 100}",Gilmer,13123,False,False,America/New_York,"(34.72313, -84.54421)",210.64200730958288,20177193.0,12_0_no,32.71849371842212,-87.30613541353725,200.0
30541,34.91164,-84.53482,Epworth,GA,Georgia,True,,1326.0,6.9,13111,Fannin,"{""13111"": 100}",Fannin,13111,False,False,America/New_York,"(34.91164, -84.53482)",219.68692452332516,20177193.0,12_0_no,32.71849371842212,-87.30613541353725,200.0
30542,34.17846,-83.90915,Flowery Branch,GA,Georgia,True,,36450.0,331.6,13139,Hall,"{""13139"": 100}",Hall,13139,False,False,America/New_York,"(34.17846, -83.90915)",220.2716049562709,20177193.0,12_0_no,32.71849371842212,-87.30613541353725,200.0
30555,34.97216,-84.42459,McCaysville,GA,Georgia,True,,2443.0,82.5,13111,Fannin,"{""13111"": 100}",Fannin,13111,False,False,America/New_York,"(34.97216, -84.42459)",227.11197819845646,20177193.0,12_0_no,32.71849371842212,-87.30613541353725,200.0
30559,34.95233,-84.26612,Mineral Bluff,GA,Georgia,True,,4751.0,36.5,13111,Fannin,"{""13111"": 100}",Fannin,13111,False,False,America/New_York,"(34.95233, -84.26612)",232.9185823270307,20177193.0,12_0_no,32.71849371842212,-87.30613541353725,200.0
30560,34.87785,-84.19528,Morganton,GA,Georgia,True,,4544.0,24.6,13111,Fannin,"{""13111"": 89.19, ""13291"": 10.81}",Fannin|Union,13111|13291,False,False,America/New_York,"(34.87785, -84.19528)",232.70579788570546,20177193.0,12_0_no,32.71849371842212,-87.30613541353725,200.0
30564,34.47251,-83.8826,Murrayville,GA,Georgia,True,,3696.0,44.8,13139,Hall,"{""13139"": 57.88, ""13187"": 37.17, ""13311"": 4.95}",Hall|Lumpkin|White,13139|13187|13311,False,False,America/New_York,"(34.47251, -83.8826)",231.297465564016,20177193.0,12_0_no,32.71849371842212,-87.30613541353725,200.0
30566,34.23747,-83.89477,Oakwood,GA,Georgia,True,,7741.0,371.5,13139,Hall,"{""13139"": 100}",Hall,13139,False,False,America/New_York,"(34.23747, -83.89477)",222.83926343053457,20177193.0,12_0_no,32.71849371842212,-87.30613541353725,200.0
30572,34.73539,-84.07364,Suches,GA,Georgia,True,,844.0,3.0,13291,Union,"{""13291"": 69.68, ""13111"": 30.32}",Union|Fannin,13291|13111,False,False,America/New_York,"(34.73539, -84.07364)",232.1915917984044,20177193.0,12_0_no,32.71849371842212,-87.30613541353725,200.0
30582,34.9494,-83.89869,Young Harris,GA,Georgia,True,,4706.0,35.0,13281,Towns,"{""13281"": 62.92, ""13291"": 37.08}",Towns|Union,13281|13291,False,False,America/New_York,"(34.9494, -83.89869)",248.97666032331696,20177193.0,12_0_no,32.71849371842212,-87.30613541353725,200.0
30701,34.49535,-84.95385,Calhoun,GA,Georgia,True,,42050.0,107.0,13129,Gordon,"{""13129"": 94.22, ""13115"": 5.78}",Gordon|Floyd,13129|13115,False,False,America/New_York,"(34.49535, -84.95385)",182.73158050669716,20177193.0,12_0_no,32.71849371842212,-87.30613541353725,200.0
30705,34.74711,-84.74929,Chatsworth,GA,Georgia,True,,34072.0,54.1,13213,Murray,"{""13213"": 100}",Murray,13213,False,False,America/New_York,"(34.74711, -84.74929)",203.03802515810602,20177193.0,12_0_no,32.71849371842212,-87.30613541353725,200.0
30707,34.77943,-85.36028,Chickamauga,GA,Georgia,True,,17145.0,54.7,13295,Walker,"{""13295"": 95.98, ""13047"": 4.02}",Walker|Catoosa,13295|13047,False,False,America/New_York,"(34.77943, -85.36028)",181.02538738096442,20177193.0,12_0_no,32.71849371842212,-87.30613541353725,200.0
30708,34.93985,-84.66754,Cisco,GA,Georgia,True,,172.0,1.9,13213,Murray,"{""13213"": 100}",Murray,13213,False,False,America/New_York,"(34.93985, -84.66754)",215.60140557411555,20177193.0,12_0_no,32.71849371842212,-87.30613541353725,200.0
30710,34.95002,-84.91993,Cohutta,GA,Georgia,True,,7297.0,60.3,13313,Whitfield,"{""13313"": 99.79, ""13047"": 0.21}",Whitfield|Catoosa,13313|13047,False,False,America/New_York,"(34.95002, -84.91993)",206.20780111249124,20177193.0,12_0_no,32.71849371842212,-87.30613541353725,200.0
30711,34.92905,-84.76259,Crandall,GA,Georgia,True,,3757.0,29.5,13213,Murray,"{""13213"": 100}",Murray,13213,False,False,America/New_York,"(34.92905, -84.76259)",211.2728559026811,20177193.0,12_0_no,32.71849371842212,-87.30613541353725,200.0
30720,34.73472,-85.00289,Dalton,GA,Georgia,True,,28067.0,222.8,13313,Whitfield,"{""13313"": 100}",Whitfield,13313,False,False,America/New_York,"(34.73472, -85.00289)",192.1450302821272,20177193.0,12_0_no,32.71849371842212,-87.30613541353725,200.0
30721,34.79168,-84.91187,Dalton,GA,Georgia,True,,52658.0,160.4,13313,Whitfield,"{""13313"": 95.77, ""13213"": 4.23}",Whitfield|Murray,13313|13213,False,False,America/New_York,"(34.79168, -84.91187)",198.57071738333477,20177193.0,12_0_no,32.71849371842212,-87.30613541353725,200.0
30725,34.92443,-85.35359,Flintstone,GA,Georgia,True,,4731.0,111.0,13295,Walker,"{""13295"": 100}",Walker,13295,False,False,America/New_York,"(34.92443, -85.35359)",189.17737998889868,20177193.0,12_0_no,32.71849371842212,-87.30613541353725,200.0
30728,34.68015,-85.23417,La Fayette,GA,Georgia,True,,20183.0,44.9,13295,Walker,"{""13295"": 100}",Walker,13295,False,False,America/New_York,"(34.68015, -85.23417)",180.4222605381561,20177193.0,12_0_no,32.71849371842212,-87.30613541353725,200.0
30730,34.36017,-85.42172,Lyerly,GA,Georgia,True,,1902.0,13.1,13055,Chattooga,"{""13055"": 100}",Chattooga,13055,False,False,America/New_York,"(34.36017, -85.42172)",156.97525027141614,20177193.0,12_0_no,32.71849371842212,-87.30613541353725,200.0
30731,34.58317,-85.47894,Menlo,GA,Georgia,True,,2655.0,12.3,13055,Chattooga,"{""13055"": 54.33, ""13295"": 29.82, ""13083"": 15.85}",Chattooga|Walker|Dade,13055|13295|13083,False,False,America/New_York,"(34.58317, -85.47894)",166.2549019449711,20177193.0,12_0_no,32.71849371842212,-87.30613541353725,200.0
30733,34.41574,-85.04349,Plainville,GA,Georgia,True,,2171.0,53.7,13129,Gordon,"{""13129"": 89.1, ""13115"": 10.9}",Gordon|Floyd,13129|13115,False,False,America/New_York,"(34.41574, -85.04349)",175.26245419578765,20177193.0,12_0_no,32.71849371842212,-87.30613541353725,200.0
30734,34.53361,-84.71346,Ranger,GA,Georgia,True,,3418.0,17.2,13129,Gordon,"{""13129"": 88.37, ""13227"": 11.63}",Gordon|Pickens,13129|13227,False,False,America/New_York,"(34.53361, -84.71346)",194.86419512120088,20177193.0,12_0_no,32.71849371842212,-87.30613541353725,200.0
30735,34.60183,-84.89375,Resaca,GA,Georgia,True,,6631.0,46.6,13129,Gordon,"{""13129"": 71.94, ""13213"": 20.14, ""13313"": 7.92}",Gordon|Murray|Whitfield,13129|13213|13313,False,False,America/New_York,"(34.60183, -84.89375)",190.19758000076973,20177193.0,12_0_no,32.71849371842212,-87.30613541353725,200.0
30736,34.90244,-85.13306,Ringgold,GA,Georgia,True,,43639.0,135.2,13047,Catoosa,"{""13047"": 95.55, ""13313"": 3.13, ""13295"": 1.32}",Catoosa|Whitfield|Walker,13047|13313|13295,False,False,America/New_York,"(34.90244, -85.13306)",195.77545906870012,20177193.0,12_0_no,32.71849371842212,-87.30613541353725,200.0
30738,34.79534,-85.47846,Rising Fawn,GA,Georgia,True,,3509.0,15.3,13083,Dade,"{""13083"": 68.3, ""13295"": 31.7}",Dade|Walker,13083|13295,False,False,America/New_York,"(34.79534, -85.47846)",177.79472496681112,20177193.0,12_0_no,32.71849371842212,-87.30613541353725,200.0
30739,34.80345,-85.21515,Rock Spring,GA,Georgia,True,,6773.0,102.3,13295,Walker,"{""13295"": 74.95, ""13047"": 25.05}",Walker|Catoosa,13295|13047,False,False,America/New_York,"(34.80345, -85.21515)",187.54864891235715,20177193.0,12_0_no,32.71849371842212,-87.30613541353725,200.0
30740,34.75407,-85.07786,Rocky Face,GA,Georgia,True,,8584.0,66.1,13313,Whitfield,"{""13313"": 91.99, ""13295"": 8.01}",Whitfield|Walker,13313|13295,False,False,America/New_York,"(34.75407, -85.07786)",190.18079625522543,20177193.0,12_0_no,32.71849371842212,-87.30613541353725,200.0
30741,34.95168,-85.28213,Rossville,GA,Georgia,True,,28592.0,443.9,13295,Walker,"{""13295"": 72.36, ""13047"": 27.64}",Walker|Catoosa,13295|13047,False,False,America/New_York,"(34.95168, -85.28213)",193.12462939791845,20177193.0,12_0_no,32.71849371842212,-87.30613541353725,200.0
30742,34.93566,-85.24482,Fort Oglethorpe,GA,Georgia,True,,7374.0,392.6,13047,Catoosa,"{""13047"": 99.87, ""13295"": 0.13}",Catoosa|Walker,13047|13295,False,False,America/New_York,"(34.93566, -85.24482)",193.54929181313457,20177193.0,12_0_no,32.71849371842212,-87.30613541353725,200.0
30746,34.59214,-85.03285,Sugar Valley,GA,Georgia,True,,762.0,13.8,13129,Gordon,"{""13129"": 84.55, ""13295"": 15.45}",Gordon|Walker,13129|13295,False,False,America/New_York,"(34.59214, -85.03285)",183.9790681278341,20177193.0,12_0_no,32.71849371842212,-87.30613541353725,200.0
30747,34.50179,-85.29407,Summerville,GA,Georgia,True,,15807.0,31.6,13055,Chattooga,"{""13055"": 90.55, ""13295"": 9.45}",Chattooga|Walker,13055|13295,False,False,America/New_York,"(34.50179, -85.29407)",169.06700047704734,20177193.0,12_0_no,32.71849371842212,-87.30613541353725,200.0
30750,34.93681,-85.3882,Lookout Mountain,GA,Georgia,True,,4148.0,144.1,13295,Walker,"{""13295"": 64.43, ""13083"": 35.57}",Walker|Dade,13295|13083,False,False,America/New_York,"(34.93681, -85.3882)",188.6969595337665,20177193.0,12_0_no,32.71849371842212,-87.30613541353725,200.0
30751,34.98212,-84.73743,Tennga,GA,Georgia,True,,172.0,116.8,13213,Murray,"{""13213"": 100}",Murray,13213,False,False,America/New_York,"(34.98212, -84.73743)",214.89431018129517,20177193.0,12_0_no,32.71849371842212,-87.30613541353725,200.0
30752,34.91136,-85.53079,Trenton,GA,Georgia,True,,8638.0,44.1,13083,Dade,"{""13083"": 100}",Dade,13083,False,False,America/New_York,"(34.91136, -85.53079)",182.59091970197935,20177193.0,12_0_no,32.71849371842212,-87.30613541353725,200.0
30753,34.57896,-85.28806,Trion,GA,Georgia,True,,7016.0,66.3,13055,Chattooga,"{""13055"": 60.83, ""13295"": 39.17}",Chattooga|Walker,13055|13295,False,False,America/New_York,"(34.57896, -85.28806)",173.18746414500336,20177193.0,12_0_no,32.71849371842212,-87.30613541353725,200.0
30755,34.86944,-85.04072,Tunnel Hill,GA,Georgia,True,,10108.0,105.9,13313,Whitfield,"{""13313"": 52.48, ""13047"": 47.52}",Whitfield|Catoosa,13313|13047,False,False,America/New_York,"(34.86944, -85.04072)",197.4893866139655,20177193.0,12_0_no,32.71849371842212,-87.30613541353725,200.0
30756,34.90103,-84.97458,Varnell,GA,Georgia,True,,58.0,451.5,13313,Whitfield,"{""13313"": 100}",Whitfield,13313,False,False,America/New_York,"(34.90103, -84.97458)",201.62066643861237,20177193.0,12_0_no,32.71849371842212,-87.30613541353725,200.0
30757,34.94164,-85.4324,Wildwood,GA,Georgia,True,,2131.0,40.3,13083,Dade,"{""13083"": 100}",Dade,13083,False,False,America/New_York,"(34.94164, -85.4324)",187.50029605003013,20177193.0,12_0_no,32.71849371842212,-87.30613541353725,200.0
31006,32.58164,-84.25531,Butler,GA,Georgia,True,,4523.0,9.7,13269,Taylor,"{""13269"": 100}",Taylor,13269,False,False,America/New_York,"(32.58164, -84.25531)",177.72839908092183,20177193.0,12_0_no,32.71849371842212,-87.30613541353725,200.0
31007,32.18917,-83.93377,Byromville,GA,Georgia,True,,941.0,5.4,13093,Dooly,"{""13093"": 100}",Dooly,13093,False,False,America/New_York,"(32.18917, -83.93377)",199.98094508095434,20177193.0,12_0_no,32.71849371842212,-87.30613541353725,200.0
31016,32.83656,-84.11477,Culloden,GA,Georgia,True,,1832.0,6.9,13207,Monroe,"{""13207"": 43.44, ""13293"": 33.75, ""13079"": 17.93, ""13171"": 4.88}",Monroe|Upson|Crawford|Lamar,13207|13293|13079|13171,False,False,America/New_York,"(32.83656, -84.11477)",185.56604051954707,20177193.0,12_0_no,32.71849371842212,-87.30613541353725,200.0
31029,33.03894,-83.92977,Forsyth,GA,Georgia,True,,16467.0,26.1,13207,Monroe,"{""13207"": 100}",Monroe,13207,False,False,America/New_York,"(33.03894, -83.92977)",197.15568871237204,20177193.0,12_0_no,32.71849371842212,-87.30613541353725,200.0
31030,32.56861,-83.89103,Fort Valley,GA,Georgia,True,,17691.0,39.0,13225,Peach,"{""13225"": 58.55, ""13079"": 38.06, ""13193"": 3.39}",Peach|Crawford|Macon,13225|13079|13193,False,False,America/New_York,"(32.56861, -83.89103)",198.9505059328636,20177193.0,12_0_no,32.71849371842212,-87.30613541353725,200.0
31041,32.37905,-84.1721,Ideal,GA,Georgia,True,,888.0,8.6,13193,Macon,"{""13193"": 100}",Macon,13193,False,False,America/New_York,"(32.37905, -84.1721)",184.02338133461177,20177193.0,12_0_no,32.71849371842212,-87.30613541353725,200.0
31050,32.72924,-83.94096,Knoxville,GA,Georgia,True,,868.0,17.1,13079,Crawford,"{""13079"": 100}",Crawford,13079,False,False,America/New_York,"(32.72924, -83.94096)",195.60176188971275,20177193.0,12_0_no,32.71849371842212,-87.30613541353725,200.0
31051,32.14456,-83.87812,Lilly,GA,Georgia,True,,209.0,188.5,13093,Dooly,"{""13093"": 100}",Dooly,13093,False,False,America/New_York,"(32.14456, -83.87812)",203.79686024771328,20177193.0,12_0_no,32.71849371842212,-87.30613541353725,200.0
31057,32.43319,-83.94324,Marshallville,GA,Georgia,True,,2048.0,9.6,13193,Macon,"{""13193"": 100}",Macon,13193,False,False,America/New_York,"(32.43319, -83.94324)",196.78114937405184,20177193.0,12_0_no,32.71849371842212,-87.30613541353725,200.0
31058,32.4911,-84.41273,Mauk,GA,Georgia,True,,1798.0,6.7,13269,Taylor,"{""13269"": 59.88, ""13197"": 39.56, ""13249"": 0.56}",Taylor|Marion|Schley,13269|13197|13249,False,False,America/New_York,"(32.4911, -84.41273)",169.13595426339884,20177193.0,12_0_no,32.71849371842212,-87.30613541353725,200.0
31063,32.29249,-83.9648,Montezuma,GA,Georgia,True,,4954.0,17.1,13193,Macon,"{""13193"": 88.2, ""13093"": 11.8}",Macon|Dooly,13193|13093,False,False,America/New_York,"(32.29249, -83.9648)",196.9005435241067,20177193.0,12_0_no,32.71849371842212,-87.30613541353725,200.0
31066,32.80757,-83.98953,Musella,GA,Georgia,True,,1257.0,7.9,13079,Crawford,"{""13079"": 92.79, ""13207"": 6.01, ""13021"": 1.2}",Crawford|Monroe|Bibb,13079|13207|13021,False,False,America/New_York,"(32.80757, -83.98953)",192.79094368661345,20177193.0,12_0_no,32.71849371842212,-87.30613541353725,200.0
31068,32.33226,-84.10704,Oglethorpe,GA,Georgia,True,,4950.0,20.5,13193,Macon,"{""13193"": 100}",Macon,13193,False,False,America/New_York,"(32.33226, -84.10704)",188.26083909956304,20177193.0,12_0_no,32.71849371842212,-87.30613541353725,200.0
31076,32.54709,-84.10762,Reynolds,GA,Georgia,True,,2867.0,9.0,13269,Taylor,"{""13269"": 69.78, ""13193"": 30.22}",Taylor|Macon,13269|13193,False,False,America/New_York,"(32.54709, -84.10762)",186.47999412407495,20177193.0,12_0_no,32.71849371842212,-87.30613541353725,200.0
31078,32.6987,-84.06456,Roberta,GA,Georgia,True,,3203.0,11.8,13079,Crawford,"{""13079"": 100}",Crawford,13079,False,False,America/New_York,"(32.6987, -84.06456)",188.4539183892585,20177193.0,12_0_no,32.71849371842212,-87.30613541353725,200.0
31081,32.40824,-84.27725,Rupert,GA,Georgia,True,,11.0,0.1,13269,Taylor,"{""13269"": 88.3, ""13193"": 10.51, ""13249"": 1.19}",Taylor|Macon|Schley,13269|13193|13249,False,False,America/New_York,"(32.40824, -84.27725)",177.6686764824823,20177193.0,12_0_no,32.71849371842212,-87.30613541353725,200.0
31097,32.89947,-84.15554,Yatesville,GA,Georgia,True,,1681.0,12.1,13293,Upson,"{""13293"": 86.77, ""13171"": 11.56, ""13207"": 1.67}",Upson|Lamar|Monroe,13293|13171|13207,False,False,America/New_York,"(32.89947, -84.15554)",183.38047165385137,20177193.0,12_0_no,32.71849371842212,-87.30613541353725,200.0
31701,31.57376,-84.15508,Albany,GA,Georgia,True,,18886.0,344.4,13095,Dougherty,"{""13095"": 90.39, ""13177"": 9.61}",Dougherty|Lee,13095|13177,False,False,America/New_York,"(31.57376, -84.15508)",200.57931289482482,20177193.0,12_0_no,32.71849371842212,-87.30613541353725,200.0
31705,31.51169,-84.05333,Albany,GA,Georgia,True,,32290.0,88.8,13095,Dougherty,"{""13095"": 76.47, ""13321"": 12.43, ""13205"": 11.1}",Dougherty|Worth|Mitchell,13095|13321|13205,False,False,America/New_York,"(31.51169, -84.05333)",207.80450642172667,20177193.0,12_0_no,32.71849371842212,-87.30613541353725,200.0
31707,31.58736,-84.20689,Albany,GA,Georgia,True,,23645.0,497.0,13095,Dougherty,"{""13095"": 91.14, ""13177"": 8.86}",Dougherty|Lee,13095|13177,False,False,America/New_York,"(31.58736, -84.20689)",197.4118296179662,20177193.0,12_0_no,32.71849371842212,-87.30613541353725,200.0
31709,32.05071,-84.14011,Americus,GA,Georgia,True,,15509.0,49.7,13261,Sumter,"{""13261"": 100}",Sumter,13261,False,False,America/New_York,"(32.05071, -84.14011)",190.39563635913916,20177193.0,12_0_no,32.71849371842212,-87.30613541353725,200.0
31711,32.18766,-84.12258,Andersonville,GA,Georgia,True,,751.0,3.9,13261,Sumter,"{""13261"": 61.91, ""13193"": 37.28, ""13249"": 0.81}",Sumter|Macon|Schley,13261|13193|13249,False,False,America/New_York,"(32.18766, -84.12258)",189.19225294947532,20177193.0,12_0_no,32.71849371842212,-87.30613541353725,200.0
31716,31.36512,-84.11445,Baconton,GA,Georgia,True,,2817.0,13.6,13205,Mitchell,"{""13205"": 100}",Mitchell,13205,False,False,America/New_York,"(31.36512, -84.11445)",208.99935610678466,20177193.0,12_0_no,32.71849371842212,-87.30613541353725,200.0
31719,32.08261,-84.29768,Americus,GA,Georgia,True,,8830.0,36.0,13261,Sumter,"{""13261"": 99.24, ""13249"": 0.76}",Sumter|Schley,13261|13249,False,False,America/New_York,"(32.08261, -84.29768)",180.91293049708548,20177193.0,12_0_no,32.71849371842212,-87.30613541353725,200.0
31721,31.5087,-84.30331,Albany,GA,Georgia,True,,20924.0,36.6,13095,Dougherty,"{""13095"": 82.76, ""13007"": 15.95, ""13177"": 0.67, ""13273"": 0.62}",Dougherty|Baker|Lee|Terrell,13095|13007|13177|13273,False,False,America/New_York,"(31.5087, -84.30331)",194.5865270553409,20177193.0,12_0_no,32.71849371842212,-87.30613541353725,200.0
31730,31.20749,-84.28438,Camilla,GA,Georgia,True,,7836.0,11.7,13205,Mitchell,"{""13205"": 96.94, ""13087"": 3.06}",Mitchell|Decatur,13205|13087,False,False,America/New_York,"(31.20749, -84.28438)",205.59287912514677,20177193.0,12_0_no,32.71849371842212,-87.30613541353725,200.0
31735,31.97195,-83.96446,Cobb,GA,Georgia,True,,581.0,11.3,13261,Sumter,"{""13261"": 100}",Sumter,13261,False,False,America/New_York,"(31.97195, -83.96446)",201.75728075386303,20177193.0,12_0_no,32.71849371842212,-87.30613541353725,200.0
31738,31.01133,-83.87502,Coolidge,GA,Georgia,True,,2232.0,13.8,13275,Thomas,"{""13275"": 73.56, ""13071"": 26.44}",Thomas|Colquitt,13275|13071,False,False,America/New_York,"(31.01133, -83.87502)",233.3262652620114,20177193.0,12_0_no,32.71849371842212,-87.30613541353725,200.0
31743,31.90089,-84.00604,De Soto,GA,Georgia,True,,326.0,1.9,13177,Lee,"{""13177"": 60.35, ""13261"": 39.65}",Lee|Sumter,13177|13261,False,False,America/New_York,"(31.90089, -84.00604)",200.81011042802214,20177193.0,12_0_no,32.71849371842212,-87.30613541353725,200.0
31744,31.33709,-83.90646,Doerun,GA,Georgia,True,,2763.0,8.8,13321,Worth,"{""13321"": 54.05, ""13071"": 42.8, ""13205"": 3.15}",Worth|Colquitt|Mitchell,13321|13071|13205,False,False,America/New_York,"(31.33709, -83.90646)",220.81670433798274,20177193.0,12_0_no,32.71849371842212,-87.30613541353725,200.0
31756,31.17558,-83.96224,Hartsfield,GA,Georgia,True,,1048.0,9.4,13071,Colquitt,"{""13071"": 100}",Colquitt,13071,False,False,America/New_York,"(31.17558, -83.96224)",223.1390778352101,20177193.0,12_0_no,32.71849371842212,-87.30613541353725,200.0
31757,30.87291,-83.89945,Thomasville,GA,Georgia,True,,10977.0,50.1,13275,Thomas,"{""13275"": 100}",Thomas,13275,False,False,America/New_York,"(30.87291, -83.89945)",237.2186799532544,20177193.0,12_0_no,32.71849371842212,-87.30613541353725,200.0
31763,31.73889,-84.14711,Leesburg,GA,Georgia,True,,24307.0,37.9,13177,Lee,"{""13177"": 99.05, ""13095"": 0.79, ""13273"": 0.16}",Lee|Dougherty|Terrell,13177|13095|13273,False,False,America/New_York,"(31.73889, -84.14711)",196.64243874535524,20177193.0,12_0_no,32.71849371842212,-87.30613541353725,200.0
31764,31.9772,-84.08135,Leslie,GA,Georgia,True,,1844.0,9.4,13261,Sumter,"{""13261"": 85.92, ""13177"": 14.08}",Sumter|Lee,13261|13177,False,False,America/New_York,"(31.9772, -84.08135)",195.0687187780526,20177193.0,12_0_no,32.71849371842212,-87.30613541353725,200.0
31765,31.09514,-84.0346,Meigs,GA,Georgia,True,,2577.0,12.0,13205,Mitchell,"{""13205"": 50.07, ""13275"": 28.97, ""13071"": 20.96}",Mitchell|Thomas|Colquitt,13205|13275|13071,False,False,America/New_York,"(31.09514, -84.0346)",222.24691876341183,20177193.0,12_0_no,32.71849371842212,-87.30613541353725,200.0
31772,31.72213,-83.96504,Oakfield,GA,Georgia,True,,522.0,3.7,13321,Worth,"{""13321"": 100}",Worth,13321,False,False,America/New_York,"(31.72213, -83.96504)",207.0638177861434,20177193.0,12_0_no,32.71849371842212,-87.30613541353725,200.0
31773,30.97795,-84.04624,Ochlocknee,GA,Georgia,True,,4245.0,19.2,13275,Thomas,"{""13275"": 78.94, ""13131"": 19.09, ""13071"": 1.97}",Thomas|Grady|Colquitt,13275|13131|13071,False,False,America/New_York,"(30.97795, -84.04624)",225.96441759227486,20177193.0,12_0_no,32.71849371842212,-87.30613541353725,200.0
31779,31.10032,-84.19117,Pelham,GA,Georgia,True,,10338.0,29.5,13205,Mitchell,"{""13205"": 64.66, ""13131"": 33.15, ""13275"": 2.19}",Mitchell|Grady|Thomas,13205|13131|13275,False,False,America/New_York,"(31.10032, -84.19117)",214.1789281842094,20177193.0,12_0_no,32.71849371842212,-87.30613541353725,200.0
31780,32.02898,-84.39024,Plains,GA,Georgia,True,,1990.0,8.4,13261,Sumter,"{""13261"": 90.54, ""13307"": 9.46}",Sumter|Webster,13261|13307,False,False,America/New_York,"(32.02898, -84.39024)",176.6917965108085,20177193.0,12_0_no,32.71849371842212,-87.30613541353725,200.0
31784,31.25671,-84.0431,Sale City,GA,Georgia,True,,892.0,10.6,13205,Mitchell,"{""13205"": 100}",Mitchell,13205,False,False,America/New_York,"(31.25671, -84.0431)",216.2398394946792,20177193.0,12_0_no,32.71849371842212,-87.30613541353725,200.0
31787,31.89994,-84.24947,Smithville,GA,Georgia,True,,1418.0,6.5,13177,Lee,"{""13177"": 66.0, ""13261"": 34.0}",Lee|Sumter,13177|13261,False,False,America/New_York,"(31.89994, -84.24947)",187.23406590140007,20177193.0,12_0_no,32.71849371842212,-87.30613541353725,200.0
31791,31.53383,-83.87833,Sylvester,GA,Georgia,True,,11485.0,21.2,13321,Worth,"{""13321"": 99.64, ""13095"": 0.36}",Worth|Dougherty,13321|13095,False,False,America/New_York,"(31.53383, -83.87833)",216.61757023833033,20177193.0,12_0_no,32.71849371842212,-87.30613541353725,200.0
31792,30.77079,-84.04238,Thomasville,GA,Georgia,True,,22458.0,41.0,13275,Thomas,"{""13275"": 70.8, ""13131"": 29.2}",Thomas|Grady,13275|13131,False,False,America/New_York,"(30.77079, -84.04238)",234.2541229287257,20177193.0,12_0_no,32.71849371842212,-87.30613541353725,200.0
31796,31.77351,-83.87659,Warwick,GA,Georgia,True,,1462.0,8.0,13321,Worth,"{""13321"": 99.1, ""13081"": 0.9}",Worth|Crisp,13321|13081,False,False,America/New_York,"(31.77351, -83.87659)",210.76642440540783,20177193.0,12_0_no,32.71849371842212,-87.30613541353725,200.0
31801,32.51765,-84.5906,Box Springs,GA,Georgia,True,,3068.0,13.8,13197,Marion,"{""13197"": 64.88, ""13263"": 32.63, ""13215"": 2.49}",Marion|Talbot|Muscogee,13197|13263|13215,False,False,America/New_York,"(32.51765, -84.5906)",158.63740506865602,20177193.0,12_0_no,32.71849371842212,-87.30613541353725,200.0
31803,32.30501,-84.51682,Buena Vista,GA,Georgia,True,,5367.0,7.3,13197,Marion,"{""13197"": 93.63, ""13249"": 5.63, ""13307"": 0.74}",Marion|Schley|Webster,13197|13249|13307,False,False,America/New_York,"(32.30501, -84.51682)",165.00656958294744,20177193.0,12_0_no,32.71849371842212,-87.30613541353725,200.0
31804,32.66199,-84.88402,Cataula,GA,Georgia,True,,6151.0,49.4,13145,Harris,"{""13145"": 100}",Harris,13145,False,False,America/New_York,"(32.66199, -84.88402)",140.89513219846165,20177193.0,12_0_no,32.71849371842212,-87.30613541353725,200.0
31805,32.26621,-84.74612,Cusseta,GA,Georgia,True,,2790.0,15.9,13053,Chattahoochee,"{""13053"": 83.37, ""13259"": 16.63}",Chattahoochee|Stewart,13053|13259,False,False,America/New_York,"(32.26621, -84.74612)",152.42527339294634,20177193.0,12_0_no,32.71849371842212,-87.30613541353725,200.0
31806,32.26147,-84.30043,Ellaville,GA,Georgia,True,,5135.0,12.4,13249,Schley,"{""13249"": 92.86, ""13193"": 7.14}",Schley|Macon,13249|13193,False,False,America/New_York,"(32.26147, -84.30043)",177.98706766928402,20177193.0,12_0_no,32.71849371842212,-87.30613541353725,200.0
31807,32.64054,-84.80142,Ellerslie,GA,Georgia,True,,2489.0,71.5,13145,Harris,"{""13145"": 100}",Harris,13145,False,False,America/New_York,"(32.64054, -84.80142)",145.7608638531044,20177193.0,12_0_no,32.71849371842212,-87.30613541353725,200.0
31808,32.63545,-85.00707,Fortson,GA,Georgia,True,,9077.0,63.2,13145,Harris,"{""13145"": 79.64, ""13215"": 20.36}",Harris|Muscogee,13145|13215,False,False,America/New_York,"(32.63545, -85.00707)",133.82912799116366,20177193.0,12_0_no,32.71849371842212,-87.30613541353725,200.0
31810,32.56775,-84.53236,Geneva,GA,Georgia,True,,206.0,5.0,13263,Talbot,"{""13263"": 100}",Talbot,13263,False,False,America/New_York,"(32.56775, -84.53236)",161.709007760371,20177193.0,12_0_no,32.71849371842212,-87.30613541353725,200.0
31811,32.74522,-84.93327,Hamilton,GA,Georgia,True,,6204.0,18.3,13145,Harris,"{""13145"": 100}",Harris,13145,False,False,America/New_York,"(32.74522, -84.93327)",137.92538398116446,20177193.0,12_0_no,32.71849371842212,-87.30613541353725,200.0
31812,32.63173,-84.42019,Junction City,GA,Georgia,True,,682.0,4.0,13263,Talbot,"{""13263"": 79.54, ""13269"": 20.46}",Talbot|Taylor,13263|13269,False,False,America/New_York,"(32.63173, -84.42019)",167.9457066662912,20177193.0,12_0_no,32.71849371842212,-87.30613541353725,200.0
31814,32.20531,-84.8614,Louvale,GA,Georgia,True,,55.0,1.3,13259,Stewart,"{""13259"": 100}",Stewart,13259,False,False,America/New_York,"(32.20531, -84.8614)",146.86232851877008,20177193.0,12_0_no,32.71849371842212,-87.30613541353725,200.0
31815,32.04117,-84.85407,Lumpkin,GA,Georgia,True,,3949.0,6.0,13259,Stewart,"{""13259"": 100}",Stewart,13259,False,False,America/New_York,"(32.04117, -84.85407)",150.53364912748222,20177193.0,12_0_no,32.71849371842212,-87.30613541353725,200.0
31816,32.8762,-84.60169,Manchester,GA,Georgia,True,,5510.0,56.7,13199,Meriwether,"{""13199"": 85.89, ""13263"": 14.11}",Meriwether|Talbot,13199|13263,False,False,America/New_York,"(32.8762, -84.60169)",157.44556424801172,20177193.0,12_0_no,32.71849371842212,-87.30613541353725,200.0
31820,32.57576,-84.82947,Midland,GA,Georgia,True,,11832.0,110.6,13215,Muscogee,"{""13215"": 60.23, ""13145"": 39.77}",Muscogee|Harris,13215|13145,False,False,America/New_York,"(32.57576, -84.82947)",144.41941936985322,20177193.0,12_0_no,32.71849371842212,-87.30613541353725,200.0
31821,32.14048,-84.97083,Omaha,GA,Georgia,True,,227.0,1.3,13259,Stewart,"{""13259"": 100}",Stewart,13259,False,False,America/Chicago,"(32.14048, -84.97083)",141.92238543348148,20177193.0,12_0_no,32.71849371842212,-87.30613541353725,200.0
31822,32.86708,-84.91107,Pine Mountain,GA,Georgia,True,,6166.0,20.6,13145,Harris,"{""13145"": 49.84, ""13285"": 32.47, ""13199"": 17.69}",Harris|Troup|Meriwether,13145|13285|13199,False,False,America/New_York,"(32.86708, -84.91107)",139.4862452923105,20177193.0,12_0_no,32.71849371842212,-87.30613541353725,200.0
31823,32.80061,-84.81377,Pine Mountain Valley,GA,Georgia,True,,690.0,35.9,13145,Harris,"{""13145"": 100}",Harris,13145,False,False,America/New_York,"(32.80061, -84.81377)",144.92420377718236,20177193.0,12_0_no,32.71849371842212,-87.30613541353725,200.0
31824,32.05687,-84.5229,Preston,GA,Georgia,True,,1507.0,5.0,13307,Webster,"{""13307"": 98.18, ""13197"": 1.82}",Webster|Marion,13307|13197,False,False,America/New_York,"(32.05687, -84.5229)",168.69457058449592,20177193.0,12_0_no,32.71849371842212,-87.30613541353725,200.0
31825,32.1081,-84.6693,Richland,GA,Georgia,True,,2471.0,6.6,13259,Stewart,"{""13259"": 70.21, ""13307"": 29.79}",Stewart|Webster,13259|13307,False,False,America/New_York,"(32.1081, -84.6693)",159.47588188274145,20177193.0,12_0_no,32.71849371842212,-87.30613541353725,200.0
31826,32.79526,-84.70292,Shiloh,GA,Georgia,True,,2065.0,15.5,13145,Harris,"{""13145"": 65.99, ""13263"": 34.01}",Harris|Talbot,13145|13263,False,False,America/New_York,"(32.79526, -84.70292)",151.35098010337202,20177193.0,12_0_no,32.71849371842212,-87.30613541353725,200.0
31827,32.69821,-84.49847,Talbotton,GA,Georgia,True,,2152.0,5.4,13263,Talbot,"{""13263"": 100}",Talbot,13263,False,False,America/New_York,"(32.69821, -84.49847)",163.23165534286366,20177193.0,12_0_no,32.71849371842212,-87.30613541353725,200.0
31829,32.56681,-84.72787,Upatoi,GA,Georgia,True,,1251.0,36.2,13215,Muscogee,"{""13215"": 84.22, ""13145"": 15.78}",Muscogee|Harris,13215|13145,False,False,America/New_York,"(32.56681, -84.72787)",150.3658680500771,20177193.0,12_0_no,32.71849371842212,-87.30613541353725,200.0
31830,32.8951,-84.72689,Warm Springs,GA,Georgia,True,,2354.0,16.6,13199,Meriwether,"{""13199"": 90.2, ""13145"": 9.8}",Meriwether|Harris,13199|13145,False,False,America/New_York,"(32.8951, -84.72689)",150.27736315972635,20177193.0,12_0_no,32.71849371842212,-87.30613541353725,200.0
31831,32.66486,-84.70701,Waverly Hall,GA,Georgia,True,,2951.0,15.5,13145,Harris,"{""13145"": 62.4, ""13263"": 37.6}",Harris|Talbot,13145|13263,False,False,America/New_York,"(32.66486, -84.70701)",151.1763014703678,20177193.0,12_0_no,32.71849371842212,-87.30613541353725,200.0
31832,31.95501,-84.61709,Weston,GA,Georgia,True,,222.0,3.0,13307,Webster,"{""13307"": 87.56, ""13243"": 12.44}",Webster|Randolph,13307|13243,False,False,America/New_York,"(31.95501, -84.61709)",165.60190681457388,20177193.0,12_0_no,32.71849371842212,-87.30613541353725,200.0
31833,32.84963,-85.09202,West Point,GA,Georgia,True,,6883.0,27.2,13145,Harris,"{""13145"": 60.91, ""13285"": 39.09}",Harris|Troup,13145|13285,False,False,America/New_York,"(32.84963, -85.09202)",128.92995905085058,20177193.0,12_0_no,32.71849371842212,-87.30613541353725,200.0
31836,32.79189,-84.54891,Woodland,GA,Georgia,True,,993.0,4.3,13263,Talbot,"{""13263"": 100}",Talbot,13263,False,False,America/New_York,"(32.79189, -84.54891)",160.28943888572465,20177193.0,12_0_no,32.71849371842212,-87.30613541353725,200.0
31901,32.46461,-84.97986,Columbus,GA,Georgia,True,,6150.0,540.2,13215,Muscogee,"{""13215"": 100}",Muscogee,13215,False,False,America/New_York,"(32.46461, -84.97986)",136.54889674809343,20177193.0,12_0_no,32.71849371842212,-87.30613541353725,200.0
31903,32.41484,-84.95321,Columbus,GA,Georgia,True,,17796.0,688.8,13215,Muscogee,"{""13215"": 100}",Muscogee,13215,False,False,America/New_York,"(32.41484, -84.95321)",138.6037832987778,20177193.0,12_0_no,32.71849371842212,-87.30613541353725,200.0
31904,32.55189,-85.00009,Columbus,GA,Georgia,True,,32087.0,450.3,13215,Muscogee,"{""13215"": 100}",Muscogee,13215,False,False,America/New_York,"(32.55189, -85.00009)",134.66749224614804,20177193.0,12_0_no,32.71849371842212,-87.30613541353725,200.0
31905,32.37304,-84.84331,Fort Benning,GA,Georgia,True,,17867.0,75.7,13053,Chattahoochee,"{""13053"": 80.96, ""13215"": 19.04}",Chattahoochee|Muscogee,13053|13215,False,False,America/New_York,"(32.37304, -84.84331)",145.41130518673512,20177193.0,12_0_no,32.71849371842212,-87.30613541353725,200.0
31906,32.46815,-84.94963,Columbus,GA,Georgia,True,,20114.0,1130.6,13215,Muscogee,"{""13215"": 100}",Muscogee,13215,False,False,America/New_York,"(32.46815, -84.94963)",138.26068908065793,20177193.0,12_0_no,32.71849371842212,-87.30613541353725,200.0
31907,32.48388,-84.89976,Columbus,GA,Georgia,True,,58615.0,949.0,13215,Muscogee,"{""13215"": 100}",Muscogee,13215,False,False,America/New_York,"(32.48388, -84.89976)",140.99995441132623,20177193.0,12_0_no,32.71849371842212,-87.30613541353725,200.0
31909,32.54517,-84.92385,Columbus,GA,Georgia,True,,38486.0,794.6,13215,Muscogee,"{""13215"": 100}",Muscogee,13215,False,False,America/New_York,"(32.54517, -84.92385)",139.13190237331008,20177193.0,12_0_no,32.71849371842212,-87.30613541353725,200.0
32301,30.42701,-84.25799,Tallahassee,FL,Florida,True,,32552.0,1231.8,12073,Leon,"{""12073"": 100}",Leon,12073,False,False,America/New_York,"(30.42701, -84.25799)",239.27357877926553,20177193.0,12_0_no,32.71849371842212,-87.30613541353725,200.0
32303,30.51237,-84.34386,Tallahassee,FL,Florida,True,,49073.0,544.1,12073,Leon,"{""12073"": 100}",Leon,12073,False,False,America/New_York,"(30.51237, -84.34386)",231.52566830882384,20177193.0,12_0_no,32.71849371842212,-87.30613541353725,200.0
32304,30.45346,-84.35314,Tallahassee,FL,Florida,True,,50298.0,1279.7,12073,Leon,"{""12073"": 100}",Leon,12073,False,False,America/New_York,"(30.45346, -84.35314)",233.859506593217,20177193.0,12_0_no,32.71849371842212,-87.30613541353725,200.0
32305,30.3337,-84.26977,Tallahassee,FL,Florida,True,,21533.0,86.6,12073,Leon,"{""12073"": 100}",Leon,12073,False,False,America/New_York,"(30.3337, -84.26977)",243.1416396364138,20177193.0,12_0_no,32.71849371842212,-87.30613541353725,200.0
32308,30.4781,-84.21968,Tallahassee,FL,Florida,True,,21870.0,534.2,12073,Leon,"{""12073"": 100}",Leon,12073,False,False,America/New_York,"(30.4781, -84.21968)",238.6270771178592,20177193.0,12_0_no,32.71849371842212,-87.30613541353725,200.0
32309,30.57174,-84.10128,Tallahassee,FL,Florida,True,,33359.0,105.6,12073,Leon,"{""12073"": 100}",Leon,12073,False,False,America/New_York,"(30.57174, -84.10128)",239.84459309381492,20177193.0,12_0_no,32.71849371842212,-87.30613541353725,200.0
32310,30.39924,-84.50694,Tallahassee,FL,Florida,True,,15265.0,64.1,12073,Leon,"{""12073"": 100}",Leon,12073,False,False,America/New_York,"(30.39924, -84.50694)",229.84507698637506,20177193.0,12_0_no,32.71849371842212,-87.30613541353725,200.0
32311,30.39647,-84.16843,Tallahassee,FL,Florida,True,,20897.0,142.8,12073,Leon,"{""12073"": 100}",Leon,12073,False,False,America/New_York,"(30.39647, -84.16843)",244.65143395467155,20177193.0,12_0_no,32.71849371842212,-87.30613541353725,200.0
32312,30.60421,-84.23996,Tallahassee,FL,Florida,True,,32380.0,133.9,12073,Leon,"{""12073"": 100}",Leon,12073,False,False,America/New_York,"(30.60421, -84.23996)",232.04760522450815,20177193.0,12_0_no,32.71849371842212,-87.30613541353725,200.0
32317,30.46746,-84.11442,Tallahassee,FL,Florida,True,,14636.0,159.0,12073,Leon,"{""12073"": 100}",Leon,12073,False,False,America/New_York,"(30.46746, -84.11442)",243.84977222619946,20177193.0,12_0_no,32.71849371842212,-87.30613541353725,200.0
32321,30.26196,-84.9891,Bristol,FL,Florida,True,,6534.0,6.7,12077,Liberty,"{""12077"": 97.72, ""12037"": 2.28}",Liberty|Franklin,12077|12037,False,False,America/New_York,"(30.26196, -84.9891)",217.80260682223215,20177193.0,12_0_no,32.71849371842212,-87.30613541353725,200.0
32322,29.89948,-84.62327,Carrabelle,FL,Florida,True,,3721.0,19.1,12037,Franklin,"{""12037"": 100}",Franklin,12037,False,False,America/New_York,"(29.89948, -84.62327)",251.0139179668373,20177193.0,12_0_no,32.71849371842212,-87.30613541353725,200.0
32323,29.89185,-84.6122,Lanark Village,FL,Florida,True,,113.0,5.9,12037,Franklin,"{""12037"": 100}",Franklin,12037,False,False,America/New_York,"(29.89185, -84.6122)",251.8390923271609,20177193.0,12_0_no,32.71849371842212,-87.30613541353725,200.0
32324,30.65635,-84.79126,Chattahoochee,FL,Florida,True,,4858.0,27.8,12039,Gadsden,"{""12039"": 100}",Gadsden,12039,False,False,America/New_York,"(30.65635, -84.79126)",205.32098449328245,20177193.0,12_0_no,32.71849371842212,-87.30613541353725,200.0
32327,30.18705,-84.30472,Crawfordville,FL,Florida,True,,29688.0,48.7,12129,Wakulla,"{""12129"": 100}",Wakulla,12129,False,False,America/New_York,"(30.18705, -84.30472)",248.74860555572116,20177193.0,12_0_no,32.71849371842212,-87.30613541353725,200.0
32328,29.8463,-84.90991,Eastpoint,FL,Florida,True,,3682.0,16.6,12037,Franklin,"{""12037"": 100}",Franklin,12037,False,False,America/New_York,"(29.8463, -84.90991)",243.7069414247544,20177193.0,12_0_no,32.71849371842212,-87.30613541353725,200.0
32330,30.57859,-84.74799,Greensboro,FL,Florida,True,,743.0,79.7,12039,Gadsden,"{""12039"": 100}",Gadsden,12039,False,False,America/New_York,"(30.57859, -84.74799)",210.93520467624666,20177193.0,12_0_no,32.71849371842212,-87.30613541353725,200.0
32332,30.61168,-84.6657,Gretna,FL,Florida,True,,1103.0,121.8,12039,Gadsden,"{""12039"": 100}",Gadsden,12039,False,False,America/New_York,"(30.61168, -84.6657)",212.82356454663096,20177193.0,12_0_no,32.71849371842212,-87.30613541353725,200.0
32333,30.60677,-84.41249,Havana,FL,Florida,True,,11805.0,43.2,12039,Gadsden,"{""12039"": 100}",Gadsden,12039,False,False,America/New_York,"(30.60677, -84.41249)",224.1398307756104,20177193.0,12_0_no,32.71849371842212,-87.30613541353725,200.0
32334,30.2612,-84.75835,Hosford,FL,Florida,True,,1799.0,3.1,12077,Liberty,"{""12077"": 100}",Liberty,12077,False,False,America/New_York,"(30.2612, -84.75835)",226.60794029688938,20177193.0,12_0_no,32.71849371842212,-87.30613541353725,200.0
32343,30.48515,-84.47652,Midway,FL,Florida,True,,3153.0,45.4,12039,Gadsden,"{""12039"": 100}",Gadsden,12039,False,False,America/New_York,"(30.48515, -84.47652)",227.00200480599077,20177193.0,12_0_no,32.71849371842212,-87.30613541353725,200.0
32344,30.44645,-83.91902,Monticello,FL,Florida,True,,12580.0,10.9,12065,Jefferson,"{""12065"": 100}",Jefferson,12065,False,False,America/New_York,"(30.44645, -83.91902)",253.72392762126685,20177193.0,12_0_no,32.71849371842212,-87.30613541353725,200.0
32346,29.97919,-84.38387,Panacea,FL,Florida,True,,1709.0,23.2,12129,Wakulla,"{""12129"": 60.54, ""12037"": 39.46}",Wakulla|Franklin,12129|12037,False,False,America/New_York,"(29.97919, -84.38387)",256.01170178422694,20177193.0,12_0_no,32.71849371842212,-87.30613541353725,200.0
32351,30.52358,-84.68362,Quincy,FL,Florida,True,,18095.0,32.8,12039,Gadsden,"{""12039"": 100}",Gadsden,12039,False,False,America/New_York,"(30.52358, -84.68362)",216.33101124309542,20177193.0,12_0_no,32.71849371842212,-87.30613541353725,200.0
32352,30.6499,-84.58535,Quincy,FL,Florida,True,,6030.0,24.1,12039,Gadsden,"{""12039"": 100}",Gadsden,12039,False,False,America/New_York,"(30.6499, -84.58535)",214.50166608818395,20177193.0,12_0_no,32.71849371842212,-87.30613541353725,200.0
32355,30.1695,-84.21002,Saint Marks,FL,Florida,True,,340.0,47.3,12129,Wakulla,"{""12129"": 100}",Wakulla,12129,False,False,America/New_York,"(30.1695, -84.21002)",253.5995352634514,20177193.0,12_0_no,32.71849371842212,-87.30613541353725,200.0
32358,30.09535,-84.54468,Sopchoppy,FL,Florida,True,,1481.0,3.2,12129,Wakulla,"{""12129"": 84.78, ""12037"": 15.22}",Wakulla|Franklin,12129|12037,False,False,America/New_York,"(30.09535, -84.54468)",243.63014613523652,20177193.0,12_0_no,32.71849371842212,-87.30613541353725,200.0
32361,30.35765,-83.98865,Wacissa,FL,Florida,True,,358.0,59.9,12065,Jefferson,"{""12065"": 100}",Jefferson,12065,False,False,America/New_York,"(30.35765, -83.98865)",254.4771932341641,20177193.0,12_0_no,32.71849371842212,-87.30613541353725,200.0
32401,30.14477,-85.67448,Panama City,FL,Florida,True,,21045.0,650.3,12005,Bay,"{""12005"": 100}",Bay,12005,False,False,America/Chicago,"(30.14477, -85.67448)",202.16921829028934,20177193.0,12_0_no,32.71849371842212,-87.30613541353725,200.0
32403,30.05337,-85.55679,Panama City,FL,Florida,True,,2072.0,18.1,12005,Bay,"{""12005"": 100}",Bay,12005,False,False,America/Chicago,"(30.05337, -85.55679)",211.07069035583916,20177193.0,12_0_no,32.71849371842212,-87.30613541353725,200.0
32404,30.19075,-85.51122,Panama City,FL,Florida,True,,40300.0,115.2,12005,Bay,"{""12005"": 100}",Bay,12005,False,False,America/Chicago,"(30.19075, -85.51122)",204.1833580604301,20177193.0,12_0_no,32.71849371842212,-87.30613541353725,200.0
32405,30.20002,-85.66869,Panama City,FL,Florida,True,,31875.0,655.4,12005,Bay,"{""12005"": 100}",Bay,12005,False,False,America/Chicago,"(30.20002, -85.66869)",198.9715878850146,20177193.0,12_0_no,32.71849371842212,-87.30613541353725,200.0
32407,30.20276,-85.7912,Panama City Beach,FL,Florida,True,,11277.0,291.9,12005,Bay,"{""12005"": 100}",Bay,12005,False,False,America/Chicago,"(30.20276, -85.7912)",195.40371537822264,20177193.0,12_0_no,32.71849371842212,-87.30613541353725,200.0
32408,30.1593,-85.75324,Panama City,FL,Florida,True,,19463.0,876.6,12005,Bay,"{""12005"": 100}",Bay,12005,False,False,America/Chicago,"(30.1593, -85.75324)",199.10718800729188,20177193.0,12_0_no,32.71849371842212,-87.30613541353725,200.0
32409,30.33447,-85.70516,Panama City,FL,Florida,True,,9913.0,30.2,12005,Bay,"{""12005"": 100}",Bay,12005,False,False,America/Chicago,"(30.33447, -85.70516)",189.79052680563655,20177193.0,12_0_no,32.71849371842212,-87.30613541353725,200.0
32410,29.94805,-85.41812,Mexico Beach,FL,Florida,True,,901.0,222.9,12005,Bay,"{""12005"": 100}",Bay,12005,False,False,America/Chicago,"(29.94805, -85.41812)",221.4754152397488,20177193.0,12_0_no,32.71849371842212,-87.30613541353725,200.0
32413,30.30975,-85.88745,Panama City Beach,FL,Florida,True,,14551.0,51.9,12005,Bay,"{""12005"": 99.58, ""12131"": 0.42}",Bay|Walton,12005|12131,False,False,America/Chicago,"(30.30975, -85.88745)",186.22343628856555,20177193.0,12_0_no,32.71849371842212,-87.30613541353725,200.0
32420,30.63637,-85.38123,Alford,FL,Florida,True,,2263.0,16.5,12063,Jackson,"{""12063"": 97.62, ""12133"": 2.38}",Jackson|Washington,12063|12133,False,False,America/Chicago,"(30.63637, -85.38123)",183.03894040404518,20177193.0,12_0_no,32.71849371842212,-87.30613541353725,200.0
32421,30.52973,-85.19308,Altha,FL,Florida,True,,4793.0,14.7,12013,Calhoun,"{""12013"": 100}",Calhoun,12013,False,False,America/Chicago,"(30.52973, -85.19308)",195.7570685065398,20177193.0,12_0_no,32.71849371842212,-87.30613541353725,200.0
32423,30.94496,-85.06073,Bascom,FL,Florida,True,,955.0,5.5,12063,Jackson,"{""12063"": 100}",Jackson,12063,False,False,America/Chicago,"(30.94496, -85.06073)",179.96120713551517,20177193.0,12_0_no,32.71849371842212,-87.30613541353725,200.0
32424,30.38901,-85.08232,Blountstown,FL,Florida,True,,7643.0,18.6,12013,Calhoun,"{""12013"": 100}",Calhoun,12013,False,False,America/Chicago,"(30.38901, -85.08232)",207.46937511998428,20177193.0,12_0_no,32.71849371842212,-87.30613541353725,200.0
