zip,lat,lng,city,state_id,state_name,zcta,parent_zcta,population,density,county_fips,county_name,county_weights,county_names_all,county_fips_all,imprecise,military,timezone,Coord,distance_miles,market_total_population,market_id,market_center_lat,market_center_lng,radius_miles
90008,34.01037,-118.3428,Los Angeles,CA,California,True,,31900.0,4256.9,6037,Los Angeles,"{""06037"": 100}",Los Angeles,06037,False,False,America/Los_Angeles,"(34.01037, -118.3428)",200.4097964422513,6519318.0,17_0_no,33.67738419541165,-121.81219196210554,200.0
90016,34.02881,-118.35436,Los Angeles,CA,California,True,,46340.0,4974.1,6037,Los Angeles,"{""06037"": 100}",Los Angeles,06037,False,False,America/Los_Angeles,"(34.02881, -118.35436)",199.8803296676414,6519318.0,17_0_no,33.67738419541165,-121.81219196210554,200.0
90024,34.06565,-118.43521,Los Angeles,CA,California,True,,52069.0,6760.2,6037,Los Angeles,"{""06037"": 100}",Los Angeles,06037,False,False,America/Los_Angeles,"(34.06565, -118.43521)",195.5682293284797,6519318.0,17_0_no,33.67738419541165,-121.81219196210554,200.0
90025,34.04551,-118.44583,Los Angeles,CA,California,True,,47438.0,7180.2,6037,Los Angeles,"{""06037"": 100}",Los Angeles,06037,False,False,America/Los_Angeles,"(34.04551, -118.44583)",194.8009276621897,6519318.0,17_0_no,33.67738419541165,-121.81219196210554,200.0
90034,34.03059,-118.39936,Los Angeles,CA,California,True,,56416.0,7023.9,6037,Los Angeles,"{""06037"": 100}",Los Angeles,06037,False,False,America/Los_Angeles,"(34.03059, -118.39936)",197.3311122606698,6519318.0,17_0_no,33.67738419541165,-121.81219196210554,200.0
90035,34.05139,-118.38577,Los Angeles,CA,California,True,,27725.0,4703.6,6037,Los Angeles,"{""06037"": 100}",Los Angeles,06037,False,False,America/Los_Angeles,"(34.05139, -118.38577)",198.2631629219176,6519318.0,17_0_no,33.67738419541165,-121.81219196210554,200.0
90036,34.07013,-118.34978,Los Angeles,CA,California,True,,38111.0,5992.0,6037,Los Angeles,"{""06037"": 100}",Los Angeles,06037,False,False,America/Los_Angeles,"(34.07013, -118.34978)",200.45972415003786,6519318.0,17_0_no,33.67738419541165,-121.81219196210554,200.0
90045,33.95302,-118.40028,Los Angeles,CA,California,True,,39795.0,1428.1,6037,Los Angeles,"{""06037"": 100}",Los Angeles,06037,False,False,America/Los_Angeles,"(33.95302, -118.40028)",196.77638584444426,6519318.0,17_0_no,33.67738419541165,-121.81219196210554,200.0
90046,34.10752,-118.36575,Los Angeles,CA,California,True,,49828.0,3395.6,6037,Los Angeles,"{""06037"": 100}",Los Angeles,06037,False,False,America/Los_Angeles,"(34.10752, -118.36575)",199.8768582024601,6519318.0,17_0_no,33.67738419541165,-121.81219196210554,200.0
90048,34.07293,-118.3727,Los Angeles,CA,California,True,,21766.0,4437.8,6037,Los Angeles,"{""06037"": 100}",Los Angeles,06037,False,False,America/Los_Angeles,"(34.07293, -118.3727)",199.18049950018425,6519318.0,17_0_no,33.67738419541165,-121.81219196210554,200.0
90049,34.08749,-118.48976,Los Angeles,CA,California,True,,36610.0,944.1,6037,Los Angeles,"{""06037"": 100}",Los Angeles,06037,False,False,America/Los_Angeles,"(34.08749, -118.48976)",192.661211944143,6519318.0,17_0_no,33.67738419541165,-121.81219196210554,200.0
90056,33.99361,-118.36884,Los Angeles,CA,California,True,,8058.0,1378.1,6037,Los Angeles,"{""06037"": 100}",Los Angeles,06037,False,False,America/Los_Angeles,"(33.99361, -118.36884)",198.81435351317208,6519318.0,17_0_no,33.67738419541165,-121.81219196210554,200.0
90064,34.0358,-118.42653,Los Angeles,CA,California,True,,25988.0,2694.1,6037,Los Angeles,"{""06037"": 100}",Los Angeles,06037,False,False,America/Los_Angeles,"(34.0358, -118.42653)",195.82369265219322,6519318.0,17_0_no,33.67738419541165,-121.81219196210554,200.0
90066,34.00166,-118.43104,Los Angeles,CA,California,True,,58851.0,4725.6,6037,Los Angeles,"{""06037"": 100}",Los Angeles,06037,False,False,America/Los_Angeles,"(34.00166, -118.43104)",195.32101038814397,6519318.0,17_0_no,33.67738419541165,-121.81219196210554,200.0
90067,34.0565,-118.41373,Los Angeles,CA,California,True,,2560.0,2297.8,6037,Los Angeles,"{""06037"": 100}",Los Angeles,06037,False,False,America/Los_Angeles,"(34.0565, -118.41373)",196.7139489791605,6519318.0,17_0_no,33.67738419541165,-121.81219196210554,200.0
90069,34.09401,-118.38154,West Hollywood,CA,California,True,,20035.0,3594.9,6037,Los Angeles,"{""06037"": 100}",Los Angeles,06037,False,False,America/Los_Angeles,"(34.09401, -118.38154)",198.85970027181173,6519318.0,17_0_no,33.67738419541165,-121.81219196210554,200.0
90073,34.05738,-118.45956,Los Angeles,CA,California,True,,962.0,692.4,6037,Los Angeles,"{""06037"": 100}",Los Angeles,06037,False,False,America/Los_Angeles,"(34.05738, -118.45956)",194.1159752004546,6519318.0,17_0_no,33.67738419541165,-121.81219196210554,200.0
90077,34.10536,-118.45591,Los Angeles,CA,California,True,,8328.0,442.8,6037,Los Angeles,"{""06037"": 100}",Los Angeles,06037,False,False,America/Los_Angeles,"(34.10536, -118.45591)",194.745300162919,6519318.0,17_0_no,33.67738419541165,-121.81219196210554,200.0
90094,33.97523,-118.41837,Playa Vista,CA,California,True,,9065.0,4898.5,6037,Los Angeles,"{""06037"": 100}",Los Angeles,06037,False,False,America/Los_Angeles,"(33.97523, -118.41837)",195.87299076089616,6519318.0,17_0_no,33.67738419541165,-121.81219196210554,200.0
90210,34.10251,-118.41505,Beverly Hills,CA,California,True,,19229.0,691.1,6037,Los Angeles,"{""06037"": 100}",Los Angeles,06037,False,False,America/Los_Angeles,"(34.10251, -118.41505)",197.03539609635442,6519318.0,17_0_no,33.67738419541165,-121.81219196210554,200.0
90211,34.06498,-118.38293,Beverly Hills,CA,California,True,,9211.0,5079.4,6037,Los Angeles,"{""06037"": 100}",Los Angeles,06037,False,False,America/Los_Angeles,"(34.06498, -118.38293)",198.53357750862074,6519318.0,17_0_no,33.67738419541165,-121.81219196210554,200.0
90212,34.06208,-118.40173,Beverly Hills,CA,California,True,,11878.0,4844.5,6037,Los Angeles,"{""06037"": 100}",Los Angeles,06037,False,False,America/Los_Angeles,"(34.06208, -118.40173)",197.44135909915698,6519318.0,17_0_no,33.67738419541165,-121.81219196210554,200.0
90230,33.99691,-118.39487,Culver City,CA,California,True,,33135.0,2818.0,6037,Los Angeles,"{""06037"": 100}",Los Angeles,06037,False,False,America/Los_Angeles,"(33.99691, -118.39487)",197.3513752067854,6519318.0,17_0_no,33.67738419541165,-121.81219196210554,200.0
90232,34.01859,-118.39157,Culver City,CA,California,True,,14921.0,2664.0,6037,Los Angeles,"{""06037"": 100}",Los Angeles,06037,False,False,America/Los_Angeles,"(34.01859, -118.39157)",197.68775321984097,6519318.0,17_0_no,33.67738419541165,-121.81219196210554,200.0
90245,33.91709,-118.40161,El Segundo,CA,California,True,,16575.0,1196.7,6037,Los Angeles,"{""06037"": 100}",Los Angeles,06037,False,False,America/Los_Angeles,"(33.91709, -118.40161)",196.5166616772687,6519318.0,17_0_no,33.67738419541165,-121.81219196210554,200.0
90250,33.91383,-118.34996,Hawthorne,CA,California,True,,95115.0,5426.1,6037,Los Angeles,"{""06037"": 100}",Los Angeles,06037,False,False,America/Los_Angeles,"(33.91383, -118.34996)",199.45666711614086,6519318.0,17_0_no,33.67738419541165,-121.81219196210554,200.0
90254,33.86532,-118.39616,Hermosa Beach,CA,California,True,,19147.0,5171.8,6037,Los Angeles,"{""06037"": 100}",Los Angeles,06037,False,False,America/Los_Angeles,"(33.86532, -118.39616)",196.61907041882282,6519318.0,17_0_no,33.67738419541165,-121.81219196210554,200.0
90260,33.88768,-118.34952,Lawndale,CA,California,True,,34540.0,5398.2,6037,Los Angeles,"{""06037"": 100}",Los Angeles,06037,False,False,America/Los_Angeles,"(33.88768, -118.34952)",199.3723628649363,6519318.0,17_0_no,33.67738419541165,-121.81219196210554,200.0
90263,34.03919,-118.70809,Malibu,CA,California,True,,1813.0,2993.3,6037,Los Angeles,"{""06037"": 100}",Los Angeles,06037,False,False,America/Los_Angeles,"(34.03919, -118.70809)",179.84072272190485,6519318.0,17_0_no,33.67738419541165,-121.81219196210554,200.0
90265,34.07282,-118.84995,Malibu,CA,California,True,,18028.0,62.7,6037,Los Angeles,"{""06037"": 68.4, ""06111"": 31.6}",Los Angeles|Ventura,06037|06111,False,False,America/Los_Angeles,"(34.07282, -118.84995)",172.1052604424967,6519318.0,17_0_no,33.67738419541165,-121.81219196210554,200.0
90266,33.88968,-118.39705,Manhattan Beach,CA,California,True,,35064.0,3344.2,6037,Los Angeles,"{""06037"": 100}",Los Angeles,06037,False,False,America/Los_Angeles,"(33.88968, -118.39705)",196.65855591720734,6519318.0,17_0_no,33.67738419541165,-121.81219196210554,200.0
90272,34.08066,-118.54459,Pacific Palisades,CA,California,True,,21848.0,354.3,6037,Los Angeles,"{""06037"": 100}",Los Angeles,06037,False,False,America/Los_Angeles,"(34.08066, -118.54459)",189.48881542188664,6519318.0,17_0_no,33.67738419541165,-121.81219196210554,200.0
90274,33.77732,-118.3684,Palos Verdes Peninsula,CA,California,True,,24541.0,791.4,6037,Los Angeles,"{""06037"": 100}",Los Angeles,06037,False,False,America/Los_Angeles,"(33.77732, -118.3684)",198.00609918469712,6519318.0,17_0_no,33.67738419541165,-121.81219196210554,200.0
90275,33.7555,-118.36338,Rancho Palos Verdes,CA,California,True,,41731.0,1190.7,6037,Los Angeles,"{""06037"": 100}",Los Angeles,06037,False,False,America/Los_Angeles,"(33.7555, -118.36338)",198.27278992996222,6519318.0,17_0_no,33.67738419541165,-121.81219196210554,200.0
90277,33.83099,-118.38441,Redondo Beach,CA,California,True,,34494.0,3721.0,6037,Los Angeles,"{""06037"": 100}",Los Angeles,06037,False,False,America/Los_Angeles,"(33.83099, -118.38441)",197.18990946726694,6519318.0,17_0_no,33.67738419541165,-121.81219196210554,200.0
90278,33.87362,-118.37028,Redondo Beach,CA,California,True,,40090.0,4216.6,6037,Los Angeles,"{""06037"": 100}",Los Angeles,06037,False,False,America/Los_Angeles,"(33.87362, -118.37028)",198.13089754426534,6519318.0,17_0_no,33.67738419541165,-121.81219196210554,200.0
90290,34.09725,-118.6125,Topanga,CA,California,True,,5200.0,107.2,6037,Los Angeles,"{""06037"": 100}",Los Angeles,06037,False,False,America/Los_Angeles,"(34.09725, -118.6125)",185.79485893386894,6519318.0,17_0_no,33.67738419541165,-121.81219196210554,200.0
90291,33.99447,-118.46315,Venice,CA,California,True,,27556.0,4318.7,6037,Los Angeles,"{""06037"": 100}",Los Angeles,06037,False,False,America/Los_Angeles,"(33.99447, -118.46315)",193.4419433547779,6519318.0,17_0_no,33.67738419541165,-121.81219196210554,200.0
90292,33.97865,-118.44707,Marina Del Rey,CA,California,True,,23931.0,4408.2,6037,Los Angeles,"{""06037"": 100}",Los Angeles,06037,False,False,America/Los_Angeles,"(33.97865, -118.44707)",194.2564152369924,6519318.0,17_0_no,33.67738419541165,-121.81219196210554,200.0
90293,33.95071,-118.43745,Playa Del Rey,CA,California,True,,12915.0,1819.5,6037,Los Angeles,"{""06037"": 100}",Los Angeles,06037,False,False,America/Los_Angeles,"(33.95071, -118.43745)",194.64010878418972,6519318.0,17_0_no,33.67738419541165,-121.81219196210554,200.0
90301,33.95647,-118.35863,Inglewood,CA,California,True,,39320.0,6118.4,6037,Los Angeles,"{""06037"": 100}",Los Angeles,06037,False,False,America/Los_Angeles,"(33.95647, -118.35863)",199.17483776864225,6519318.0,17_0_no,33.67738419541165,-121.81219196210554,200.0
90302,33.97472,-118.35565,Inglewood,CA,California,True,,29367.0,5926.5,6037,Los Angeles,"{""06037"": 100}",Los Angeles,06037,False,False,America/Los_Angeles,"(33.97472, -118.35565)",199.4498740351327,6519318.0,17_0_no,33.67738419541165,-121.81219196210554,200.0
90304,33.93736,-118.35879,Inglewood,CA,California,True,,26584.0,6260.2,6037,Los Angeles,"{""06037"": 100}",Los Angeles,06037,False,False,America/Los_Angeles,"(33.93736, -118.35879)",199.0643156446242,6519318.0,17_0_no,33.67738419541165,-121.81219196210554,200.0
90401,34.01584,-118.49251,Santa Monica,CA,California,True,,7079.0,3622.5,6037,Los Angeles,"{""06037"": 100}",Los Angeles,06037,False,False,America/Los_Angeles,"(34.01584, -118.49251)",191.91865671827716,6519318.0,17_0_no,33.67738419541165,-121.81219196210554,200.0
90402,34.03598,-118.50391,Santa Monica,CA,California,True,,11637.0,2200.1,6037,Los Angeles,"{""06037"": 100}",Los Angeles,06037,False,False,America/Los_Angeles,"(34.03598, -118.50391)",191.4222958095175,6519318.0,17_0_no,33.67738419541165,-121.81219196210554,200.0
90403,34.03164,-118.48975,Santa Monica,CA,California,True,,24359.0,6662.6,6037,Los Angeles,"{""06037"": 100}",Los Angeles,06037,False,False,America/Los_Angeles,"(34.03164, -118.48975)",192.19424997485066,6519318.0,17_0_no,33.67738419541165,-121.81219196210554,200.0
90404,34.02665,-118.47381,Santa Monica,CA,California,True,,23107.0,4526.4,6037,Los Angeles,"{""06037"": 100}",Los Angeles,06037,False,False,America/Los_Angeles,"(34.02665, -118.47381)",193.06350871144005,6519318.0,17_0_no,33.67738419541165,-121.81219196210554,200.0
90405,34.01208,-118.4679,Santa Monica,CA,California,True,,27509.0,3818.0,6037,Los Angeles,"{""06037"": 100}",Los Angeles,06037,False,False,America/Los_Angeles,"(34.01208, -118.4679)",193.29320228504807,6519318.0,17_0_no,33.67738419541165,-121.81219196210554,200.0
90503,33.84089,-118.3538,Torrance,CA,California,True,,44354.0,3251.5,6037,Los Angeles,"{""06037"": 100}",Los Angeles,06037,False,False,America/Los_Angeles,"(33.84089, -118.3538)",198.97175757594553,6519318.0,17_0_no,33.67738419541165,-121.81219196210554,200.0
90505,33.80904,-118.34775,Torrance,CA,California,True,,36820.0,2429.4,6037,Los Angeles,"{""06037"": 100}",Los Angeles,06037,False,False,America/Los_Angeles,"(33.80904, -118.34775)",199.24305300599312,6519318.0,17_0_no,33.67738419541165,-121.81219196210554,200.0
90704,33.3765,-118.43678,Avalon,CA,California,True,,4201.0,21.3,6037,Los Angeles,"{""06037"": 100}",Los Angeles,06037,False,False,America/Los_Angeles,"(33.3765, -118.43678)",195.5165516411025,6519318.0,17_0_no,33.67738419541165,-121.81219196210554,200.0
91301,34.12314,-118.75685,Agoura Hills,CA,California,True,,26021.0,303.4,6037,Los Angeles,"{""06037"": 100}",Los Angeles,06037,False,False,America/Los_Angeles,"(34.12314, -118.75685)",177.8972252024763,6519318.0,17_0_no,33.67738419541165,-121.81219196210554,200.0
91302,34.12295,-118.67193,Calabasas,CA,California,True,,26961.0,379.2,6037,Los Angeles,"{""06037"": 100}",Los Angeles,06037,False,False,America/Los_Angeles,"(34.12295, -118.67193)",182.69305299356037,6519318.0,17_0_no,33.67738419541165,-121.81219196210554,200.0
91303,34.19784,-118.6017,Canoga Park,CA,California,True,,31024.0,5662.3,6037,Los Angeles,"{""06037"": 100}",Los Angeles,06037,False,False,America/Los_Angeles,"(34.19784, -118.6017)",187.50679465358482,6519318.0,17_0_no,33.67738419541165,-121.81219196210554,200.0
91304,34.22472,-118.63261,Canoga Park,CA,California,True,,53637.0,2130.0,6037,Los Angeles,"{""06037"": 86.0, ""06111"": 14.0}",Los Angeles|Ventura,06037|06111,False,False,America/Los_Angeles,"(34.22472, -118.63261)",186.10846203755318,6519318.0,17_0_no,33.67738419541165,-121.81219196210554,200.0
91306,34.20926,-118.5755,Winnetka,CA,California,True,,50319.0,4673.1,6037,Los Angeles,"{""06037"": 100}",Los Angeles,06037,False,False,America/Los_Angeles,"(34.20926, -118.5755)",189.12026284688994,6519318.0,17_0_no,33.67738419541165,-121.81219196210554,200.0
91307,34.20177,-118.66226,West Hills,CA,California,True,,25794.0,1223.5,6037,Los Angeles,"{""06037"": 55.18, ""06111"": 44.82}",Los Angeles|Ventura,06037|06111,False,False,America/Los_Angeles,"(34.20177, -118.66226)",184.15051037681098,6519318.0,17_0_no,33.67738419541165,-121.81219196210554,200.0
91311,34.29011,-118.60776,Chatsworth,CA,California,True,,41811.0,495.7,6037,Los Angeles,"{""06037"": 96.78, ""06111"": 3.22}",Los Angeles|Ventura,06037|06111,False,False,America/Los_Angeles,"(34.29011, -118.60776)",188.39703346402888,6519318.0,17_0_no,33.67738419541165,-121.81219196210554,200.0
91316,34.15836,-118.51658,Encino,CA,California,True,,30412.0,2151.6,6037,Los Angeles,"{""06037"": 100}",Los Angeles,06037,False,False,America/Los_Angeles,"(34.15836, -118.51658)",191.8491648018197,6519318.0,17_0_no,33.67738419541165,-121.81219196210554,200.0
91320,34.17339,-118.94795,Newbury Park,CA,California,True,,44667.0,854.8,6111,Ventura,"{""06111"": 100}",Ventura,06111,False,False,America/Los_Angeles,"(34.17339, -118.94795)",167.74236635923762,6519318.0,17_0_no,33.67738419541165,-121.81219196210554,200.0
91321,34.36479,-118.4922,Newhall,CA,California,True,,34340.0,497.3,6037,Los Angeles,"{""06037"": 100}",Los Angeles,06037,False,False,America/Los_Angeles,"(34.36479, -118.4922)",195.9572895370979,6519318.0,17_0_no,33.67738419541165,-121.81219196210554,200.0
91324,34.23855,-118.55015,Northridge,CA,California,True,,30995.0,2810.8,6037,Los Angeles,"{""06037"": 100}",Los Angeles,06037,False,False,America/Los_Angeles,"(34.23855, -118.55015)",190.914573773784,6519318.0,17_0_no,33.67738419541165,-121.81219196210554,200.0
91325,34.23636,-118.51777,Northridge,CA,California,True,,34637.0,2777.0,6037,Los Angeles,"{""06037"": 100}",Los Angeles,06037,False,False,America/Los_Angeles,"(34.23636, -118.51777)",192.70370891715592,6519318.0,17_0_no,33.67738419541165,-121.81219196210554,200.0
91326,34.28022,-118.5566,Porter Ranch,CA,California,True,,36126.0,1722.1,6037,Los Angeles,"{""06037"": 100}",Los Angeles,06037,False,False,America/Los_Angeles,"(34.28022, -118.5566)",191.11443581739414,6519318.0,17_0_no,33.67738419541165,-121.81219196210554,200.0
91330,34.2446,-118.52669,Northridge,CA,California,True,,3136.0,2425.4,6037,Los Angeles,"{""06037"": 100}",Los Angeles,06037,False,False,America/Los_Angeles,"(34.2446, -118.52669)",192.30920237289857,6519318.0,17_0_no,33.67738419541165,-121.81219196210554,200.0
91331,34.25602,-118.41939,Pacoima,CA,California,True,,103683.0,4284.0,6037,Los Angeles,"{""06037"": 100}",Los Angeles,06037,False,False,America/Los_Angeles,"(34.25602, -118.41939)",198.47690211979514,6519318.0,17_0_no,33.67738419541165,-121.81219196210554,200.0
91335,34.20107,-118.5407,Reseda,CA,California,True,,80937.0,4759.1,6037,Los Angeles,"{""06037"": 100}",Los Angeles,06037,False,False,America/Los_Angeles,"(34.20107, -118.5407)",190.97796201730625,6519318.0,17_0_no,33.67738419541165,-121.81219196210554,200.0
91340,34.28668,-118.43479,San Fernando,CA,California,True,,37221.0,4188.6,6037,Los Angeles,"{""06037"": 100}",Los Angeles,06037,False,False,America/Los_Angeles,"(34.28668, -118.43479)",198.01786742279236,6519318.0,17_0_no,33.67738419541165,-121.81219196210554,200.0
91342,34.31778,-118.39207,Sylmar,CA,California,True,,94432.0,802.3,6037,Los Angeles,"{""06037"": 100}",Los Angeles,06037,False,False,America/Los_Angeles,"(34.31778, -118.39207)",200.83696343702195,6519318.0,17_0_no,33.67738419541165,-121.81219196210554,200.0
91343,34.23837,-118.48076,North Hills,CA,California,True,,65344.0,4259.5,6037,Los Angeles,"{""06037"": 100}",Los Angeles,06037,False,False,America/Los_Angeles,"(34.23837, -118.48076)",194.8072548212209,6519318.0,17_0_no,33.67738419541165,-121.81219196210554,200.0
91344,34.28991,-118.5047,Granada Hills,CA,California,True,,55694.0,1486.9,6037,Los Angeles,"{""06037"": 100}",Los Angeles,06037,False,False,America/Los_Angeles,"(34.28991, -118.5047)",194.15148638689604,6519318.0,17_0_no,33.67738419541165,-121.81219196210554,200.0
91345,34.26591,-118.45948,Mission Hills,CA,California,True,,18825.0,2240.5,6037,Los Angeles,"{""06037"": 100}",Los Angeles,06037,False,False,America/Los_Angeles,"(34.26591, -118.45948)",196.35693550665346,6519318.0,17_0_no,33.67738419541165,-121.81219196210554,200.0
91350,34.43028,-118.50283,Santa Clarita,CA,California,True,,38611.0,939.6,6037,Los Angeles,"{""06037"": 100}",Los Angeles,06037,False,False,America/Los_Angeles,"(34.43028, -118.50283)",196.44483730973482,6519318.0,17_0_no,33.67738419541165,-121.81219196210554,200.0
91351,34.43269,-118.46276,Canyon Country,CA,California,True,,30746.0,1366.7,6037,Los Angeles,"{""06037"": 100}",Los Angeles,06037,False,False,America/Los_Angeles,"(34.43269, -118.46276)",198.69836282390503,6519318.0,17_0_no,33.67738419541165,-121.81219196210554,200.0
91352,34.23183,-118.36596,Sun Valley,CA,California,True,,46027.0,1532.0,6037,Los Angeles,"{""06037"": 100}",Los Angeles,06037,False,False,America/Los_Angeles,"(34.23183, -118.36596)",201.1791072467878,6519318.0,17_0_no,33.67738419541165,-121.81219196210554,200.0
91354,34.46039,-118.5528,Valencia,CA,California,True,,33039.0,1741.0,6037,Los Angeles,"{""06037"": 100}",Los Angeles,06037,False,False,America/Los_Angeles,"(34.46039, -118.5528)",194.22531725806863,6519318.0,17_0_no,33.67738419541165,-121.81219196210554,200.0
91355,34.42379,-118.58437,Valencia,CA,California,True,,29371.0,862.1,6037,Los Angeles,"{""06037"": 100}",Los Angeles,06037,False,False,America/Los_Angeles,"(34.42379, -118.58437)",191.83419125100252,6519318.0,17_0_no,33.67738419541165,-121.81219196210554,200.0
91356,34.15504,-118.54757,Tarzana,CA,California,True,,30700.0,1616.4,6037,Los Angeles,"{""06037"": 100}",Los Angeles,06037,False,False,America/Los_Angeles,"(34.15504, -118.54757)",190.06329876202574,6519318.0,17_0_no,33.67738419541165,-121.81219196210554,200.0
91360,34.21475,-118.87735,Thousand Oaks,CA,California,True,,42663.0,1072.2,6111,Ventura,"{""06111"": 100}",Ventura,06111,False,False,America/Los_Angeles,"(34.21475, -118.87735)",172.25915665829126,6519318.0,17_0_no,33.67738419541165,-121.81219196210554,200.0
91361,34.14016,-118.88398,Westlake Village,CA,California,True,,19953.0,266.9,6111,Ventura,"{""06111"": 81.98, ""06037"": 18.02}",Ventura|Los Angeles,06111|06037,False,False,America/Los_Angeles,"(34.14016, -118.88398)",170.92162644476917,6519318.0,17_0_no,33.67738419541165,-121.81219196210554,200.0
91362,34.19244,-118.81949,Thousand Oaks,CA,California,True,,37085.0,754.0,6111,Ventura,"{""06111"": 94.55, ""06037"": 5.45}",Ventura|Los Angeles,06111|06037,False,False,America/Los_Angeles,"(34.19244, -118.81949)",175.2011742303009,6519318.0,17_0_no,33.67738419541165,-121.81219196210554,200.0
91364,34.1548,-118.59492,Woodland Hills,CA,California,True,,28395.0,1454.1,6037,Los Angeles,"{""06037"": 100}",Los Angeles,06037,False,False,America/Los_Angeles,"(34.1548, -118.59492)",187.3878931392952,6519318.0,17_0_no,33.67738419541165,-121.81219196210554,200.0
91367,34.17708,-118.61518,Woodland Hills,CA,California,True,,45074.0,2324.3,6037,Los Angeles,"{""06037"": 100}",Los Angeles,06037,False,False,America/Los_Angeles,"(34.17708, -118.61518)",186.49976010513228,6519318.0,17_0_no,33.67738419541165,-121.81219196210554,200.0
91377,34.1847,-118.76652,Oak Park,CA,California,True,,13987.0,1001.1,6111,Ventura,"{""06111"": 100}",Ventura,06111,False,False,America/Los_Angeles,"(34.1847, -118.76652)",178.07687564428298,6519318.0,17_0_no,33.67738419541165,-121.81219196210554,200.0
91381,34.3753,-118.60744,Stevenson Ranch,CA,California,True,,19675.0,192.2,6037,Los Angeles,"{""06037"": 100}",Los Angeles,06037,False,False,America/Los_Angeles,"(34.3753, -118.60744)",189.73446615916868,6519318.0,17_0_no,33.67738419541165,-121.81219196210554,200.0
91384,34.51604,-118.67289,Castaic,CA,California,True,,28833.0,107.5,6037,Los Angeles,"{""06037"": 100}",Los Angeles,06037,False,False,America/Los_Angeles,"(34.51604, -118.67289)",188.72262943556532,6519318.0,17_0_no,33.67738419541165,-121.81219196210554,200.0
91387,34.39708,-118.3707,Canyon Country,CA,California,True,,41145.0,297.4,6037,Los Angeles,"{""06037"": 100}",Los Angeles,06037,False,False,America/Los_Angeles,"(34.39708, -118.3707)",203.2114084392532,6519318.0,17_0_no,33.67738419541165,-121.81219196210554,200.0
91390,34.53159,-118.40668,Santa Clarita,CA,California,True,,19093.0,46.6,6037,Los Angeles,"{""06037"": 100}",Los Angeles,06037,False,False,America/Los_Angeles,"(34.53159, -118.40668)",203.56151907289612,6519318.0,17_0_no,33.67738419541165,-121.81219196210554,200.0
91401,34.17801,-118.43183,Van Nuys,CA,California,True,,40405.0,4408.3,6037,Los Angeles,"{""06037"": 100}",Los Angeles,06037,False,False,America/Los_Angeles,"(34.17801, -118.43183)",196.84798428553935,6519318.0,17_0_no,33.67738419541165,-121.81219196210554,200.0
91402,34.22413,-118.4448,Panorama City,CA,California,True,,70702.0,7326.2,6037,Los Angeles,"{""06037"": 100}",Los Angeles,06037,False,False,America/Los_Angeles,"(34.22413, -118.4448)",196.65158825563304,6519318.0,17_0_no,33.67738419541165,-121.81219196210554,200.0
91403,34.14716,-118.46311,Sherman Oaks,CA,California,True,,25837.0,2781.0,6037,Los Angeles,"{""06037"": 100}",Los Angeles,06037,False,False,America/Los_Angeles,"(34.14716, -118.46311)",194.7509310420098,6519318.0,17_0_no,33.67738419541165,-121.81219196210554,200.0
91405,34.20153,-118.44863,Van Nuys,CA,California,True,,56821.0,6455.7,6037,Los Angeles,"{""06037"": 100}",Los Angeles,06037,False,False,America/Los_Angeles,"(34.20153, -118.44863)",196.1671867238127,6519318.0,17_0_no,33.67738419541165,-121.81219196210554,200.0
91406,34.19791,-118.48987,Van Nuys,CA,California,True,,54309.0,2602.0,6037,Los Angeles,"{""06037"": 100}",Los Angeles,06037,False,False,America/Los_Angeles,"(34.19791, -118.48987)",193.8021137032301,6519318.0,17_0_no,33.67738419541165,-121.81219196210554,200.0
91411,34.17853,-118.45956,Van Nuys,CA,California,True,,24893.0,4924.6,6037,Los Angeles,"{""06037"": 100}",Los Angeles,06037,False,False,America/Los_Angeles,"(34.17853, -118.45956)",195.2891749242208,6519318.0,17_0_no,33.67738419541165,-121.81219196210554,200.0
91423,34.14924,-118.43239,Sherman Oaks,CA,California,True,,32968.0,3133.6,6037,Los Angeles,"{""06037"": 100}",Los Angeles,06037,False,False,America/Los_Angeles,"(34.14924, -118.43239)",196.509205219187,6519318.0,17_0_no,33.67738419541165,-121.81219196210554,200.0
91436,34.15219,-118.49053,Encino,CA,California,True,,16737.0,1237.8,6037,Los Angeles,"{""06037"": 100}",Los Angeles,06037,False,False,America/Los_Angeles,"(34.15219, -118.49053)",193.25417248746638,6519318.0,17_0_no,33.67738419541165,-121.81219196210554,200.0
91505,34.17583,-118.34692,Burbank,CA,California,True,,31139.0,2245.7,6037,Los Angeles,"{""06037"": 100}",Los Angeles,06037,False,False,America/Los_Angeles,"(34.17583, -118.34692)",201.61795709166998,6519318.0,17_0_no,33.67738419541165,-121.81219196210554,200.0
91601,34.16827,-118.37222,North Hollywood,CA,California,True,,35312.0,5171.1,6037,Los Angeles,"{""06037"": 100}",Los Angeles,06037,False,False,America/Los_Angeles,"(34.16827, -118.37222)",200.10864919143458,6519318.0,17_0_no,33.67738419541165,-121.81219196210554,200.0
91602,34.15078,-118.36633,North Hollywood,CA,California,True,,20339.0,3849.0,6037,Los Angeles,"{""06037"": 100}",Los Angeles,06037,False,False,America/Los_Angeles,"(34.15078, -118.36633)",200.26058049745922,6519318.0,17_0_no,33.67738419541165,-121.81219196210554,200.0
91604,34.13985,-118.39435,Studio City,CA,California,True,,34021.0,2771.0,6037,Los Angeles,"{""06037"": 100}",Los Angeles,06037,False,False,America/Los_Angeles,"(34.13985, -118.39435)",198.5654564870193,6519318.0,17_0_no,33.67738419541165,-121.81219196210554,200.0
91605,34.20699,-118.40067,North Hollywood,CA,California,True,,52345.0,3763.6,6037,Los Angeles,"{""06037"": 100}",Los Angeles,06037,False,False,America/Los_Angeles,"(34.20699, -118.40067)",198.93219132714665,6519318.0,17_0_no,33.67738419541165,-121.81219196210554,200.0
91606,34.18655,-118.38867,North Hollywood,CA,California,True,,45003.0,5219.4,6037,Los Angeles,"{""06037"": 100}",Los Angeles,06037,False,False,America/Los_Angeles,"(34.18655, -118.38867)",199.37748443767978,6519318.0,17_0_no,33.67738419541165,-121.81219196210554,200.0
91607,34.16633,-118.39982,Valley Village,CA,California,True,,31039.0,4856.1,6037,Los Angeles,"{""06037"": 100}",Los Angeles,06037,False,False,America/Los_Angeles,"(34.16633, -118.39982)",198.52891500586816,6519318.0,17_0_no,33.67738419541165,-121.81219196210554,200.0
91608,34.13839,-118.35272,Universal City,CA,California,True,,18.0,11.8,6037,Los Angeles,"{""06037"": 100}",Los Angeles,06037,False,False,America/Los_Angeles,"(34.13839, -118.35272)",200.90720654615677,6519318.0,17_0_no,33.67738419541165,-121.81219196210554,200.0
93001,34.35321,-119.31868,Ventura,CA,California,True,,31729.0,126.8,6111,Ventura,"{""06111"": 100}",Ventura,06111,False,False,America/Los_Angeles,"(34.35321, -119.31868)",150.24047842799078,6519318.0,17_0_no,33.67738419541165,-121.81219196210554,200.0
93003,34.28434,-119.22256,Ventura,CA,California,True,,51461.0,955.9,6111,Ventura,"{""06111"": 100}",Ventura,06111,False,False,America/Los_Angeles,"(34.28434, -119.22256)",154.17765430708386,6519318.0,17_0_no,33.67738419541165,-121.81219196210554,200.0
93004,34.27901,-119.16537,Ventura,CA,California,True,,31283.0,1718.3,6111,Ventura,"{""06111"": 100}",Ventura,06111,False,False,America/Los_Angeles,"(34.27901, -119.16537)",157.23984010288112,6519318.0,17_0_no,33.67738419541165,-121.81219196210554,200.0
93010,34.23007,-119.07437,Camarillo,CA,California,True,,46434.0,815.9,6111,Ventura,"{""06111"": 100}",Ventura,06111,False,False,America/Los_Angeles,"(34.23007, -119.07437)",161.48464018722925,6519318.0,17_0_no,33.67738419541165,-121.81219196210554,200.0
93012,34.20518,-118.99309,Camarillo,CA,California,True,,35726.0,275.1,6111,Ventura,"{""06111"": 100}",Ventura,06111,False,False,America/Los_Angeles,"(34.20518, -118.99309)",165.65010908338198,6519318.0,17_0_no,33.67738419541165,-121.81219196210554,200.0
93013,34.42697,-119.48032,Carpinteria,CA,California,True,,17021.0,158.8,6083,Santa Barbara,"{""06083"": 74.7, ""06111"": 25.3}",Santa Barbara|Ventura,06083|06111,False,False,America/Los_Angeles,"(34.42697, -119.48032)",143.18012050739685,6519318.0,17_0_no,33.67738419541165,-121.81219196210554,200.0
93015,34.40969,-118.87807,Fillmore,CA,California,True,,18182.0,75.7,6111,Ventura,"{""06111"": 100}",Ventura,06111,False,False,America/Los_Angeles,"(34.40969, -118.87807)",175.42997758244883,6519318.0,17_0_no,33.67738419541165,-121.81219196210554,200.0
93021,34.30417,-118.88274,Moorpark,CA,California,True,,38235.0,308.9,6111,Ventura,"{""06111"": 100}",Ventura,06111,False,False,America/Los_Angeles,"(34.30417, -118.88274)",173.31052742995226,6519318.0,17_0_no,33.67738419541165,-121.81219196210554,200.0
93022,34.40324,-119.29836,Oak View,CA,California,True,,6607.0,812.6,6111,Ventura,"{""06111"": 100}",Ventura,06111,False,False,America/Los_Angeles,"(34.40324, -119.29836)",152.40852935962766,6519318.0,17_0_no,33.67738419541165,-121.81219196210554,200.0
93023,34.50372,-119.24856,Ojai,CA,California,True,,21011.0,30.4,6111,Ventura,"{""06111"": 100}",Ventura,06111,False,False,America/Los_Angeles,"(34.50372, -119.24856)",157.4037429056142,6519318.0,17_0_no,33.67738419541165,-121.81219196210554,200.0
93030,34.2051,-119.1753,Oxnard,CA,California,True,,59844.0,1637.2,6111,Ventura,"{""06111"": 100}",Ventura,06111,False,False,America/Los_Angeles,"(34.2051, -119.1753)",155.47871207324275,6519318.0,17_0_no,33.67738419541165,-121.81219196210554,200.0
93033,34.15401,-119.12296,Oxnard,CA,California,True,,84902.0,1018.2,6111,Ventura,"{""06111"": 100}",Ventura,06111,False,False,America/Los_Angeles,"(34.15401, -119.12296)",157.66681846354209,6519318.0,17_0_no,33.67738419541165,-121.81219196210554,200.0
93035,34.19034,-119.22879,Oxnard,CA,California,True,,28426.0,2182.5,6111,Ventura,"{""06111"": 100}",Ventura,06111,False,False,America/Los_Angeles,"(34.19034, -119.22879)",152.27203512537352,6519318.0,17_0_no,33.67738419541165,-121.81219196210554,200.0
93036,34.24911,-119.15977,Oxnard,CA,California,True,,47126.0,1022.3,6111,Ventura,"{""06111"": 100}",Ventura,06111,False,False,America/Los_Angeles,"(34.24911, -119.15977)",157.04286523902897,6519318.0,17_0_no,33.67738419541165,-121.81219196210554,200.0
93040,34.59337,-118.93657,Piru,CA,California,True,,1822.0,1.9,6111,Ventura,"{""06111"": 100}",Ventura,06111,False,False,America/Los_Angeles,"(34.59337, -118.93657)",176.2042742622911,6519318.0,17_0_no,33.67738419541165,-121.81219196210554,200.0
93041,34.14956,-119.17458,Port Hueneme,CA,California,True,,24102.0,1582.9,6111,Ventura,"{""06111"": 100}",Ventura,06111,False,False,America/Los_Angeles,"(34.14956, -119.17458)",154.71256964618902,6519318.0,17_0_no,33.67738419541165,-121.81219196210554,200.0
93042,33.4077,-119.43365,Point Mugu Nawc,CA,California,True,,124.0,1.7,6111,Ventura,"{""06111"": 100}",Ventura,06111,False,False,America/Los_Angeles,"(33.4077, -119.43365)",138.23306427787944,6519318.0,17_0_no,33.67738419541165,-121.81219196210554,200.0
93043,34.17001,-119.2026,Port Hueneme Cbc Base,CA,California,True,,82.0,63.9,6111,Ventura,"{""06111"": 100}",Ventura,06111,False,False,America/Los_Angeles,"(34.17001, -119.2026)",153.43218160146515,6519318.0,17_0_no,33.67738419541165,-121.81219196210554,200.0
93060,34.36543,-119.09563,Santa Paula,CA,California,True,,33799.0,141.2,6111,Ventura,"{""06111"": 100}",Ventura,06111,False,False,America/Los_Angeles,"(34.36543, -119.09563)",162.66338443117903,6519318.0,17_0_no,33.67738419541165,-121.81219196210554,200.0
93063,34.30922,-118.69041,Simi Valley,CA,California,True,,56259.0,600.6,6111,Ventura,"{""06111"": 100}",Ventura,06111,False,False,America/Los_Angeles,"(34.30922, -118.69041)",184.0756041201459,6519318.0,17_0_no,33.67738419541165,-121.81219196210554,200.0
93065,34.26206,-118.77151,Simi Valley,CA,California,True,,71906.0,931.6,6111,Ventura,"{""06111"": 100}",Ventura,06111,False,False,America/Los_Angeles,"(34.26206, -118.77151)",178.8493638354989,6519318.0,17_0_no,33.67738419541165,-121.81219196210554,200.0
93066,34.28851,-119.02848,Somis,CA,California,True,,2925.0,26.8,6111,Ventura,"{""06111"": 100}",Ventura,06111,False,False,America/Los_Angeles,"(34.28851, -119.02848)",164.9744133919932,6519318.0,17_0_no,33.67738419541165,-121.81219196210554,200.0
93067,34.42162,-119.59277,Summerland,CA,California,True,,369.0,245.3,6083,Santa Barbara,"{""06083"": 100}",Santa Barbara,06083,False,False,America/Los_Angeles,"(34.42162, -119.59277)",137.06358532871235,6519318.0,17_0_no,33.67738419541165,-121.81219196210554,200.0
93101,34.41925,-119.70808,Santa Barbara,CA,California,True,,32650.0,3936.5,6083,Santa Barbara,"{""06083"": 100}",Santa Barbara,06083,False,False,America/Los_Angeles,"(34.41925, -119.70808)",130.90574503194875,6519318.0,17_0_no,33.67738419541165,-121.81219196210554,200.0
93103,34.43888,-119.68173,Santa Barbara,CA,California,True,,20542.0,1444.8,6083,Santa Barbara,"{""06083"": 100}",Santa Barbara,06083,False,False,America/Los_Angeles,"(34.43888, -119.68173)",132.81333304437982,6519318.0,17_0_no,33.67738419541165,-121.81219196210554,200.0
93105,34.52702,-119.76082,Santa Barbara,CA,California,True,,26933.0,74.4,6083,Santa Barbara,"{""06083"": 100}",Santa Barbara,06083,False,False,America/Los_Angeles,"(34.52702, -119.76082)",131.2220877317077,6519318.0,17_0_no,33.67738419541165,-121.81219196210554,200.0
93108,34.44934,-119.60397,Santa Barbara,CA,California,True,,10451.0,144.8,6083,Santa Barbara,"{""06083"": 100}",Santa Barbara,06083,False,False,America/Los_Angeles,"(34.44934, -119.60397)",137.1834547062082,6519318.0,17_0_no,33.67738419541165,-121.81219196210554,200.0
93109,34.40662,-119.72682,Santa Barbara,CA,California,True,,11289.0,1269.6,6083,Santa Barbara,"{""06083"": 100}",Santa Barbara,06083,False,False,America/Los_Angeles,"(34.40662, -119.72682)",129.58576309010533,6519318.0,17_0_no,33.67738419541165,-121.81219196210554,200.0
93110,34.43913,-119.7666,Santa Barbara,CA,California,True,,15777.0,753.4,6083,Santa Barbara,"{""06083"": 100}",Santa Barbara,06083,False,False,America/Los_Angeles,"(34.43913, -119.7666)",128.37434666707694,6519318.0,17_0_no,33.67738419541165,-121.81219196210554,200.0
93111,34.44932,-119.80223,Santa Barbara,CA,California,True,,18468.0,876.5,6083,Santa Barbara,"{""06083"": 100}",Santa Barbara,06083,False,False,America/Los_Angeles,"(34.44932, -119.80223)",126.80518531320125,6519318.0,17_0_no,33.67738419541165,-121.81219196210554,200.0
93117,34.49102,-120.08201,Goleta,CA,California,True,,59298.0,136.2,6083,Santa Barbara,"{""06083"": 100}",Santa Barbara,06083,False,False,America/Los_Angeles,"(34.49102, -120.08201)",113.85232174770299,6519318.0,17_0_no,33.67738419541165,-121.81219196210554,200.0
93201,35.8555,-119.48338,Alpaugh,CA,California,True,,1251.0,6.7,6107,Tulare,"{""06107"": 85.8, ""06031"": 14.2}",Tulare|Kings,06107|06031,False,False,America/Los_Angeles,"(35.8555, -119.48338)",200.28539377097897,6519318.0,17_0_no,33.67738419541165,-121.81219196210554,200.0
93202,36.3187,-119.7076,Armona,CA,California,True,,4236.0,1064.4,6031,Kings,"{""06031"": 100}",Kings,06031,False,False,America/Los_Angeles,"(36.3187, -119.7076)",217.91707936857924,6519318.0,17_0_no,33.67738419541165,-121.81219196210554,200.0
93203,35.12158,-118.8468,Arvin,CA,California,True,,22546.0,50.6,6029,Kern,"{""06029"": 100}",Kern,06029,False,False,America/Los_Angeles,"(35.12158, -118.8468)",196.29515367444316,6519318.0,17_0_no,33.67738419541165,-121.81219196210554,200.0
93204,35.90819,-120.06776,Avenal,CA,California,True,,13033.0,71.3,6031,Kings,"{""06031"": 100}",Kings,06031,False,False,America/Los_Angeles,"(35.90819, -120.06776)",183.16987807123724,6519318.0,17_0_no,33.67738419541165,-121.81219196210554,200.0
93205,35.5387,-118.45463,Bodfish,CA,California,True,,2164.0,36.0,6029,Kern,"{""06029"": 100}",Kern,06029,False,False,America/Los_Angeles,"(35.5387, -118.45463)",230.18472249999525,6519318.0,17_0_no,33.67738419541165,-121.81219196210554,200.0
93206,35.44402,-119.47578,Buttonwillow,CA,California,True,,1741.0,4.1,6029,Kern,"{""06029"": 100}",Kern,06029,False,False,America/Los_Angeles,"(35.44402, -119.47578)",180.46836401356518,6519318.0,17_0_no,33.67738419541165,-121.81219196210554,200.0
93207,35.88721,-118.63153,California Hot Springs,CA,California,True,,216.0,1.6,6107,Tulare,"{""06107"": 100}",Tulare,06107,False,False,America/Los_Angeles,"(35.88721, -118.63153)",236.38743525360826,6519318.0,17_0_no,33.67738419541165,-121.81219196210554,200.0
93208,36.1298,-118.63982,Camp Nelson,CA,California,True,,110.0,5.5,6107,Tulare,"{""06107"": 100}",Tulare,06107,False,False,America/Los_Angeles,"(36.1298, -118.63982)",247.00433120163694,6519318.0,17_0_no,33.67738419541165,-121.81219196210554,200.0
93210,36.19519,-120.43245,Coalinga,CA,California,True,,18339.0,9.1,6019,Fresno,"{""06019"": 90.26, ""06053"": 6.38, ""06069"": 3.36}",Fresno|Monterey|San Benito,06019|06053|06069,False,False,America/Los_Angeles,"(36.19519, -120.43245)",190.70535428428613,6519318.0,17_0_no,33.67738419541165,-121.81219196210554,200.0
93212,36.01649,-119.56937,Corcoran,CA,California,True,,22596.0,73.6,6031,Kings,"{""06031"": 60.72, ""06107"": 39.28}",Kings|Tulare,06031|06107,False,False,America/Los_Angeles,"(36.01649, -119.56937)",205.63951620486787,6519318.0,17_0_no,33.67738419541165,-121.81219196210554,200.0
93215,35.7764,-119.18835,Delano,CA,California,True,,55648.0,147.7,6029,Kern,"{""06029"": 59.64, ""06107"": 40.36}",Kern|Tulare,06029|06107,False,False,America/Los_Angeles,"(35.7764, -119.18835)",207.90939891858662,6519318.0,17_0_no,33.67738419541165,-121.81219196210554,200.0
93218,35.86194,-119.03822,Ducor,CA,California,True,,827.0,4.9,6107,Tulare,"{""06107"": 100}",Tulare,06107,False,False,America/Los_Angeles,"(35.86194, -119.03822)",218.08592015695615,6519318.0,17_0_no,33.67738419541165,-121.81219196210554,200.0
93219,35.87908,-119.28818,Earlimart,CA,California,True,,10998.0,41.3,6107,Tulare,"{""06107"": 100}",Tulare,06107,False,False,America/Los_Angeles,"(35.87908, -119.28818)",208.930129384576,6519318.0,17_0_no,33.67738419541165,-121.81219196210554,200.0
93220,35.3705,-118.78369,Edison,CA,California,True,,45.0,0.6,6029,Kern,"{""06029"": 100}",Kern,06029,False,False,America/Los_Angeles,"(35.3705, -118.78369)",208.32389434409004,6519318.0,17_0_no,33.67738419541165,-121.81219196210554,200.0
93221,36.29637,-119.02992,Exeter,CA,California,True,,14596.0,42.7,6107,Tulare,"{""06107"": 100}",Tulare,06107,False,False,America/Los_Angeles,"(36.29637, -119.02992)",239.86958760453228,6519318.0,17_0_no,33.67738419541165,-121.81219196210554,200.0
93222,34.89835,-119.25983,Pine Mountain Club,CA,California,True,,1812.0,6.4,6029,Kern,"{""06029"": 100}",Kern,06029,False,False,America/Los_Angeles,"(34.89835, -119.25983)",168.35537685066234,6519318.0,17_0_no,33.67738419541165,-121.81219196210554,200.0
93223,36.30117,-119.20789,Farmersville,CA,California,True,,10842.0,1349.1,6107,Tulare,"{""06107"": 100}",Tulare,06107,False,False,America/Los_Angeles,"(36.30117, -119.20789)",233.6366459659158,6519318.0,17_0_no,33.67738419541165,-121.81219196210554,200.0
93224,35.21687,-119.58087,Fellows,CA,California,True,,364.0,3.9,6029,Kern,"{""06029"": 100}",Kern,06029,False,False,America/Los_Angeles,"(35.21687, -119.58087)",165.7550367977081,6519318.0,17_0_no,33.67738419541165,-121.81219196210554,200.0
93225,34.78532,-119.04196,Frazier Park,CA,California,True,,5538.0,19.1,6111,Ventura,"{""06111"": 64.01, ""06029"": 35.99}",Ventura|Kern,06111|06029,False,False,America/Los_Angeles,"(34.78532, -119.04196)",175.7816307189484,6519318.0,17_0_no,33.67738419541165,-121.81219196210554,200.0
93226,35.7476,-118.73462,Glennville,CA,California,True,,82.0,0.4,6029,Kern,"{""06029"": 100}",Kern,06029,False,False,America/Los_Angeles,"(35.7476, -118.73462)",225.83733403519508,6519318.0,17_0_no,33.67738419541165,-121.81219196210554,200.0
93230,36.28967,-119.62514,Hanford,CA,California,True,,68896.0,103.1,6031,Kings,"{""06031"": 99.6, ""06107"": 0.4}",Kings|Tulare,06031|06107,False,False,America/Los_Angeles,"(36.28967, -119.62514)",218.85715889087857,6519318.0,17_0_no,33.67738419541165,-121.81219196210554,200.0
93234,36.19608,-120.08477,Huron,CA,California,True,,7258.0,20.8,6019,Fresno,"{""06019"": 100}",Fresno,06019,False,False,America/Los_Angeles,"(36.19608, -120.08477)",199.63530506150397,6519318.0,17_0_no,33.67738419541165,-121.81219196210554,200.0
93235,36.38507,-119.22314,Ivanhoe,CA,California,True,,4561.0,424.5,6107,Tulare,"{""06107"": 100}",Tulare,06107,False,False,America/Los_Angeles,"(36.38507, -119.22314)",237.58206669714315,6519318.0,17_0_no,33.67738419541165,-121.81219196210554,200.0
93238,35.82799,-118.47137,Kernville,CA,California,True,,810.0,2.9,6107,Tulare,"{""06107"": 62.55, ""06029"": 37.45}",Tulare|Kern,06107|06029,False,False,America/Los_Angeles,"(35.82799, -118.47137)",240.90382393664606,6519318.0,17_0_no,33.67738419541165,-121.81219196210554,200.0
93239,36.03293,-119.98645,Kettleman City,CA,California,True,,1785.0,11.8,6031,Kings,"{""06031"": 100}",Kings,06031,False,False,America/Los_Angeles,"(36.03293, -119.98645)",192.87300539673453,6519318.0,17_0_no,33.67738419541165,-121.81219196210554,200.0
93240,35.62425,-118.4645,Lake Isabella,CA,California,True,,6096.0,40.6,6029,Kern,"{""06029"": 100}",Kern,06029,False,False,America/Los_Angeles,"(35.62425, -118.4645)",232.99841738120972,6519318.0,17_0_no,33.67738419541165,-121.81219196210554,200.0
93241,35.24922,-118.91224,Lamont,CA,California,True,,16988.0,1299.3,6029,Kern,"{""06029"": 100}",Kern,06029,False,False,America/Los_Angeles,"(35.24922, -118.91224)",197.68672927079237,6519318.0,17_0_no,33.67738419541165,-121.81219196210554,200.0
93242,36.44115,-119.73024,Laton,CA,California,True,,3455.0,32.8,6019,Fresno,"{""06019"": 83.05, ""06031"": 16.95}",Fresno|Kings,06019|06031,False,False,America/Los_Angeles,"(36.44115, -119.73024)",224.3270311242661,6519318.0,17_0_no,33.67738419541165,-121.81219196210554,200.0
93243,34.84057,-118.81769,Lebec,CA,California,True,,1513.0,3.6,6029,Kern,"{""06029"": 63.73, ""06037"": 36.27}",Kern|Los Angeles,06029|06037,False,False,America/Los_Angeles,"(34.84057, -118.81769)",188.93589758704064,6519318.0,17_0_no,33.67738419541165,-121.81219196210554,200.0
93244,36.3908,-118.99733,Lemon Cove,CA,California,True,,326.0,16.0,6107,Tulare,"{""06107"": 100}",Tulare,06107,False,False,America/Los_Angeles,"(36.3908, -118.99733)",245.957995007087,6519318.0,17_0_no,33.67738419541165,-121.81219196210554,200.0
93245,36.28614,-119.83405,Lemoore,CA,California,True,,38275.0,124.3,6031,Kings,"{""06031"": 100}",Kings,06031,False,False,America/Los_Angeles,"(36.28614, -119.83405)",212.1883966907826,6519318.0,17_0_no,33.67738419541165,-121.81219196210554,200.0
93247,36.20234,-119.08277,Lindsay,CA,California,True,,17334.0,101.7,6107,Tulare,"{""06107"": 100}",Tulare,06107,False,False,America/Los_Angeles,"(36.20234, -119.08277)",233.07426251489363,6519318.0,17_0_no,33.67738419541165,-121.81219196210554,200.0
93249,35.67033,-119.85814,Lost Hills,CA,California,True,,1959.0,3.7,6029,Kern,"{""06029"": 100}",Kern,06029,False,False,America/Los_Angeles,"(35.67033, -119.85814)",176.87955269557813,6519318.0,17_0_no,33.67738419541165,-121.81219196210554,200.0
93250,35.66456,-119.20278,McFarland,CA,California,True,,14689.0,63.3,6029,Kern,"{""06029"": 100}",Kern,06029,False,False,America/Los_Angeles,"(35.66456, -119.20278)",202.06818772791254,6519318.0,17_0_no,33.67738419541165,-121.81219196210554,200.0
93251,35.37059,-119.69735,McKittrick,CA,California,True,,237.0,0.9,6029,Kern,"{""06029"": 100}",Kern,06029,False,False,America/Los_Angeles,"(35.37059, -119.69735)",167.85919993031519,6519318.0,17_0_no,33.67738419541165,-121.81219196210554,200.0
93252,34.80685,-119.34664,Maricopa,CA,California,True,,3180.0,2.7,6111,Ventura,"{""06111"": 66.05, ""06029"": 18.03, ""06083"": 9.82, ""06079"": 6.1}",Ventura|Kern|Santa Barbara|San Luis Obispo,06111|06029|06083|06079,False,False,America/Los_Angeles,"(34.80685, -119.34664)",160.99493888139227,6519318.0,17_0_no,33.67738419541165,-121.81219196210554,200.0
93254,34.92498,-119.74834,New Cuyama,CA,California,True,,757.0,1.5,6083,Santa Barbara,"{""06083"": 91.24, ""06079"": 8.76}",Santa Barbara|San Luis Obispo,06083|06079,False,False,America/Los_Angeles,"(34.92498, -119.74834)",145.96341645081438,6519318.0,17_0_no,33.67738419541165,-121.81219196210554,200.0
93256,35.96805,-119.31251,Pixley,CA,California,True,,5811.0,30.1,6107,Tulare,"{""06107"": 100}",Tulare,06107,False,False,America/Los_Angeles,"(35.96805, -119.31251)",212.47153055195457,6519318.0,17_0_no,33.67738419541165,-121.81219196210554,200.0
93257,35.98708,-118.89493,Porterville,CA,California,True,,75483.0,76.9,6107,Tulare,"{""06107"": 100}",Tulare,06107,False,False,America/Los_Angeles,"(35.98708, -118.89493)",229.84705552479247,6519318.0,17_0_no,33.67738419541165,-121.81219196210554,200.0
93258,36.05833,-119.15209,Porterville,CA,California,True,,1366.0,540.8,6107,Tulare,"{""06107"": 100}",Tulare,06107,False,False,America/Los_Angeles,"(36.05833, -119.15209)",223.14526785569032,6519318.0,17_0_no,33.67738419541165,-121.81219196210554,200.0
93260,35.81909,-118.66116,Posey,CA,California,True,,244.0,2.5,6107,Tulare,"{""06107"": 100}",Tulare,06107,False,False,America/Los_Angeles,"(35.81909, -118.66116)",232.13578732015603,6519318.0,17_0_no,33.67738419541165,-121.81219196210554,200.0
93261,35.81147,-119.11673,Richgrove,CA,California,True,,2179.0,145.7,6107,Tulare,"{""06107"": 100}",Tulare,06107,False,False,America/Los_Angeles,"(35.81147, -119.11673)",212.49209587295232,6519318.0,17_0_no,33.67738419541165,-121.81219196210554,200.0
93262,36.50256,-118.68109,Sequoia National Park,CA,California,True,,45.0,0.1,6107,Tulare,"{""06107"": 100}",Tulare,06107,False,False,America/Los_Angeles,"(36.50256, -118.68109)",263.47842024188645,6519318.0,17_0_no,33.67738419541165,-121.81219196210554,200.0
93263,35.48722,-119.27835,Shafter,CA,California,True,,21854.0,91.5,6029,Kern,"{""06029"": 100}",Kern,06029,False,False,America/Los_Angeles,"(35.48722, -119.27835)",190.80778938508328,6519318.0,17_0_no,33.67738419541165,-121.81219196210554,200.0
93265,36.20713,-118.70876,Springville,CA,California,True,,3230.0,3.2,6107,Tulare,"{""06107"": 100}",Tulare,06107,False,False,America/Los_Angeles,"(36.20713, -118.70876)",247.8548942758546,6519318.0,17_0_no,33.67738419541165,-121.81219196210554,200.0
93266,36.17176,-119.85628,Stratford,CA,California,True,,1086.0,7.1,6031,Kings,"{""06031"": 100}",Kings,06031,False,False,America/Los_Angeles,"(36.17176, -119.85628)",204.8776479531229,6519318.0,17_0_no,33.67738419541165,-121.81219196210554,200.0
93267,36.14279,-119.0742,Strathmore,CA,California,True,,6325.0,39.6,6107,Tulare,"{""06107"": 100}",Tulare,06107,False,False,America/Los_Angeles,"(36.14279, -119.0742)",230.37593831465085,6519318.0,17_0_no,33.67738419541165,-121.81219196210554,200.0
93268,35.16725,-119.40785,Taft,CA,California,True,,18389.0,104.2,6029,Kern,"{""06029"": 100}",Kern,06029,False,False,America/Los_Angeles,"(35.16725, -119.40785)",171.3818041815715,6519318.0,17_0_no,33.67738419541165,-121.81219196210554,200.0
93270,35.94703,-119.05669,Terra Bella,CA,California,True,,5538.0,31.7,6107,Tulare,"{""06107"": 100}",Tulare,06107,False,False,America/Los_Angeles,"(35.94703, -119.05669)",221.39591699418236,6519318.0,17_0_no,33.67738419541165,-121.81219196210554,200.0
93271,36.43661,-118.86903,Three Rivers,CA,California,True,,2699.0,6.8,6107,Tulare,"{""06107"": 100}",Tulare,06107,False,False,America/Los_Angeles,"(36.43661, -118.86903)",253.0597895227538,6519318.0,17_0_no,33.67738419541165,-121.81219196210554,200.0
93272,36.04818,-119.34535,Tipton,CA,California,True,,4925.0,22.6,6107,Tulare,"{""06107"": 100}",Tulare,06107,False,False,America/Los_Angeles,"(36.04818, -119.34535)",215.36781985912603,6519318.0,17_0_no,33.67738419541165,-121.81219196210554,200.0
93274,36.17978,-119.37949,Tulare,CA,California,True,,75068.0,132.2,6107,Tulare,"{""06107"": 95.45, ""06031"": 4.55}",Tulare|Kings,06107|06031,False,False,America/Los_Angeles,"(36.17978, -119.37949)",221.0797609003296,6519318.0,17_0_no,33.67738419541165,-121.81219196210554,200.0
93276,35.31756,-119.4092,Tupman,CA,California,True,,134.0,12.1,6029,Kern,"{""06029"": 100}",Kern,06029,False,False,America/Los_Angeles,"(35.31756, -119.4092)",177.65801185426258,6519318.0,17_0_no,33.67738419541165,-121.81219196210554,200.0
93277,36.29963,-119.38139,Visalia,CA,California,True,,53114.0,520.1,6107,Tulare,"{""06107"": 100}",Tulare,06107,False,False,America/Los_Angeles,"(36.29963, -119.38139)",227.4868094614407,6519318.0,17_0_no,33.67738419541165,-121.81219196210554,200.0
93280,35.65204,-119.44716,Wasco,CA,California,True,,28394.0,34.7,6029,Kern,"{""06029"": 100}",Kern,06029,False,False,America/Los_Angeles,"(35.65204, -119.44716)",191.50326578511815,6519318.0,17_0_no,33.67738419541165,-121.81219196210554,200.0
93285,35.72233,-118.50871,Wofford Heights,CA,California,True,,2009.0,14.3,6029,Kern,"{""06029"": 100}",Kern,06029,False,False,America/Los_Angeles,"(35.72233, -118.50871)",234.87267110267211,6519318.0,17_0_no,33.67738419541165,-121.81219196210554,200.0
93286,36.45149,-119.1079,Woodlake,CA,California,True,,10466.0,55.7,6107,Tulare,"{""06107"": 100}",Tulare,06107,False,False,America/Los_Angeles,"(36.45149, -119.1079)",245.18417072150103,6519318.0,17_0_no,33.67738419541165,-121.81219196210554,200.0
93287,35.72387,-118.91958,Woody,CA,California,True,,75.0,0.4,6029,Kern,"{""06029"": 100}",Kern,06029,False,False,America/Los_Angeles,"(35.72387, -118.91958)",216.75664023072503,6519318.0,17_0_no,33.67738419541165,-121.81219196210554,200.0
93291,36.38931,-119.36838,Visalia,CA,California,True,,58394.0,267.8,6107,Tulare,"{""06107"": 100}",Tulare,06107,False,False,America/Los_Angeles,"(36.38931, -119.36838)",232.8421782825802,6519318.0,17_0_no,33.67738419541165,-121.81219196210554,200.0
93292,36.3763,-119.22183,Visalia,CA,California,True,,42769.0,143.9,6107,Tulare,"{""06107"": 100}",Tulare,06107,False,False,America/Los_Angeles,"(36.3763, -119.22183)",237.15597160549956,6519318.0,17_0_no,33.67738419541165,-121.81219196210554,200.0
93301,35.38428,-119.02057,Bakersfield,CA,California,True,,12624.0,1137.4,6029,Kern,"{""06029"": 100}",Kern,06029,False,False,America/Los_Angeles,"(35.38428, -119.02057)",197.8688717743861,6519318.0,17_0_no,33.67738419541165,-121.81219196210554,200.0
93304,35.33938,-119.02368,Bakersfield,CA,California,True,,46922.0,2424.0,6029,Kern,"{""06029"": 100}",Kern,06029,False,False,America/Los_Angeles,"(35.33938, -119.02368)",195.92749814541085,6519318.0,17_0_no,33.67738419541165,-121.81219196210554,200.0
93305,35.38989,-118.98515,Bakersfield,CA,California,True,,38682.0,2581.4,6029,Kern,"{""06029"": 100}",Kern,06029,False,False,America/Los_Angeles,"(35.38989, -118.98515)",199.71601702280256,6519318.0,17_0_no,33.67738419541165,-121.81219196210554,200.0
93306,35.46595,-118.78445,Bakersfield,CA,California,True,,74296.0,294.7,6029,Kern,"{""06029"": 100}",Kern,06029,False,False,America/Los_Angeles,"(35.46595, -118.78445)",211.98056492386513,6519318.0,17_0_no,33.67738419541165,-121.81219196210554,200.0
93307,35.2487,-118.93253,Bakersfield,CA,California,True,,86273.0,235.9,6029,Kern,"{""06029"": 100}",Kern,06029,False,False,America/Los_Angeles,"(35.2487, -118.93253)",196.7027182527653,6519318.0,17_0_no,33.67738419541165,-121.81219196210554,200.0
93308,35.5498,-118.93389,Bakersfield,CA,California,True,,55211.0,61.9,6029,Kern,"{""06029"": 100}",Kern,06029,False,False,America/Los_Angeles,"(35.5498, -118.93389)",208.6093155903012,6519318.0,17_0_no,33.67738419541165,-121.81219196210554,200.0
93309,35.34266,-119.06461,Bakersfield,CA,California,True,,58709.0,2168.8,6029,Kern,"{""06029"": 100}",Kern,06029,False,False,America/Los_Angeles,"(35.34266, -119.06461)",194.17614522589383,6519318.0,17_0_no,33.67738419541165,-121.81219196210554,200.0
93311,35.15378,-119.16567,Bakersfield,CA,California,True,,46618.0,84.5,6029,Kern,"{""06029"": 100}",Kern,06029,False,False,America/Los_Angeles,"(35.15378, -119.16567)",182.0913138779597,6519318.0,17_0_no,33.67738419541165,-121.81219196210554,200.0
93312,35.39186,-119.11954,Bakersfield,CA,California,True,,59200.0,1612.9,6029,Kern,"{""06029"": 100}",Kern,06029,False,False,America/Los_Angeles,"(35.39186, -119.11954)",193.68962614344025,6519318.0,17_0_no,33.67738419541165,-121.81219196210554,200.0
93313,35.16363,-119.04715,Bakersfield,CA,California,True,,57200.0,219.6,6029,Kern,"{""06029"": 100}",Kern,06029,False,False,America/Los_Angeles,"(35.16363, -119.04715)",188.08734713579418,6519318.0,17_0_no,33.67738419541165,-121.81219196210554,200.0
93314,35.385,-119.23741,Bakersfield,CA,California,True,,30805.0,133.7,6029,Kern,"{""06029"": 100}",Kern,06029,False,False,America/Los_Angeles,"(35.385, -119.23741)",188.134462454358,6519318.0,17_0_no,33.67738419541165,-121.81219196210554,200.0
93401,35.23539,-120.61834,San Luis Obispo,CA,California,True,,28751.0,173.0,6079,San Luis Obispo,"{""06079"": 100}",San Luis Obispo,06079,False,False,America/Los_Angeles,"(35.23539, -120.61834)",127.3320367016799,6519318.0,17_0_no,33.67738419541165,-121.81219196210554,200.0
93402,35.29082,-120.8392,Los Osos,CA,California,True,,16198.0,225.4,6079,San Luis Obispo,"{""06079"": 100}",San Luis Obispo,06079,False,False,America/Los_Angeles,"(35.29082, -120.8392)",124.48910904181444,6519318.0,17_0_no,33.67738419541165,-121.81219196210554,200.0
93405,35.29672,-120.72618,San Luis Obispo,CA,California,True,,36285.0,156.2,6079,San Luis Obispo,"{""06079"": 100}",San Luis Obispo,06079,False,False,America/Los_Angeles,"(35.29672, -120.72618)",127.83972792379902,6519318.0,17_0_no,33.67738419541165,-121.81219196210554,200.0
93420,35.16682,-120.46617,Arroyo Grande,CA,California,True,,29915.0,58.5,6079,San Luis Obispo,"{""06079"": 100}",San Luis Obispo,06079,False,False,America/Los_Angeles,"(35.16682, -120.46617)",128.35505696907668,6519318.0,17_0_no,33.67738419541165,-121.81219196210554,200.0
93422,35.4638,-120.69007,Atascadero,CA,California,True,,34005.0,190.9,6079,San Luis Obispo,"{""06079"": 100}",San Luis Obispo,06079,False,False,America/Los_Angeles,"(35.4638, -120.69007)",138.9594857449728,6519318.0,17_0_no,33.67738419541165,-121.81219196210554,200.0
93424,35.20141,-120.78394,Avila Beach,CA,California,True,,955.0,18.3,6079,San Luis Obispo,"{""06079"": 100}",San Luis Obispo,06079,False,False,America/Los_Angeles,"(35.20141, -120.78394)",120.50202332956573,6519318.0,17_0_no,33.67738419541165,-121.81219196210554,200.0
93426,35.84682,-120.97233,Bradley,CA,California,True,,1717.0,3.1,6053,Monterey,"{""06053"": 81.29, ""06079"": 18.71}",Monterey|San Luis Obispo,06053|06079,False,False,America/Los_Angeles,"(35.84682, -120.97233)",157.28987334416502,6519318.0,17_0_no,33.67738419541165,-121.81219196210554,200.0
93427,34.62724,-120.22465,Buellton,CA,California,True,,6195.0,34.4,6083,Santa Barbara,"{""06083"": 100}",Santa Barbara,06083,False,False,America/Los_Angeles,"(34.62724, -120.22465)",112.0098263986671,6519318.0,17_0_no,33.67738419541165,-121.81219196210554,200.0
93428,35.58995,-121.02943,Cambria,CA,California,True,,5758.0,28.8,6079,San Luis Obispo,"{""06079"": 100}",San Luis Obispo,06079,False,False,America/Los_Angeles,"(35.58995, -121.02943)",139.43564889557425,6519318.0,17_0_no,33.67738419541165,-121.81219196210554,200.0
93429,34.86682,-120.53582,Casmalia,CA,California,True,,88.0,4.9,6083,Santa Barbara,"{""06083"": 100}",Santa Barbara,06083,False,False,America/Los_Angeles,"(34.86682, -120.53582)",109.83818527607531,6519318.0,17_0_no,33.67738419541165,-121.81219196210554,200.0
93430,35.49214,-120.92422,Cayucos,CA,California,True,,2681.0,14.4,6079,San Luis Obispo,"{""06079"": 100}",San Luis Obispo,06079,False,False,America/Los_Angeles,"(35.49214, -120.92422)",135.1773461048099,6519318.0,17_0_no,33.67738419541165,-121.81219196210554,200.0
93432,35.47686,-120.47228,Creston,CA,California,True,,1112.0,5.1,6079,San Luis Obispo,"{""06079"": 100}",San Luis Obispo,06079,False,False,America/Los_Angeles,"(35.47686, -120.47228)",145.83422555801502,6519318.0,17_0_no,33.67738419541165,-121.81219196210554,200.0
93433,35.12045,-120.61894,Grover Beach,CA,California,True,,13481.0,2405.0,6079,San Luis Obispo,"{""06079"": 100}",San Luis Obispo,06079,False,False,America/Los_Angeles,"(35.12045, -120.61894)",120.70017626669161,6519318.0,17_0_no,33.67738419541165,-121.81219196210554,200.0
93434,34.94086,-120.6113,Guadalupe,CA,California,True,,7654.0,129.6,6083,Santa Barbara,"{""06083"": 98.79, ""06079"": 1.21}",Santa Barbara|San Luis Obispo,06083|06079,False,False,America/Los_Angeles,"(34.94086, -120.6113)",110.98526084787792,6519318.0,17_0_no,33.67738419541165,-121.81219196210554,200.0
93436,34.60888,-120.4002,Lompoc,CA,California,True,,55727.0,94.4,6083,Santa Barbara,"{""06083"": 100}",Santa Barbara,06083,False,False,America/Los_Angeles,"(34.60888, -120.4002)",103.25386180626312,6519318.0,17_0_no,33.67738419541165,-121.81219196210554,200.0
93437,34.76049,-120.51102,Lompoc,CA,California,True,,3646.0,28.4,6083,Santa Barbara,"{""06083"": 100}",Santa Barbara,06083,False,False,America/Los_Angeles,"(34.76049, -120.51102)",105.48124546917713,6519318.0,17_0_no,33.67738419541165,-121.81219196210554,200.0
93440,34.74606,-120.25292,Los Alamos,CA,California,True,,1355.0,11.9,6083,Santa Barbara,"{""06083"": 100}",Santa Barbara,06083,False,False,America/Los_Angeles,"(34.74606, -120.25292)",115.7111271433384,6519318.0,17_0_no,33.67738419541165,-121.81219196210554,200.0
93441,34.73296,-120.09721,Los Olivos,CA,California,True,,861.0,8.6,6083,Santa Barbara,"{""06083"": 100}",Santa Barbara,06083,False,False,America/Los_Angeles,"(34.73296, -120.09721)",122.15569770700367,6519318.0,17_0_no,33.67738419541165,-121.81219196210554,200.0
93442,35.4,-120.80495,Morro Bay,CA,California,True,,10955.0,95.0,6079,San Luis Obispo,"{""06079"": 100}",San Luis Obispo,06079,False,False,America/Los_Angeles,"(35.4, -120.80495)",132.1056597372563,6519318.0,17_0_no,33.67738419541165,-121.81219196210554,200.0
93444,35.03553,-120.50293,Nipomo,CA,California,True,,22383.0,132.1,6079,San Luis Obispo,"{""06079"": 100}",San Luis Obispo,06079,False,False,America/Los_Angeles,"(35.03553, -120.50293)",119.92540785438321,6519318.0,17_0_no,33.67738419541165,-121.81219196210554,200.0
93445,35.03319,-120.62002,Oceano,CA,California,True,,7327.0,166.2,6079,San Luis Obispo,"{""06079"": 100}",San Luis Obispo,06079,False,False,America/Los_Angeles,"(35.03319, -120.62002)",115.75455879847812,6519318.0,17_0_no,33.67738419541165,-121.81219196210554,200.0
93446,35.65861,-120.71888,Paso Robles,CA,California,True,,44960.0,40.5,6079,San Luis Obispo,"{""06079"": 100}",San Luis Obispo,06079,False,False,America/Los_Angeles,"(35.65861, -120.71888)",150.32583796212393,6519318.0,17_0_no,33.67738419541165,-121.81219196210554,200.0
93449,35.15803,-120.6504,Pismo Beach,CA,California,True,,8042.0,313.4,6079,San Luis Obispo,"{""06079"": 100}",San Luis Obispo,06079,False,False,America/Los_Angeles,"(35.15803, -120.6504)",121.86174278105787,6519318.0,17_0_no,33.67738419541165,-121.81219196210554,200.0
93450,36.05791,-120.82894,San Ardo,CA,California,True,,856.0,1.8,6053,Monterey,"{""06053"": 100}",Monterey,06053,False,False,America/Los_Angeles,"(36.05791, -120.82894)",173.66362194682276,6519318.0,17_0_no,33.67738419541165,-121.81219196210554,200.0
93451,35.89398,-120.56733,San Miguel,CA,California,True,,4233.0,3.7,6053,Monterey,"{""06053"": 84.85, ""06079"": 15.15}",Monterey|San Luis Obispo,06053|06079,False,False,America/Los_Angeles,"(35.89398, -120.56733)",168.65384894666082,6519318.0,17_0_no,33.67738419541165,-121.81219196210554,200.0
93452,35.71078,-121.20396,San Simeon,CA,California,True,,550.0,1.9,6079,San Luis Obispo,"{""06079"": 100}",San Luis Obispo,06079,False,False,America/Los_Angeles,"(35.71078, -121.20396)",144.67976820757028,6519318.0,17_0_no,33.67738419541165,-121.81219196210554,200.0
93453,35.31339,-120.1655,Santa Margarita,CA,California,True,,2414.0,1.3,6079,San Luis Obispo,"{""06079"": 100}",San Luis Obispo,06079,False,False,America/Los_Angeles,"(35.31339, -120.1655)",146.86288801841246,6519318.0,17_0_no,33.67738419541165,-121.81219196210554,200.0
93454,34.94834,-120.23425,Santa Maria,CA,California,True,,40600.0,37.5,6083,Santa Barbara,"{""06083"": 71.83, ""06079"": 28.17}",Santa Barbara|San Luis Obispo,06083|06079,False,False,America/Los_Angeles,"(34.94834, -120.23425)",125.77680312745804,6519318.0,17_0_no,33.67738419541165,-121.81219196210554,200.0
93455,34.84195,-120.45522,Santa Maria,CA,California,True,,45246.0,147.6,6083,Santa Barbara,"{""06083"": 100}",Santa Barbara,06083,False,False,America/Los_Angeles,"(34.84195, -120.45522)",111.70765752675068,6519318.0,17_0_no,33.67738419541165,-121.81219196210554,200.0
93458,34.95477,-120.49042,Santa Maria,CA,California,True,,56572.0,768.7,6083,Santa Barbara,"{""06083"": 99.84, ""06079"": 0.16}",Santa Barbara|San Luis Obispo,06083|06079,False,False,America/Los_Angeles,"(34.95477, -120.49042)",116.09746605222333,6519318.0,17_0_no,33.67738419541165,-121.81219196210554,200.0
93460,34.66214,-119.90091,Santa Ynez,CA,California,True,,6023.0,10.6,6083,Santa Barbara,"{""06083"": 100}",Santa Barbara,06083,False,False,America/Los_Angeles,"(34.66214, -119.90091)",128.71039377878657,6519318.0,17_0_no,33.67738419541165,-121.81219196210554,200.0
93461,35.63519,-120.26951,Shandon,CA,California,True,,1437.0,1.9,6079,San Luis Obispo,"{""06079"": 90.85, ""06029"": 9.15}",San Luis Obispo|Kern,06079|06029,False,False,America/Los_Angeles,"(35.63519, -120.26951)",161.19499025925947,6519318.0,17_0_no,33.67738419541165,-121.81219196210554,200.0
93463,34.60688,-120.13495,Solvang,CA,California,True,,7846.0,89.4,6083,Santa Barbara,"{""06083"": 100}",Santa Barbara,06083,False,False,America/Los_Angeles,"(34.60688, -120.13495)",115.42577393810254,6519318.0,17_0_no,33.67738419541165,-121.81219196210554,200.0
93465,35.54267,-120.73417,Templeton,CA,California,True,,9465.0,43.2,6079,San Luis Obispo,"{""06079"": 100}",San Luis Obispo,06079,False,False,America/Los_Angeles,"(35.54267, -120.73417)",142.7131346083593,6519318.0,17_0_no,33.67738419541165,-121.81219196210554,200.0
93518,35.37675,-118.47314,Caliente,CA,California,True,,833.0,1.0,6029,Kern,"{""06029"": 100}",Kern,06029,False,False,America/Los_Angeles,"(35.37675, -118.47314)",223.38982056918496,6519318.0,17_0_no,33.67738419541165,-121.81219196210554,200.0
93531,35.22937,-118.60781,Keene,CA,California,True,,371.0,7.3,6029,Kern,"{""06029"": 100}",Kern,06029,False,False,America/Los_Angeles,"(35.22937, -118.60781)",211.70960876993988,6519318.0,17_0_no,33.67738419541165,-121.81219196210554,200.0
93532,34.68571,-118.55914,Lake Hughes,CA,California,True,,2637.0,8.3,6037,Los Angeles,"{""06037"": 100}",Los Angeles,06037,False,False,America/Los_Angeles,"(34.68571, -118.55914)",198.54969927858357,6519318.0,17_0_no,33.67738419541165,-121.81219196210554,200.0
93536,34.75267,-118.3889,Lancaster,CA,California,True,,68575.0,104.1,6037,Los Angeles,"{""06037"": 94.84, ""06029"": 5.16}",Los Angeles|Kern,06037|06029,False,False,America/Los_Angeles,"(34.75267, -118.3889)",209.2121186176313,6519318.0,17_0_no,33.67738419541165,-121.81219196210554,200.0
93561,35.10904,-118.52016,Tehachapi,CA,California,True,,35133.0,44.9,6029,Kern,"{""06029"": 100}",Kern,06029,False,False,America/Los_Angeles,"(35.10904, -118.52016)",212.14660781792736,6519318.0,17_0_no,33.67738419541165,-121.81219196210554,200.0
93603,36.55118,-118.99607,Badger,CA,California,True,,141.0,0.5,6107,Tulare,"{""06107"": 100}",Tulare,06107,False,False,America/Los_Angeles,"(36.55118, -118.99607)",254.44944652607617,6519318.0,17_0_no,33.67738419541165,-121.81219196210554,200.0
93608,36.5055,-120.3418,Cantua Creek,CA,California,True,,1057.0,3.4,6019,Fresno,"{""06019"": 100}",Fresno,06019,False,False,America/Los_Angeles,"(36.5055, -120.3418)",212.3428408311168,6519318.0,17_0_no,33.67738419541165,-121.81219196210554,200.0
93609,36.52616,-119.86388,Caruthers,CA,California,True,,5328.0,33.7,6019,Fresno,"{""06019"": 100}",Fresno,06019,False,False,America/Los_Angeles,"(36.52616, -119.86388)",225.53369959789887,6519318.0,17_0_no,33.67738419541165,-121.81219196210554,200.0
93615,36.50374,-119.28385,Cutler,CA,California,True,,6335.0,152.0,6107,Tulare,"{""06107"": 100}",Tulare,06107,False,False,America/Los_Angeles,"(36.50374, -119.28385)",241.98331084936106,6519318.0,17_0_no,33.67738419541165,-121.81219196210554,200.0
93618,36.52213,-119.38661,Dinuba,CA,California,True,,31971.0,184.5,6107,Tulare,"{""06107"": 88.96, ""06019"": 11.04}",Tulare|Fresno,06107|06019,False,False,America/Los_Angeles,"(36.52213, -119.38661)",239.6316450215057,6519318.0,17_0_no,33.67738419541165,-121.81219196210554,200.0
93624,36.37258,-120.12125,Five Points,CA,California,True,,935.0,2.5,6019,Fresno,"{""06019"": 100}",Fresno,06019,False,False,America/Los_Angeles,"(36.37258, -120.12125)",209.34960493965232,6519318.0,17_0_no,33.67738419541165,-121.81219196210554,200.0
93627,36.51568,-120.10635,Helm,CA,California,True,,134.0,0.8,6019,Fresno,"{""06019"": 100}",Fresno,06019,False,False,America/Los_Angeles,"(36.51568, -120.10635)",218.52367736426567,6519318.0,17_0_no,33.67738419541165,-121.81219196210554,200.0
93631,36.47653,-119.52131,Kingsburg,CA,California,True,,16163.0,75.6,6107,Tulare,"{""06107"": 53.33, ""06019"": 25.96, ""06031"": 20.71}",Tulare|Fresno|Kings,06107|06019|06031,False,False,America/Los_Angeles,"(36.47653, -119.52131)",232.75620100877828,6519318.0,17_0_no,33.67738419541165,-121.81219196210554,200.0
93656,36.45173,-119.93615,Riverdale,CA,California,True,,5806.0,19.8,6019,Fresno,"{""06019"": 90.74, ""06031"": 9.26}",Fresno|Kings,06019|06031,False,False,America/Los_Angeles,"(36.45173, -119.93615)",219.0784183001927,6519318.0,17_0_no,33.67738419541165,-121.81219196210554,200.0
93662,36.53963,-119.64287,Selma,CA,California,True,,30453.0,151.0,6019,Fresno,"{""06019"": 100}",Fresno,06019,False,False,America/Los_Angeles,"(36.53963, -119.64287)",232.6721766769574,6519318.0,17_0_no,33.67738419541165,-121.81219196210554,200.0
93666,36.54623,-119.33629,Sultana,CA,California,True,,1029.0,1877.0,6107,Tulare,"{""06107"": 100}",Tulare,06107,False,False,America/Los_Angeles,"(36.54623, -119.33629)",242.61571669350045,6519318.0,17_0_no,33.67738419541165,-121.81219196210554,200.0
93673,36.45229,-119.48232,Traver,CA,California,True,,702.0,348.0,6107,Tulare,"{""06107"": 100}",Tulare,06107,False,False,America/Los_Angeles,"(36.45229, -119.48232)",232.61863750597152,6519318.0,17_0_no,33.67738419541165,-121.81219196210554,200.0
93920,36.03164,-121.52592,Big Sur,CA,California,True,,1430.0,3.5,6053,Monterey,"{""06053"": 100}",Monterey,06053,False,False,America/Los_Angeles,"(36.03164, -121.52592)",163.47110194845814,6519318.0,17_0_no,33.67738419541165,-121.81219196210554,200.0
93921,36.55359,-121.92259,Carmel By The Sea,CA,California,True,,2951.0,1196.8,6053,Monterey,"{""06053"": 100}",Monterey,06053,False,False,America/Los_Angeles,"(36.55359, -121.92259)",198.82476878365438,6519318.0,17_0_no,33.67738419541165,-121.81219196210554,200.0
93923,36.40394,-121.79867,Carmel,CA,California,True,,12922.0,24.6,6053,Monterey,"{""06053"": 100}",Monterey,06053,False,False,America/Los_Angeles,"(36.40394, -121.79867)",188.38861485247,6519318.0,17_0_no,33.67738419541165,-121.81219196210554,200.0
93924,36.39489,-121.63406,Carmel Valley,CA,California,True,,6421.0,13.3,6053,Monterey,"{""06053"": 100}",Monterey,06053,False,False,America/Los_Angeles,"(36.39489, -121.63406)",188.03188367252645,6519318.0,17_0_no,33.67738419541165,-121.81219196210554,200.0
93926,36.52567,-121.3991,Gonzales,CA,California,True,,8893.0,51.1,6053,Monterey,"{""06053"": 100}",Monterey,06053,False,False,America/Los_Angeles,"(36.52567, -121.3991)",198.17762747303885,6519318.0,17_0_no,33.67738419541165,-121.81219196210554,200.0
93927,36.26978,-121.38018,Greenfield,CA,California,True,,18344.0,33.7,6053,Monterey,"{""06053"": 100}",Monterey,06053,False,False,America/Los_Angeles,"(36.26978, -121.38018)",180.779037886919,6519318.0,17_0_no,33.67738419541165,-121.81219196210554,200.0
93928,36.06484,-121.38102,Jolon,CA,California,True,,1019.0,10.2,6053,Monterey,"{""06053"": 100}",Monterey,06053,False,False,America/Los_Angeles,"(36.06484, -121.38102)",166.75779599658216,6519318.0,17_0_no,33.67738419541165,-121.81219196210554,200.0
93930,36.19924,-121.07282,King City,CA,California,True,,17599.0,19.8,6053,Monterey,"{""06053"": 81.1, ""06069"": 18.9}",Monterey|San Benito,06053|06069,False,False,America/Los_Angeles,"(36.19924, -121.07282)",179.20365444905056,6519318.0,17_0_no,33.67738419541165,-121.81219196210554,200.0
93932,36.00143,-121.05757,Lockwood,CA,California,True,,502.0,2.6,6053,Monterey,"{""06053"": 100}",Monterey,06053,False,False,America/Los_Angeles,"(36.00143, -121.05757)",166.1788790620674,6519318.0,17_0_no,33.67738419541165,-121.81219196210554,200.0
93940,36.45294,-121.8498,Monterey,CA,California,True,,32699.0,359.3,6053,Monterey,"{""06053"": 100}",Monterey,06053,False,False,America/Los_Angeles,"(36.45294, -121.8498)",191.7844278681932,6519318.0,17_0_no,33.67738419541165,-121.81219196210554,200.0
93954,36.16434,-120.92441,San Lucas,CA,California,True,,438.0,2.8,6053,Monterey,"{""06053"": 100}",Monterey,06053,False,False,America/Los_Angeles,"(36.16434, -120.92441)",179.03896027843413,6519318.0,17_0_no,33.67738419541165,-121.81219196210554,200.0
93960,36.40489,-121.32121,Soledad,CA,California,True,,27009.0,59.9,6053,Monterey,"{""06053"": 100}",Monterey,06053,False,False,America/Los_Angeles,"(36.40489, -121.32121)",190.48750180775238,6519318.0,17_0_no,33.67738419541165,-121.81219196210554,200.0
95043,36.51652,-120.97677,Paicines,CA,California,True,,727.0,0.4,6069,San Benito,"{""06069"": 100}",San Benito,06069,False,False,America/Los_Angeles,"(36.51652, -120.97677)",201.76768564770254,6519318.0,17_0_no,33.67738419541165,-121.81219196210554,200.0
