zip,lat,lng,city,state_id,state_name,zcta,parent_zcta,population,density,county_fips,county_name,county_weights,county_names_all,county_fips_all,imprecise,military,timezone,Coord,distance_miles,market_total_population,market_id,market_center_lat,market_center_lng,radius_miles
07823,40.82589,-75.03781,Belvidere,NJ,New Jersey,True,,7981.0,122.9,34041,Warren,"{""34041"": 100}",Warren,34041,False,False,America/New_York,"(40.82589, -75.03781)",190.3977110994931,36311739.0,27_0_yes,40.85086148046825,-78.68028609602923,200.0
07825,40.98308,-74.9623,Blairstown,NJ,New Jersey,True,,9686.0,44.0,34041,Warren,"{""34041"": 97.83, ""34037"": 2.17}",Warren|Sussex,34041|34037,False,False,America/New_York,"(40.98308, -74.9623)",194.32024275155314,36311739.0,27_0_yes,40.85086148046825,-78.68028609602923,200.0
07832,40.94755,-75.06385,Columbia,NJ,New Jersey,True,,3223.0,29.6,34041,Warren,"{""34041"": 100}",Warren,34041,False,False,America/New_York,"(40.94755, -75.06385)",188.97344230553577,36311739.0,27_0_yes,40.85086148046825,-78.68028609602923,200.0
07833,40.89422,-75.06979,Delaware,NJ,New Jersey,True,,111.0,139.1,34041,Warren,"{""34041"": 100}",Warren,34041,False,False,America/New_York,"(40.89422, -75.06979)",188.64501809786222,36311739.0,27_0_yes,40.85086148046825,-78.68028609602923,200.0
07838,40.88925,-74.91042,Great Meadows,NJ,New Jersey,True,,3069.0,45.8,34041,Warren,"{""34041"": 100}",Warren,34041,False,False,America/New_York,"(40.88925, -74.91042)",196.9711076628815,36311739.0,27_0_yes,40.85086148046825,-78.68028609602923,200.0
07846,40.96694,-74.87671,Johnsonburg,NJ,New Jersey,True,,43.0,202.7,34041,Warren,"{""34041"": 100}",Warren,34041,False,False,America/New_York,"(40.96694, -74.87671)",198.75925638264846,36311739.0,27_0_yes,40.85086148046825,-78.68028609602923,200.0
07863,40.81515,-74.96562,Oxford,NJ,New Jersey,True,,3767.0,73.1,34041,Warren,"{""34041"": 100}",Warren,34041,False,False,America/New_York,"(40.81515, -74.96562)",194.19406093455402,36311739.0,27_0_yes,40.85086148046825,-78.68028609602923,200.0
07865,40.78722,-74.89845,Port Murray,NJ,New Jersey,True,,2227.0,52.0,34041,Warren,"{""34041"": 64.47, ""34019"": 21.24, ""34027"": 14.29}",Warren|Hunterdon|Morris,34041|34019|34027,False,False,America/New_York,"(40.78722, -74.89845)",197.77955857205177,36311739.0,27_0_yes,40.85086148046825,-78.68028609602923,200.0
07880,40.874,-74.88503,Vienna,NJ,New Jersey,True,,215.0,75.5,34041,Warren,"{""34041"": 100}",Warren,34041,False,False,America/New_York,"(40.874, -74.88503)",198.30880725990644,36311739.0,27_0_yes,40.85086148046825,-78.68028609602923,200.0
07881,41.12213,-74.93249,Wallpack Center,NJ,New Jersey,True,,8.0,0.3,34037,Sussex,"{""34037"": 100}",Sussex,34037,False,False,America/New_York,"(41.12213, -74.93249)",196.35161960425842,36311739.0,27_0_yes,40.85086148046825,-78.68028609602923,200.0
07882,40.75327,-75.00748,Washington,NJ,New Jersey,True,,13892.0,169.9,34041,Warren,"{""34041"": 94.91, ""34019"": 5.09}",Warren|Hunterdon,34041|34019,False,False,America/New_York,"(40.75327, -75.00748)",192.19837821877226,36311739.0,27_0_yes,40.85086148046825,-78.68028609602923,200.0
08001,39.55423,-75.35683,Alloway,NJ,New Jersey,True,,847.0,98.4,34033,Salem,"{""34033"": 100}",Salem,34033,False,False,America/New_York,"(39.55423, -75.35683)",196.92040034523404,36311739.0,27_0_yes,40.85086148046825,-78.68028609602923,200.0
08002,39.93142,-75.02515,Cherry Hill,NJ,New Jersey,True,,22794.0,1220.8,34007,Camden,"{""34007"": 100}",Camden,34007,False,False,America/New_York,"(39.93142, -75.02515)",202.54860742165883,36311739.0,27_0_yes,40.85086148046825,-78.68028609602923,200.0
08003,39.88334,-74.97191,Cherry Hill,NJ,New Jersey,True,,29856.0,1048.9,34007,Camden,"{""34007"": 100}",Camden,34007,False,False,America/New_York,"(39.88334, -74.97191)",206.32798471827022,36311739.0,27_0_yes,40.85086148046825,-78.68028609602923,200.0
08007,39.86509,-75.05379,Barrington,NJ,New Jersey,True,,4812.0,1382.4,34007,Camden,"{""34007"": 100}",Camden,34007,False,False,America/New_York,"(39.86509, -75.05379)",202.7002869244778,36311739.0,27_0_yes,40.85086148046825,-78.68028609602923,200.0
08009,39.76154,-74.93279,Berlin,NJ,New Jersey,True,,12903.0,301.3,34007,Camden,"{""34007"": 100}",Camden,34007,False,False,America/New_York,"(39.76154, -74.93279)",211.29307835069193,36311739.0,27_0_yes,40.85086148046825,-78.68028609602923,200.0
08010,40.05484,-74.91407,Beverly,NJ,New Jersey,True,,11115.0,1182.6,34005,Burlington,"{""34005"": 100}",Burlington,34005,False,False,America/New_York,"(40.05484, -74.91407)",205.48953271136364,36311739.0,27_0_yes,40.85086148046825,-78.68028609602923,200.0
08012,39.78409,-75.05586,Blackwood,NJ,New Jersey,True,,38708.0,996.4,34007,Camden,"{""34007"": 60.13, ""34015"": 39.87}",Camden|Gloucester,34007|34015,False,False,America/New_York,"(39.78409, -75.05586)",204.65279190006612,36311739.0,27_0_yes,40.85086148046825,-78.68028609602923,200.0
08014,39.81186,-75.36286,Bridgeport,NJ,New Jersey,True,,403.0,43.0,34015,Gloucester,"{""34015"": 100}",Gloucester,34015,False,False,America/New_York,"(39.81186, -75.36286)",188.88759312971894,36311739.0,27_0_yes,40.85086148046825,-78.68028609602923,200.0
08020,39.79674,-75.22271,Clarksboro,NJ,New Jersey,True,,2914.0,247.2,34015,Gloucester,"{""34015"": 100}",Gloucester,34015,False,False,America/New_York,"(39.79674, -75.22271)",196.13835297140028,36311739.0,27_0_yes,40.85086148046825,-78.68028609602923,200.0
08021,39.80604,-75.00025,Clementon,NJ,New Jersey,True,,43835.0,1305.4,34007,Camden,"{""34007"": 100}",Camden,34007,False,False,America/New_York,"(39.80604, -75.00025)",206.82444307586772,36311739.0,27_0_yes,40.85086148046825,-78.68028609602923,200.0
08023,39.68825,-75.49761,Deepwater,NJ,New Jersey,True,,274.0,125.2,34033,Salem,"{""34033"": 100}",Salem,34033,False,False,America/New_York,"(39.68825, -75.49761)",186.00913596542512,36311739.0,27_0_yes,40.85086148046825,-78.68028609602923,200.0
08026,39.83329,-74.9657,Gibbsboro,NJ,New Jersey,True,,2231.0,400.3,34007,Camden,"{""34007"": 100}",Camden,34007,False,False,America/New_York,"(39.83329, -74.9657)",207.84930389628397,36311739.0,27_0_yes,40.85086148046825,-78.68028609602923,200.0
08027,39.82883,-75.29345,Gibbstown,NJ,New Jersey,True,,4816.0,248.4,34015,Gloucester,"{""34015"": 100}",Gloucester,34015,False,False,America/New_York,"(39.82883, -75.29345)",191.81809851814114,36311739.0,27_0_yes,40.85086148046825,-78.68028609602923,200.0
08028,39.69336,-75.11949,Glassboro,NJ,New Jersey,True,,21596.0,574.9,34015,Gloucester,"{""34015"": 100}",Gloucester,34015,False,False,America/New_York,"(39.69336, -75.11949)",204.0207676689974,36311739.0,27_0_yes,40.85086148046825,-78.68028609602923,200.0
08029,39.84097,-75.06717,Glendora,NJ,New Jersey,True,,4858.0,1744.8,34007,Camden,"{""34007"": 100}",Camden,34007,False,False,America/New_York,"(39.84097, -75.06717)",202.6365878202889,36311739.0,27_0_yes,40.85086148046825,-78.68028609602923,200.0
08030,39.89023,-75.1178,Gloucester City,NJ,New Jersey,True,,13117.0,1809.2,34007,Camden,"{""34007"": 100}",Camden,34007,False,False,America/New_York,"(39.89023, -75.1178)",198.9112319162381,36311739.0,27_0_yes,40.85086148046825,-78.68028609602923,200.0
08031,39.86655,-75.09408,Bellmawr,NJ,New Jersey,True,,11375.0,1472.0,34007,Camden,"{""34007"": 100}",Camden,34007,False,False,America/New_York,"(39.86655, -75.09408)",200.6679959151398,36311739.0,27_0_yes,40.85086148046825,-78.68028609602923,200.0
08033,39.89332,-75.03723,Haddonfield,NJ,New Jersey,True,,15883.0,1555.6,34007,Camden,"{""34007"": 100}",Camden,34007,False,False,America/New_York,"(39.89332, -75.03723)",202.83948204834616,36311739.0,27_0_yes,40.85086148046825,-78.68028609602923,200.0
08034,39.90593,-74.99935,Cherry Hill,NJ,New Jersey,True,,18659.0,1219.5,34007,Camden,"{""34007"": 100}",Camden,34007,False,False,America/New_York,"(39.90593, -74.99935)",204.42805619084123,36311739.0,27_0_yes,40.85086148046825,-78.68028609602923,200.0
08035,39.87914,-75.06435,Haddon Heights,NJ,New Jersey,True,,7654.0,1874.8,34007,Camden,"{""34007"": 100}",Camden,34007,False,False,America/New_York,"(39.87914, -75.06435)",201.8333655657715,36311739.0,27_0_yes,40.85086148046825,-78.68028609602923,200.0
08038,39.47391,-75.48852,Hancocks Bridge,NJ,New Jersey,True,,190.0,4.2,34033,Salem,"{""34033"": 100}",Salem,34033,False,False,America/New_York,"(39.47391, -75.48852)",193.51342935525372,36311739.0,27_0_yes,40.85086148046825,-78.68028609602923,200.0
08039,39.68662,-75.27661,Harrisonville,NJ,New Jersey,True,,186.0,133.0,34015,Gloucester,"{""34015"": 100}",Gloucester,34015,False,False,America/New_York,"(39.68662, -75.27661)",196.6275947970972,36311739.0,27_0_yes,40.85086148046825,-78.68028609602923,200.0
08043,39.84502,-74.95492,Voorhees,NJ,New Jersey,True,,29195.0,982.7,34007,Camden,"{""34007"": 100}",Camden,34007,False,False,America/New_York,"(39.84502, -74.95492)",208.0955353478613,36311739.0,27_0_yes,40.85086148046825,-78.68028609602923,200.0
08045,39.86722,-75.02912,Lawnside,NJ,New Jersey,True,,2811.0,777.9,34007,Camden,"{""34007"": 100}",Camden,34007,False,False,America/New_York,"(39.86722, -75.02912)",203.87186445183258,36311739.0,27_0_yes,40.85086148046825,-78.68028609602923,200.0
08046,40.02787,-74.88709,Willingboro,NJ,New Jersey,True,,31857.0,1618.8,34005,Burlington,"{""34005"": 100}",Burlington,34005,False,False,America/New_York,"(40.02787, -74.88709)",207.39767399976304,36311739.0,27_0_yes,40.85086148046825,-78.68028609602923,200.0
08049,39.85463,-75.03816,Magnolia,NJ,New Jersey,True,,5186.0,1633.5,34007,Camden,"{""34007"": 100}",Camden,34007,False,False,America/New_York,"(39.85463, -75.03816)",203.73226381034738,36311739.0,27_0_yes,40.85086148046825,-78.68028609602923,200.0
08051,39.78583,-75.17903,Mantua,NJ,New Jersey,True,,10994.0,1103.3,34015,Gloucester,"{""34015"": 100}",Gloucester,34015,False,False,America/New_York,"(39.78583, -75.17903)",198.5679112503329,36311739.0,27_0_yes,40.85086148046825,-78.68028609602923,200.0
08052,39.952,-74.99502,Maple Shade,NJ,New Jersey,True,,18590.0,1874.1,34005,Burlington,"{""34005"": 100}",Burlington,34005,False,False,America/New_York,"(39.952, -74.99502)",203.5882459098949,36311739.0,27_0_yes,40.85086148046825,-78.68028609602923,200.0
08053,39.86051,-74.89469,Marlton,NJ,New Jersey,True,,45138.0,597.7,34005,Burlington,"{""34005"": 100}",Burlington,34005,False,False,America/New_York,"(39.86051, -74.89469)",210.7155228997624,36311739.0,27_0_yes,40.85086148046825,-78.68028609602923,200.0
08054,39.94835,-74.90472,Mount Laurel,NJ,New Jersey,True,,41443.0,736.5,34005,Burlington,"{""34005"": 100}",Burlington,34005,False,False,America/New_York,"(39.94835, -74.90472)",208.19739374442602,36311739.0,27_0_yes,40.85086148046825,-78.68028609602923,200.0
08056,39.78355,-75.25155,Mickleton,NJ,New Jersey,True,,5006.0,212.3,34015,Gloucester,"{""34015"": 100}",Gloucester,34015,False,False,America/New_York,"(39.78355, -75.25155)",195.08776817152085,36311739.0,27_0_yes,40.85086148046825,-78.68028609602923,200.0
08057,39.97948,-74.94105,Moorestown,NJ,New Jersey,True,,20667.0,521.5,34005,Burlington,"{""34005"": 100}",Burlington,34005,False,False,America/New_York,"(39.97948, -74.94105)",205.69203930314467,36311739.0,27_0_yes,40.85086148046825,-78.68028609602923,200.0
08059,39.88462,-75.09309,Mount Ephraim,NJ,New Jersey,True,,5380.0,1690.4,34007,Camden,"{""34007"": 100}",Camden,34007,False,False,America/New_York,"(39.88462, -75.09309)",200.27381200617486,36311739.0,27_0_yes,40.85086148046825,-78.68028609602923,200.0
08061,39.80459,-75.207,Mount Royal,NJ,New Jersey,True,,2769.0,806.4,34015,Gloucester,"{""34015"": 100}",Gloucester,34015,False,False,America/New_York,"(39.80459, -75.207)",196.6970354182944,36311739.0,27_0_yes,40.85086148046825,-78.68028609602923,200.0
08062,39.71465,-75.22124,Mullica Hill,NJ,New Jersey,True,,16419.0,197.0,34015,Gloucester,"{""34015"": 100}",Gloucester,34015,False,False,America/New_York,"(39.71465, -75.22124)",198.48607280395973,36311739.0,27_0_yes,40.85086148046825,-78.68028609602923,200.0
08063,39.86758,-75.18509,National Park,NJ,New Jersey,True,,3007.0,1128.0,34015,Gloucester,"{""34015"": 100}",Gloucester,34015,False,False,America/New_York,"(39.86758, -75.18509)",196.14177554902662,36311739.0,27_0_yes,40.85086148046825,-78.68028609602923,200.0
08065,40.00234,-75.03589,Palmyra,NJ,New Jersey,True,,7162.0,1495.3,34005,Burlington,"{""34005"": 99.87, ""34007"": 0.13}",Burlington|Camden,34005|34007,False,False,America/New_York,"(40.00234, -75.03589)",200.42946058323,36311739.0,27_0_yes,40.85086148046825,-78.68028609602923,200.0
08066,39.83475,-75.23017,Paulsboro,NJ,New Jersey,True,,8022.0,452.4,34015,Gloucester,"{""34015"": 100}",Gloucester,34015,False,False,America/New_York,"(39.83475, -75.23017)",194.76463274128278,36311739.0,27_0_yes,40.85086148046825,-78.68028609602923,200.0
08067,39.7388,-75.41281,Pedricktown,NJ,New Jersey,True,,1653.0,33.5,34033,Salem,"{""34033"": 100}",Salem,34033,False,False,America/New_York,"(39.7388, -75.41281)",188.54248346646992,36311739.0,27_0_yes,40.85086148046825,-78.68028609602923,200.0
08069,39.70209,-75.4501,Penns Grove,NJ,New Jersey,True,,12442.0,301.4,34033,Salem,"{""34033"": 100}",Salem,34033,False,False,America/New_York,"(39.70209, -75.4501)",187.84922475916446,36311739.0,27_0_yes,40.85086148046825,-78.68028609602923,200.0
08070,39.62494,-75.50902,Pennsville,NJ,New Jersey,True,,12291.0,229.3,34033,Salem,"{""34033"": 100}",Salem,34033,False,False,America/New_York,"(39.62494, -75.50902)",187.47185089243067,36311739.0,27_0_yes,40.85086148046825,-78.68028609602923,200.0
08071,39.73227,-75.13457,Pitman,NJ,New Jersey,True,,9381.0,1092.7,34015,Gloucester,"{""34015"": 100}",Gloucester,34015,False,False,America/New_York,"(39.73227, -75.13457)",202.19820075377385,36311739.0,27_0_yes,40.85086148046825,-78.68028609602923,200.0
08072,39.54495,-75.41258,Quinton,NJ,New Jersey,True,,221.0,240.4,34033,Salem,"{""34033"": 100}",Salem,34033,False,False,America/New_York,"(39.54495, -75.41258)",194.61250916387183,36311739.0,27_0_yes,40.85086148046825,-78.68028609602923,200.0
08073,40.00952,-74.86698,Rancocas,NJ,New Jersey,True,,130.0,579.9,34005,Burlington,"{""34005"": 100}",Burlington,34005,False,False,America/New_York,"(40.00952, -74.86698)",208.79013684722747,36311739.0,27_0_yes,40.85086148046825,-78.68028609602923,200.0
08074,39.71289,-75.16379,Richwood,NJ,New Jersey,True,,16.0,11.1,34015,Gloucester,"{""34015"": 100}",Gloucester,34015,False,False,America/New_York,"(39.71289, -75.16379)",201.31981208726876,36311739.0,27_0_yes,40.85086148046825,-78.68028609602923,200.0
08075,40.02937,-74.94999,Riverside,NJ,New Jersey,True,,28617.0,1118.6,34005,Burlington,"{""34005"": 100}",Burlington,34005,False,False,America/New_York,"(40.02937, -74.94999)",204.18863797721846,36311739.0,27_0_yes,40.85086148046825,-78.68028609602923,200.0
08077,40.00193,-74.99515,Riverton,NJ,New Jersey,True,,19120.0,910.9,34005,Burlington,"{""34005"": 100}",Burlington,34005,False,False,America/New_York,"(40.00193, -74.99515)",202.487756663653,36311739.0,27_0_yes,40.85086148046825,-78.68028609602923,200.0
08078,39.85202,-75.07542,Runnemede,NJ,New Jersey,True,,8307.0,1668.1,34007,Camden,"{""34007"": 100}",Camden,34007,False,False,America/New_York,"(39.85202, -75.07542)",201.95225454136158,36311739.0,27_0_yes,40.85086148046825,-78.68028609602923,200.0
08079,39.54284,-75.43184,Salem,NJ,New Jersey,True,,9793.0,42.6,34033,Salem,"{""34033"": 100}",Salem,34033,False,False,America/New_York,"(39.54284, -75.43184)",193.78297651543247,36311739.0,27_0_yes,40.85086148046825,-78.68028609602923,200.0
08080,39.75714,-75.11801,Sewell,NJ,New Jersey,True,,37216.0,491.5,34015,Gloucester,"{""34015"": 100}",Gloucester,34015,False,False,America/New_York,"(39.75714, -75.11801)",202.32510473977686,36311739.0,27_0_yes,40.85086148046825,-78.68028609602923,200.0
08081,39.73421,-74.97564,Sicklerville,NJ,New Jersey,True,,50246.0,768.5,34007,Camden,"{""34007"": 96.18, ""34015"": 3.82}",Camden|Gloucester,34007|34015,False,False,America/New_York,"(39.73421, -74.97564)",209.9086048232793,36311739.0,27_0_yes,40.85086148046825,-78.68028609602923,200.0
08083,39.84138,-75.02867,Somerdale,NJ,New Jersey,True,,10137.0,1561.3,34007,Camden,"{""34007"": 100}",Camden,34007,False,False,America/New_York,"(39.84138, -75.02867)",204.53049733173768,36311739.0,27_0_yes,40.85086148046825,-78.68028609602923,200.0
08084,39.82905,-75.01557,Stratford,NJ,New Jersey,True,,6968.0,1713.2,34007,Camden,"{""34007"": 100}",Camden,34007,False,False,America/New_York,"(39.82905, -75.01557)",205.48650304872606,36311739.0,27_0_yes,40.85086148046825,-78.68028609602923,200.0
08085,39.75579,-75.33017,Swedesboro,NJ,New Jersey,True,,21074.0,182.8,34015,Gloucester,"{""34015"": 98.87, ""34033"": 1.13}",Gloucester|Salem,34015|34033,False,False,America/New_York,"(39.75579, -75.33017)",192.0411569022135,36311739.0,27_0_yes,40.85086148046825,-78.68028609602923,200.0
08086,39.85136,-75.18582,Thorofare,NJ,New Jersey,True,,7438.0,410.1,34015,Gloucester,"{""34015"": 100}",Gloucester,34015,False,False,America/New_York,"(39.85136, -75.18582)",196.51729187386982,36311739.0,27_0_yes,40.85086148046825,-78.68028609602923,200.0
08090,39.79777,-75.14849,Wenonah,NJ,New Jersey,True,,8895.0,1175.3,34015,Gloucester,"{""34015"": 100}",Gloucester,34015,False,False,America/New_York,"(39.79777, -75.14849)",199.74564250403412,36311739.0,27_0_yes,40.85086148046825,-78.68028609602923,200.0
08091,39.80545,-74.92558,West Berlin,NJ,New Jersey,True,,5647.0,654.7,34007,Camden,"{""34007"": 100}",Camden,34007,False,False,America/New_York,"(39.80545, -74.92558)",210.5284703808667,36311739.0,27_0_yes,40.85086148046825,-78.68028609602923,200.0
08093,39.86098,-75.13265,Westville,NJ,New Jersey,True,,9000.0,858.6,34015,Gloucester,"{""34015"": 100}",Gloucester,34015,False,False,America/New_York,"(39.86098, -75.13265)",198.8983211035448,36311739.0,27_0_yes,40.85086148046825,-78.68028609602923,200.0
08094,39.65096,-74.96529,Williamstown,NJ,New Jersey,True,,40322.0,284.2,34015,Gloucester,"{""34015"": 89.24, ""34001"": 10.76}",Gloucester|Atlantic,34015|34001,False,False,America/New_York,"(39.65096, -74.96529)",212.7019405225278,36311739.0,27_0_yes,40.85086148046825,-78.68028609602923,200.0
08096,39.82921,-75.12871,Woodbury,NJ,New Jersey,True,,35187.0,978.1,34015,Gloucester,"{""34015"": 100}",Gloucester,34015,False,False,America/New_York,"(39.82921, -75.12871)",199.8985650245799,36311739.0,27_0_yes,40.85086148046825,-78.68028609602923,200.0
08097,39.81571,-75.15117,Woodbury Heights,NJ,New Jersey,True,,3153.0,925.0,34015,Gloucester,"{""34015"": 100}",Gloucester,34015,False,False,America/New_York,"(39.81571, -75.15117)",199.1429261010672,36311739.0,27_0_yes,40.85086148046825,-78.68028609602923,200.0
08098,39.63934,-75.3316,Woodstown,NJ,New Jersey,True,,9125.0,60.9,34033,Salem,"{""34033"": 100}",Salem,34033,False,False,America/New_York,"(39.63934, -75.3316)",195.41877923654513,36311739.0,27_0_yes,40.85086148046825,-78.68028609602923,200.0
08102,39.95203,-75.12134,Camden,NJ,New Jersey,True,,8050.0,3115.1,34007,Camden,"{""34007"": 100}",Camden,34007,False,False,America/New_York,"(39.95203, -75.12134)",197.2698333700499,36311739.0,27_0_yes,40.85086148046825,-78.68028609602923,200.0
08103,39.93533,-75.11275,Camden,NJ,New Jersey,True,,14239.0,2569.9,34007,Camden,"{""34007"": 100}",Camden,34007,False,False,America/New_York,"(39.93533, -75.11275)",198.08611664245453,36311739.0,27_0_yes,40.85086148046825,-78.68028609602923,200.0
08104,39.91672,-75.11203,Camden,NJ,New Jersey,True,,22187.0,2858.4,34007,Camden,"{""34007"": 100}",Camden,34007,False,False,America/New_York,"(39.91672, -75.11203)",198.56059075875078,36311739.0,27_0_yes,40.85086148046825,-78.68028609602923,200.0
08105,39.95174,-75.09107,Camden,NJ,New Jersey,True,,26807.0,3990.0,34007,Camden,"{""34007"": 100}",Camden,34007,False,False,America/New_York,"(39.95174, -75.09107)",198.78845881570768,36311739.0,27_0_yes,40.85086148046825,-78.68028609602923,200.0
08106,39.89119,-75.07388,Audubon,NJ,New Jersey,True,,9811.0,2328.3,34007,Camden,"{""34007"": 100}",Camden,34007,False,False,America/New_York,"(39.89119, -75.07388)",201.06848832196889,36311739.0,27_0_yes,40.85086148046825,-78.68028609602923,200.0
08107,39.90767,-75.08344,Oaklyn,NJ,New Jersey,True,,13533.0,2918.1,34007,Camden,"{""34007"": 100}",Camden,34007,False,False,America/New_York,"(39.90767, -75.08344)",200.19841185828167,36311739.0,27_0_yes,40.85086148046825,-78.68028609602923,200.0
08108,39.91453,-75.06192,Collingswood,NJ,New Jersey,True,,18004.0,2582.7,34007,Camden,"{""34007"": 100}",Camden,34007,False,False,America/New_York,"(39.91453, -75.06192)",201.10741271969974,36311739.0,27_0_yes,40.85086148046825,-78.68028609602923,200.0
08109,39.95006,-75.05094,Merchantville,NJ,New Jersey,True,,22741.0,1820.8,34007,Camden,"{""34007"": 100}",Camden,34007,False,False,America/New_York,"(39.95006, -75.05094)",200.832981741559,36311739.0,27_0_yes,40.85086148046825,-78.68028609602923,200.0
08110,39.97243,-75.06021,Pennsauken,NJ,New Jersey,True,,19124.0,1142.6,34007,Camden,"{""34007"": 100}",Camden,34007,False,False,America/New_York,"(39.97243, -75.06021)",199.86482873450538,36311739.0,27_0_yes,40.85086148046825,-78.68028609602923,200.0
08204,38.97131,-74.92054,Cape May,NJ,New Jersey,True,,17257.0,325.7,34009,Cape May,"{""34009"": 100}",Cape May,34009,False,False,America/New_York,"(38.97131, -74.92054)",237.8052011010996,36311739.0,27_0_yes,40.85086148046825,-78.68028609602923,200.0
08212,38.93721,-74.96509,Cape May Point,NJ,New Jersey,True,,165.0,216.0,34009,Cape May,"{""34009"": 100}",Cape May,34009,False,False,America/New_York,"(38.93721, -74.96509)",237.17697726704338,36311739.0,27_0_yes,40.85086148046825,-78.68028609602923,200.0
08242,39.01786,-74.88627,Rio Grande,NJ,New Jersey,True,,2975.0,241.3,34009,Cape May,"{""34009"": 100}",Cape May,34009,False,False,America/New_York,"(39.01786, -74.88627)",237.5416333073485,36311739.0,27_0_yes,40.85086148046825,-78.68028609602923,200.0
08251,39.02766,-74.92573,Villas,NJ,New Jersey,True,,10559.0,579.7,34009,Cape May,"{""34009"": 100}",Cape May,34009,False,False,America/New_York,"(39.02766, -74.92573)",235.4014245078813,36311739.0,27_0_yes,40.85086148046825,-78.68028609602923,200.0
08302,39.4397,-75.2616,Bridgeton,NJ,New Jersey,True,,44640.0,120.9,34011,Cumberland,"{""34011"": 90.88, ""34033"": 9.12}",Cumberland|Salem,34011|34033,False,False,America/New_York,"(39.4397, -75.2616)",205.1819926046109,36311739.0,27_0_yes,40.85086148046825,-78.68028609602923,200.0
08310,39.52723,-74.89769,Buena,NJ,New Jersey,True,,1460.0,46.1,34001,Atlantic,"{""34001"": 100}",Atlantic,34001,False,False,America/New_York,"(39.52723, -74.89769)",219.5752647301246,36311739.0,27_0_yes,40.85086148046825,-78.68028609602923,200.0
08311,39.32685,-75.20804,Cedarville,NJ,New Jersey,True,,1987.0,27.5,34011,Cumberland,"{""34011"": 100}",Cumberland,34011,False,False,America/New_York,"(39.32685, -75.20804)",211.57750575771,36311739.0,27_0_yes,40.85086148046825,-78.68028609602923,200.0
08312,39.66143,-75.08375,Clayton,NJ,New Jersey,True,,7933.0,556.1,34015,Gloucester,"{""34015"": 100}",Gloucester,34015,False,False,America/New_York,"(39.66143, -75.08375)",206.66302903538923,36311739.0,27_0_yes,40.85086148046825,-78.68028609602923,200.0
08314,39.21683,-74.94113,Delmont,NJ,New Jersey,True,,390.0,12.3,34011,Cumberland,"{""34011"": 100}",Cumberland,34011,False,False,America/New_York,"(39.21683, -74.94113)",227.73116987626315,36311739.0,27_0_yes,40.85086148046825,-78.68028609602923,200.0
08316,39.28009,-74.93186,Dorchester,NJ,New Jersey,True,,177.0,8.3,34011,Cumberland,"{""34011"": 100}",Cumberland,34011,False,False,America/New_York,"(39.28009, -74.93186)",225.9467806794591,36311739.0,27_0_yes,40.85086148046825,-78.68028609602923,200.0
08318,39.55657,-75.17776,Elmer,NJ,New Jersey,True,,12387.0,59.5,34033,Salem,"{""34033"": 94.93, ""34011"": 5.07}",Salem|Cumberland,34033|34011,False,False,America/New_York,"(39.55657, -75.17776)",205.30512635268104,36311739.0,27_0_yes,40.85086148046825,-78.68028609602923,200.0
08320,39.3851,-75.16059,Fairton,NJ,New Jersey,True,,1059.0,968.3,34011,Cumberland,"{""34011"": 100}",Cumberland,34011,False,False,America/New_York,"(39.3851, -75.16059)",211.73354203429687,36311739.0,27_0_yes,40.85086148046825,-78.68028609602923,200.0
08321,39.21961,-75.14107,Fortescue,NJ,New Jersey,True,,112.0,4.9,34011,Cumberland,"{""34011"": 100}",Cumberland,34011,False,False,America/New_York,"(39.21961, -75.14107)",218.50863223759936,36311739.0,27_0_yes,40.85086148046825,-78.68028609602923,200.0
08322,39.61463,-75.03385,Franklinville,NJ,New Jersey,True,,10292.0,136.5,34015,Gloucester,"{""34015"": 100}",Gloucester,34015,False,False,America/New_York,"(39.61463, -75.03385)",210.43120986578083,36311739.0,27_0_yes,40.85086148046825,-78.68028609602923,200.0
08323,39.39557,-75.36605,Greenwich,NJ,New Jersey,True,,457.0,9.9,34011,Cumberland,"{""34011"": 100}",Cumberland,34011,False,False,America/New_York,"(39.39557, -75.36605)",201.89644519431522,36311739.0,27_0_yes,40.85086148046825,-78.68028609602923,200.0
08324,39.21859,-74.99999,Heislerville,NJ,New Jersey,True,,341.0,14.3,34011,Cumberland,"{""34011"": 100}",Cumberland,34011,False,False,America/New_York,"(39.21859, -74.99999)",224.9699794535428,36311739.0,27_0_yes,40.85086148046825,-78.68028609602923,200.0
08326,39.53847,-74.92761,Landisville,NJ,New Jersey,True,,1325.0,160.7,34001,Atlantic,"{""34001"": 100}",Atlantic,34001,False,False,America/New_York,"(39.53847, -74.92761)",217.80178498575637,36311739.0,27_0_yes,40.85086148046825,-78.68028609602923,200.0
08327,39.25458,-74.94657,Leesburg,NJ,New Jersey,True,,5379.0,216.7,34011,Cumberland,"{""34011"": 100}",Cumberland,34011,False,False,America/New_York,"(39.25458, -74.94657)",226.15126896453486,36311739.0,27_0_yes,40.85086148046825,-78.68028609602923,200.0
08328,39.5797,-75.06015,Malaga,NJ,New Jersey,True,,1636.0,331.8,34015,Gloucester,"{""34015"": 100}",Gloucester,34015,False,False,America/New_York,"(39.5797, -75.06015)",210.20571358683,36311739.0,27_0_yes,40.85086148046825,-78.68028609602923,200.0
08329,39.2857,-75.00338,Mauricetown,NJ,New Jersey,True,,351.0,273.9,34011,Cumberland,"{""34011"": 100}",Cumberland,34011,False,False,America/New_York,"(39.2857, -75.00338)",222.4426767074159,36311739.0,27_0_yes,40.85086148046825,-78.68028609602923,200.0
08332,39.3705,-75.0293,Millville,NJ,New Jersey,True,,34609.0,127.9,34011,Cumberland,"{""34011"": 100}",Cumberland,34011,False,False,America/New_York,"(39.3705, -75.0293)",218.33782196336455,36311739.0,27_0_yes,40.85086148046825,-78.68028609602923,200.0
08340,39.40087,-74.88407,Milmay,NJ,New Jersey,True,,1302.0,18.1,34011,Cumberland,"{""34011"": 81.14, ""34001"": 18.86}",Cumberland|Atlantic,34011|34001,False,False,America/New_York,"(39.40087, -74.88407)",224.15964622406628,36311739.0,27_0_yes,40.85086148046825,-78.68028609602923,200.0
08341,39.52002,-74.9524,Minotola,NJ,New Jersey,True,,2435.0,937.3,34001,Atlantic,"{""34001"": 100}",Atlantic,34001,False,False,America/New_York,"(39.52002, -74.9524)",217.17387477999867,36311739.0,27_0_yes,40.85086148046825,-78.68028609602923,200.0
08343,39.64057,-75.1699,Monroeville,NJ,New Jersey,True,,4927.0,59.0,34033,Salem,"{""34033"": 51.41, ""34015"": 48.59}",Salem|Gloucester,34033|34015,False,False,America/New_York,"(39.64057, -75.1699)",203.11898089307826,36311739.0,27_0_yes,40.85086148046825,-78.68028609602923,200.0
08344,39.56707,-74.99185,Newfield,NJ,New Jersey,True,,4197.0,68.2,34015,Gloucester,"{""34015"": 75.25, ""34011"": 11.74, ""34001"": 9.01, ""34033"": 4.0}",Gloucester|Cumberland|Atlantic|Salem,34015|34011|34001|34033,False,False,America/New_York,"(39.56707, -74.99185)",213.86086046803942,36311739.0,27_0_yes,40.85086148046825,-78.68028609602923,200.0
08345,39.28816,-75.14668,Newport,NJ,New Jersey,True,,598.0,8.1,34011,Cumberland,"{""34011"": 100}",Cumberland,34011,False,False,America/New_York,"(39.28816, -75.14668)",215.76672551562942,36311739.0,27_0_yes,40.85086148046825,-78.68028609602923,200.0
08348,39.31381,-74.96594,Port Elizabeth,NJ,New Jersey,True,,189.0,39.8,34011,Cumberland,"{""34011"": 100}",Cumberland,34011,False,False,America/New_York,"(39.31381, -74.96594)",223.20865859897884,36311739.0,27_0_yes,40.85086148046825,-78.68028609602923,200.0
08349,39.266,-75.06337,Port Norris,NJ,New Jersey,True,,2390.0,26.7,34011,Cumberland,"{""34011"": 100}",Cumberland,34011,False,False,America/New_York,"(39.266, -75.06337)",220.3738518386378,36311739.0,27_0_yes,40.85086148046825,-78.68028609602923,200.0
08350,39.49134,-74.87413,Richland,NJ,New Jersey,True,,503.0,59.9,34001,Atlantic,"{""34001"": 100}",Atlantic,34001,False,False,America/New_York,"(39.49134, -74.87413)",221.7925600460782,36311739.0,27_0_yes,40.85086148046825,-78.68028609602923,200.0
08352,39.47545,-75.12724,Rosenhayn,NJ,New Jersey,True,,688.0,972.1,34011,Cumberland,"{""34011"": 100}",Cumberland,34011,False,False,America/New_York,"(39.47545, -75.12724)",210.28012565418078,36311739.0,27_0_yes,40.85086148046825,-78.68028609602923,200.0
08353,39.45954,-75.29695,Shiloh,NJ,New Jersey,True,,368.0,118.1,34011,Cumberland,"{""34011"": 100}",Cumberland,34011,False,False,America/New_York,"(39.45954, -75.29695)",202.86585801261464,36311739.0,27_0_yes,40.85086148046825,-78.68028609602923,200.0
08360,39.49374,-75.00352,Vineland,NJ,New Jersey,True,,42225.0,367.7,34011,Cumberland,"{""34011"": 64.8, ""34001"": 25.76, ""34015"": 9.44}",Cumberland|Atlantic|Gloucester,34011|34001|34015,False,False,America/New_York,"(39.49374, -75.00352)",215.5502272326637,36311739.0,27_0_yes,40.85086148046825,-78.68028609602923,200.0
08361,39.44843,-74.95943,Vineland,NJ,New Jersey,True,,18334.0,233.4,34011,Cumberland,"{""34011"": 100}",Cumberland,34011,False,False,America/New_York,"(39.44843, -74.95943)",219.07281692808724,36311739.0,27_0_yes,40.85086148046825,-78.68028609602923,200.0
08530,40.37288,-74.89747,Lambertville,NJ,New Jersey,True,,7364.0,104.9,34019,Hunterdon,"{""34019"": 80.78, ""34021"": 19.22}",Hunterdon|Mercer,34019|34021,False,False,America/New_York,"(40.37288, -74.89747)",201.12657416833352,36311739.0,27_0_yes,40.85086148046825,-78.68028609602923,200.0
08559,40.4387,-74.9716,Stockton,NJ,New Jersey,True,,5252.0,50.9,34019,Hunterdon,"{""34019"": 100}",Hunterdon,34019,False,False,America/New_York,"(40.4387, -74.9716)",196.48856750161082,36311739.0,27_0_yes,40.85086148046825,-78.68028609602923,200.0
08801,40.62774,-74.88655,Annandale,NJ,New Jersey,True,,8383.0,215.5,34019,Hunterdon,"{""34019"": 100}",Hunterdon,34019,False,False,America/New_York,"(40.62774, -74.88655)",199.18815354629783,36311739.0,27_0_yes,40.85086148046825,-78.68028609602923,200.0
08802,40.6783,-75.02515,Asbury,NJ,New Jersey,True,,4299.0,67.8,34019,Hunterdon,"{""34019"": 57.93, ""34041"": 42.07}",Hunterdon|Warren,34019|34041,False,False,America/New_York,"(40.6783, -75.02515)",191.63512856037528,36311739.0,27_0_yes,40.85086148046825,-78.68028609602923,200.0
08804,40.64412,-75.09936,Bloomsbury,NJ,New Jersey,True,,2579.0,70.8,34019,Hunterdon,"{""34019"": 60.14, ""34041"": 39.86}",Hunterdon|Warren,34019|34041,False,False,America/New_York,"(40.64412, -75.09936)",187.9728218002749,36311739.0,27_0_yes,40.85086148046825,-78.68028609602923,200.0
08809,40.64973,-74.92503,Clinton,NJ,New Jersey,True,,6433.0,358.7,34019,Hunterdon,"{""34019"": 100}",Hunterdon,34019,False,False,America/New_York,"(40.64973, -74.92503)",197.0349384378137,36311739.0,27_0_yes,40.85086148046825,-78.68028609602923,200.0
08822,40.52281,-74.86576,Flemington,NJ,New Jersey,True,,28836.0,172.0,34019,Hunterdon,"{""34019"": 100}",Hunterdon,34019,False,False,America/New_York,"(40.52281, -74.86576)",201.11711499118005,36311739.0,27_0_yes,40.85086148046825,-78.68028609602923,200.0
08825,40.51353,-75.02341,Frenchtown,NJ,New Jersey,True,,4040.0,53.9,34019,Hunterdon,"{""34019"": 100}",Hunterdon,34019,False,False,America/New_York,"(40.51353, -75.02341)",193.00378573701425,36311739.0,27_0_yes,40.85086148046825,-78.68028609602923,200.0
08826,40.71912,-74.90527,Glen Gardner,NJ,New Jersey,True,,5027.0,90.9,34019,Hunterdon,"{""34019"": 100}",Hunterdon,34019,False,False,America/New_York,"(40.71912, -74.90527)",197.6850156936158,36311739.0,27_0_yes,40.85086148046825,-78.68028609602923,200.0
08827,40.66775,-74.97351,Hampton,NJ,New Jersey,True,,3914.0,83.5,34019,Hunterdon,"{""34019"": 90.27, ""34041"": 9.73}",Hunterdon|Warren,34019|34041,False,False,America/New_York,"(40.66775, -74.97351)",194.3931752587544,36311739.0,27_0_yes,40.85086148046825,-78.68028609602923,200.0
08829,40.66828,-74.89414,High Bridge,NJ,New Jersey,True,,3492.0,559.5,34019,Hunterdon,"{""34019"": 100}",Hunterdon,34019,False,False,America/New_York,"(40.66828, -74.89414)",198.53434782451217,36311739.0,27_0_yes,40.85086148046825,-78.68028609602923,200.0
08848,40.59386,-75.09569,Milford,NJ,New Jersey,True,,8857.0,104.5,34019,Hunterdon,"{""34019"": 100}",Hunterdon,34019,False,False,America/New_York,"(40.59386, -75.09569)",188.53017123123894,36311739.0,27_0_yes,40.85086148046825,-78.68028609602923,200.0
08865,40.7094,-75.15109,Phillipsburg,NJ,New Jersey,True,,29142.0,271.3,34041,Warren,"{""34041"": 100}",Warren,34041,False,False,America/New_York,"(40.7094, -75.15109)",184.89003789564993,36311739.0,27_0_yes,40.85086148046825,-78.68028609602923,200.0
08867,40.57513,-74.96777,Pittstown,NJ,New Jersey,True,,5542.0,75.5,34019,Hunterdon,"{""34019"": 100}",Hunterdon,34019,False,False,America/New_York,"(40.57513, -74.96777)",195.347544206092,36311739.0,27_0_yes,40.85086148046825,-78.68028609602923,200.0
08886,40.69302,-75.10565,Stewartsville,NJ,New Jersey,True,,7143.0,178.4,34041,Warren,"{""34041"": 100}",Warren,34041,False,False,America/New_York,"(40.69302, -75.10565)",187.34910762012078,36311739.0,27_0_yes,40.85086148046825,-78.68028609602923,200.0
12116,42.53849,-74.91278,Maryland,NY,New York,True,,1506.0,14.5,36077,Otsego,"{""36077"": 100}",Otsego,36077,False,False,America/New_York,"(42.53849, -74.91278)",226.63241722338446,36311739.0,27_0_yes,40.85086148046825,-78.68028609602923,200.0
12719,41.48431,-74.90543,Barryville,NY,New York,True,,1229.0,28.0,36105,Sullivan,"{""36105"": 100}",Sullivan,36105,False,False,America/New_York,"(41.48431, -74.90543)",201.14108671272194,36311739.0,27_0_yes,40.85086148046825,-78.68028609602923,200.0
12720,41.65794,-74.90029,Bethel,NY,New York,True,,109.0,4.6,36105,Sullivan,"{""36105"": 100}",Sullivan,36105,False,False,America/New_York,"(41.65794, -74.90029)",204.09195617398015,36311739.0,27_0_yes,40.85086148046825,-78.68028609602923,200.0
12723,41.77809,-75.02751,Callicoon,NY,New York,True,,1561.0,18.0,36105,Sullivan,"{""36105"": 100}",Sullivan,36105,False,False,America/New_York,"(41.77809, -75.02751)",200.07747032359944,36311739.0,27_0_yes,40.85086148046825,-78.68028609602923,200.0
12724,41.85195,-74.93535,Callicoon Center,NY,New York,True,,246.0,18.3,36105,Sullivan,"{""36105"": 100}",Sullivan,36105,False,False,America/New_York,"(41.85195, -74.93535)",206.16282899681747,36311739.0,27_0_yes,40.85086148046825,-78.68028609602923,200.0
12726,41.69269,-74.96902,Cochecton,NY,New York,True,,1440.0,16.8,36105,Sullivan,"{""36105"": 100}",Sullivan,36105,False,False,America/New_York,"(41.69269, -74.96902)",201.2918722192466,36311739.0,27_0_yes,40.85086148046825,-78.68028609602923,200.0
12732,41.56075,-74.87353,Eldred,NY,New York,True,,753.0,10.9,36105,Sullivan,"{""36105"": 100}",Sullivan,36105,False,False,America/New_York,"(41.56075, -74.87353)",203.8527037298486,36311739.0,27_0_yes,40.85086148046825,-78.68028609602923,200.0
12736,41.85327,-75.01917,Fremont Center,NY,New York,True,,90.0,11.5,36105,Sullivan,"{""36105"": 100}",Sullivan,36105,False,False,America/New_York,"(41.85327, -75.01917)",202.10314188631878,36311739.0,27_0_yes,40.85086148046825,-78.68028609602923,200.0
12741,41.84368,-75.07816,Hankins,NY,New York,True,,175.0,7.3,36105,Sullivan,"{""36105"": 100}",Sullivan,36105,False,False,America/New_York,"(41.84368, -75.07816)",199.0160343473671,36311739.0,27_0_yes,40.85086148046825,-78.68028609602923,200.0
12745,41.78503,-75.02633,Hortonville,NY,New York,True,,247.0,79.3,36105,Sullivan,"{""36105"": 100}",Sullivan,36105,False,False,America/New_York,"(41.78503, -75.02633)",200.2798242528246,36311739.0,27_0_yes,40.85086148046825,-78.68028609602923,200.0
12748,41.77604,-74.91845,Jeffersonville,NY,New York,True,,2042.0,33.5,36105,Sullivan,"{""36105"": 100}",Sullivan,36105,False,False,America/New_York,"(41.77604, -74.91845)",205.40463727581135,36311739.0,27_0_yes,40.85086148046825,-78.68028609602923,200.0
12750,41.73595,-74.96382,Kenoza Lake,NY,New York,True,,233.0,28.7,36105,Sullivan,"{""36105"": 100}",Sullivan,36105,False,False,America/New_York,"(41.73595, -74.96382)",202.3715892322497,36311739.0,27_0_yes,40.85086148046825,-78.68028609602923,200.0
12752,41.68278,-74.9905,Lake Huntington,NY,New York,True,,296.0,74.1,36105,Sullivan,"{""36105"": 100}",Sullivan,36105,False,False,America/New_York,"(41.68278, -74.9905)",200.0407595127282,36311739.0,27_0_yes,40.85086148046825,-78.68028609602923,200.0
12760,41.90063,-75.10559,Long Eddy,NY,New York,True,,478.0,4.1,36025,Delaware,"{""36025"": 78.51, ""36105"": 21.49}",Delaware|Sullivan,36025|36105,False,False,America/New_York,"(41.90063, -75.10559)",199.00462819862742,36311739.0,27_0_yes,40.85086148046825,-78.68028609602923,200.0
12764,41.59639,-74.98515,Narrowsburg,NY,New York,True,,1770.0,11.3,36105,Sullivan,"{""36105"": 100}",Sullivan,36105,False,False,America/New_York,"(41.59639, -74.98515)",198.799917262895,36311739.0,27_0_yes,40.85086148046825,-78.68028609602923,200.0
12766,41.81408,-74.97923,North Branch,NY,New York,True,,248.0,10.2,36105,Sullivan,"{""36105"": 100}",Sullivan,36105,False,False,America/New_York,"(41.81408, -74.97923)",203.20200569961472,36311739.0,27_0_yes,40.85086148046825,-78.68028609602923,200.0
12767,41.83504,-75.00284,Obernburg,NY,New York,True,,250.0,47.3,36105,Sullivan,"{""36105"": 100}",Sullivan,36105,False,False,America/New_York,"(41.83504, -75.00284)",202.4977582099773,36311739.0,27_0_yes,40.85086148046825,-78.68028609602923,200.0
12776,41.96486,-74.93197,Roscoe,NY,New York,True,,2361.0,7.9,36025,Delaware,"{""36025"": 61.69, ""36105"": 38.31}",Delaware|Sullivan,36025|36105,False,False,America/New_York,"(41.96486, -74.93197)",208.91377417892716,36311739.0,27_0_yes,40.85086148046825,-78.68028609602923,200.0
12791,41.81126,-74.88692,Youngsville,NY,New York,True,,745.0,79.5,36105,Sullivan,"{""36105"": 100}",Sullivan,36105,False,False,America/New_York,"(41.81126, -74.88692)",207.6734712693375,36311739.0,27_0_yes,40.85086148046825,-78.68028609602923,200.0
12792,41.51447,-74.95172,Yulan,NY,New York,True,,106.0,9.6,36105,Sullivan,"{""36105"": 100}",Sullivan,36105,False,False,America/New_York,"(41.51447, -74.95172)",199.21778887671175,36311739.0,27_0_yes,40.85086148046825,-78.68028609602923,200.0
13020,42.81646,-76.07458,Apulia Station,NY,New York,True,,75.0,61.9,36067,Onondaga,"{""36067"": 100}",Onondaga,36067,False,False,America/New_York,"(42.81646, -76.07458)",190.8697219624796,36311739.0,27_0_yes,40.85086148046825,-78.68028609602923,200.0
13021,42.91713,-76.5542,Auburn,NY,New York,True,,37528.0,121.6,36011,Cayuga,"{""36011"": 99.67, ""36067"": 0.33}",Cayuga|Onondaga,36011|36067,False,False,America/New_York,"(42.91713, -76.5542)",179.8272026609263,36311739.0,27_0_yes,40.85086148046825,-78.68028609602923,200.0
13024,42.93453,-76.57424,Auburn,NY,New York,True,,1671.0,15533.1,36011,Cayuga,"{""36011"": 100}",Cayuga,36011,False,False,America/New_York,"(42.93453, -76.57424)",180.15259757036407,36311739.0,27_0_yes,40.85086148046825,-78.68028609602923,200.0
13026,42.75044,-76.65968,Aurora,NY,New York,True,,1705.0,25.1,36011,Cayuga,"{""36011"": 100}",Cayuga,36011,False,False,America/New_York,"(42.75044, -76.65968)",167.49307298821967,36311739.0,27_0_yes,40.85086148046825,-78.68028609602923,200.0
13027,43.16741,-76.36258,Baldwinsville,NY,New York,True,,33937.0,195.7,36067,Onondaga,"{""36067"": 99.3, ""36011"": 0.7}",Onondaga|Cayuga,36067|36011,False,False,America/New_York,"(43.16741, -76.36258)",199.42290740270474,36311739.0,27_0_yes,40.85086148046825,-78.68028609602923,200.0
13028,43.29226,-75.93107,Bernhards Bay,NY,New York,True,,926.0,21.1,36075,Oswego,"{""36075"": 100}",Oswego,36075,False,False,America/New_York,"(43.29226, -75.93107)",219.82812911012445,36311739.0,27_0_yes,40.85086148046825,-78.68028609602923,200.0
13029,43.2236,-76.14993,Brewerton,NY,New York,True,,7360.0,161.1,36067,Onondaga,"{""36067"": 100}",Onondaga,36067,False,False,America/New_York,"(43.2236, -76.14993)",209.11166594050988,36311739.0,27_0_yes,40.85086148046825,-78.68028609602923,200.0
13030,43.15962,-75.96052,Bridgeport,NY,New York,True,,3470.0,118.8,36053,Madison,"{""36053"": 64.2, ""36067"": 35.8}",Madison|Onondaga,36053|36067,False,False,America/New_York,"(43.15962, -75.96052)",211.9785749992253,36311739.0,27_0_yes,40.85086148046825,-78.68028609602923,200.0
13031,43.0448,-76.30775,Camillus,NY,New York,True,,15484.0,245.9,36067,Onondaga,"{""36067"": 100}",Onondaga,36067,False,False,America/New_York,"(43.0448, -76.30775)",194.51505589027875,36311739.0,27_0_yes,40.85086148046825,-78.68028609602923,200.0
13032,43.07793,-75.76275,Canastota,NY,New York,True,,12522.0,58.6,36053,Madison,"{""36053"": 99.69, ""36065"": 0.31}",Madison|Oneida,36053|36065,False,False,America/New_York,"(43.07793, -75.76275)",214.78489003242646,36311739.0,27_0_yes,40.85086148046825,-78.68028609602923,200.0
13033,43.1852,-76.57044,Cato,NY,New York,True,,3807.0,24.0,36011,Cayuga,"{""36011"": 100}",Cayuga,36011,False,False,America/New_York,"(43.1852, -76.57044)",194.25978122391734,36311739.0,27_0_yes,40.85086148046825,-78.68028609602923,200.0
13034,42.91366,-76.69502,Cayuga,NY,New York,True,,1925.0,30.4,36011,Cayuga,"{""36011"": 100}",Cayuga,36011,False,False,America/New_York,"(42.91366, -76.69502)",175.3246941190491,36311739.0,27_0_yes,40.85086148046825,-78.68028609602923,200.0
13035,42.93828,-75.82551,Cazenovia,NY,New York,True,,8707.0,44.7,36053,Madison,"{""36053"": 96.96, ""36067"": 3.04}",Madison|Onondaga,36053|36067,False,False,America/New_York,"(42.93828, -75.82551)",205.78844356280715,36311739.0,27_0_yes,40.85086148046825,-78.68028609602923,200.0
13036,43.32268,-76.17402,Central Square,NY,New York,True,,9632.0,80.7,36075,Oswego,"{""36075"": 100}",Oswego,36075,False,False,America/New_York,"(43.32268, -76.17402)",213.71324863809602,36311739.0,27_0_yes,40.85086148046825,-78.68028609602923,200.0
13037,43.06046,-75.86521,Chittenango,NY,New York,True,,9775.0,88.8,36053,Madison,"{""36053"": 95.56, ""36067"": 4.44}",Madison|Onondaga,36053|36067,False,False,America/New_York,"(43.06046, -75.86521)",210.28332490396957,36311739.0,27_0_yes,40.85086148046825,-78.68028609602923,200.0
13039,43.16678,-76.0654,Cicero,NY,New York,True,,17078.0,279.9,36067,Onondaga,"{""36067"": 100}",Onondaga,36067,False,False,America/New_York,"(43.16678, -76.0654)",208.84680231463366,36311739.0,27_0_yes,40.85086148046825,-78.68028609602923,200.0
13040,42.56033,-75.93029,Cincinnatus,NY,New York,True,,2370.0,9.2,36023,Cortland,"{""36023"": 84.53, ""36017"": 15.47}",Cortland|Chenango,36023|36017,False,False,America/New_York,"(42.56033, -75.93029)",184.57097641944782,36311739.0,27_0_yes,40.85086148046825,-78.68028609602923,200.0
13041,43.19079,-76.19711,Clay,NY,New York,True,,11808.0,252.3,36067,Onondaga,"{""36067"": 100}",Onondaga,36067,False,False,America/New_York,"(43.19079, -76.19711)",205.85344979573347,36311739.0,27_0_yes,40.85086148046825,-78.68028609602923,200.0
13042,43.26565,-75.85154,Cleveland,NY,New York,True,,2383.0,26.8,36065,Oneida,"{""36065"": 63.3, ""36075"": 36.7}",Oneida|Oswego,36065|36075,False,False,America/New_York,"(43.26565, -75.85154)",221.09431985656488,36311739.0,27_0_yes,40.85086148046825,-78.68028609602923,200.0
13044,43.2977,-75.99595,Constantia,NY,New York,True,,2742.0,35.2,36075,Oswego,"{""36075"": 100}",Oswego,36075,False,False,America/New_York,"(43.2977, -75.99595)",217.99768029747761,36311739.0,27_0_yes,40.85086148046825,-78.68028609602923,200.0
13045,42.58692,-76.19029,Cortland,NY,New York,True,,28975.0,103.7,36023,Cortland,"{""36023"": 84.99, ""36011"": 8.92, ""36109"": 6.09}",Cortland|Cayuga|Tompkins,36023|36011|36109,False,False,America/New_York,"(42.58692, -76.19029)",175.70774605190925,36311739.0,27_0_yes,40.85086148046825,-78.68028609602923,200.0
13051,42.88339,-75.91021,Delphi Falls,NY,New York,True,,135.0,141.9,36067,Onondaga,"{""36067"": 100}",Onondaga,36067,False,False,America/New_York,"(42.88339, -75.91021)",200.06900657504218,36311739.0,27_0_yes,40.85086148046825,-78.68028609602923,200.0
13052,42.72838,-75.86957,De Ruyter,NY,New York,True,,1626.0,10.6,36053,Madison,"{""36053"": 38.2, ""36017"": 32.41, ""36023"": 25.17, ""36067"": 4.22}",Madison|Chenango|Cortland|Onondaga,36053|36017|36023|36067,False,False,America/New_York,"(42.72838, -75.86957)",194.38649283940586,36311739.0,27_0_yes,40.85086148046825,-78.68028609602923,200.0
13053,42.47513,-76.26471,Dryden,NY,New York,True,,4861.0,53.9,36109,Tompkins,"{""36109"": 57.89, ""36023"": 42.11}",Tompkins|Cortland,36109|36023,False,False,America/New_York,"(42.47513, -76.26471)",167.74020470998232,36311739.0,27_0_yes,40.85086148046825,-78.68028609602923,200.0
13054,43.16947,-75.66923,Durhamville,NY,New York,True,,1500.0,25.0,36065,Oneida,"{""36065"": 100}",Oneida,36065,False,False,America/New_York,"(43.16947, -75.66923)",222.58983621231698,36311739.0,27_0_yes,40.85086148046825,-78.68028609602923,200.0
13057,43.09543,-76.04014,East Syracuse,NY,New York,True,,13126.0,182.9,36067,Onondaga,"{""36067"": 100}",Onondaga,36067,False,False,America/New_York,"(43.09543, -76.04014)",205.99608852636084,36311739.0,27_0_yes,40.85086148046825,-78.68028609602923,200.0
13060,43.02381,-76.41926,Elbridge,NY,New York,True,,3050.0,72.9,36067,Onondaga,"{""36067"": 100}",Onondaga,36067,False,False,America/New_York,"(43.02381, -76.41926)",189.84034906858673,36311739.0,27_0_yes,40.85086148046825,-78.68028609602923,200.0
13061,42.86493,-75.75173,Erieville,NY,New York,True,,877.0,12.5,36053,Madison,"{""36053"": 100}",Madison,36053,False,False,America/New_York,"(42.86493, -75.75173)",205.1033407177826,36311739.0,27_0_yes,40.85086148046825,-78.68028609602923,200.0
13062,42.48121,-76.38694,Etna,NY,New York,True,,37.0,21.0,36109,Tompkins,"{""36109"": 100}",Tompkins,36109,False,False,America/New_York,"(42.48121, -76.38694)",163.39186618785823,36311739.0,27_0_yes,40.85086148046825,-78.68028609602923,200.0
13063,42.84429,-75.98023,Fabius,NY,New York,True,,1827.0,19.3,36067,Onondaga,"{""36067"": 100}",Onondaga,36067,False,False,America/New_York,"(42.84429, -75.98023)",195.63920996752134,36311739.0,27_0_yes,40.85086148046825,-78.68028609602923,200.0
13066,43.03297,-76.00259,Fayetteville,NY,New York,True,,12443.0,324.8,36067,Onondaga,"{""36067"": 100}",Onondaga,36067,False,False,America/New_York,"(43.03297, -76.00259)",204.10794381828305,36311739.0,27_0_yes,40.85086148046825,-78.68028609602923,200.0
13068,42.49905,-76.35555,Freeville,NY,New York,True,,5184.0,39.6,36109,Tompkins,"{""36109"": 100}",Tompkins,36109,False,False,America/New_York,"(42.49905, -76.35555)",165.4029029433221,36311739.0,27_0_yes,40.85086148046825,-78.68028609602923,200.0
13069,43.33081,-76.37867,Fulton,NY,New York,True,,24111.0,84.7,36075,Oswego,"{""36075"": 98.98, ""36067"": 1.02}",Oswego|Onondaga,36075|36067,False,False,America/New_York,"(43.33081, -76.37867)",208.03463860264222,36311739.0,27_0_yes,40.85086148046825,-78.68028609602923,200.0
13071,42.67584,-76.54252,Genoa,NY,New York,True,,934.0,14.9,36011,Cayuga,"{""36011"": 100}",Cayuga,36011,False,False,America/New_York,"(42.67584, -76.54252)",167.43321695022925,36311739.0,27_0_yes,40.85086148046825,-78.68028609602923,200.0
13072,42.76243,-75.76296,Georgetown,NY,New York,True,,884.0,7.4,36053,Madison,"{""36053"": 77.59, ""36017"": 22.41}",Madison|Chenango,36053|36017,False,False,America/New_York,"(42.76243, -75.76296)",200.02405368725445,36311739.0,27_0_yes,40.85086148046825,-78.68028609602923,200.0
13073,42.58514,-76.39832,Groton,NY,New York,True,,6729.0,47.2,36109,Tompkins,"{""36109"": 97.58, ""36011"": 2.42}",Tompkins|Cayuga,36109|36011,False,False,America/New_York,"(42.58514, -76.39832)",167.94280638666226,36311739.0,27_0_yes,40.85086148046825,-78.68028609602923,200.0
13074,43.31035,-76.54786,Hannibal,NY,New York,True,,4230.0,38.6,36075,Oswego,"{""36075"": 94.69, ""36011"": 5.31}",Oswego|Cayuga,36075|36011,False,False,America/New_York,"(43.31035, -76.54786)",202.06185527961952,36311739.0,27_0_yes,40.85086148046825,-78.68028609602923,200.0
13076,43.35364,-76.15182,Hastings,NY,New York,True,,2037.0,52.7,36075,Oswego,"{""36075"": 100}",Oswego,36075,False,False,America/New_York,"(43.35364, -76.15182)",216.08757712313155,36311739.0,27_0_yes,40.85086148046825,-78.68028609602923,200.0
13077,42.71557,-76.20089,Homer,NY,New York,True,,6462.0,36.3,36023,Cortland,"{""36023"": 83.9, ""36067"": 13.65, ""36011"": 2.45}",Cortland|Onondaga|Cayuga,36023|36067|36011,False,False,America/New_York,"(42.71557, -76.20089)",181.4145171745822,36311739.0,27_0_yes,40.85086148046825,-78.68028609602923,200.0
13078,42.96206,-76.06171,Jamesville,NY,New York,True,,10940.0,109.6,36067,Onondaga,"{""36067"": 100}",Onondaga,36067,False,False,America/New_York,"(42.96206, -76.06171)",198.49627054344398,36311739.0,27_0_yes,40.85086148046825,-78.68028609602923,200.0
13080,43.08338,-76.47776,Jordan,NY,New York,True,,3227.0,44.2,36067,Onondaga,"{""36067"": 59.74, ""36011"": 40.26}",Onondaga|Cayuga,36067|36011,False,False,America/New_York,"(43.08338, -76.47776)",191.2864449113696,36311739.0,27_0_yes,40.85086148046825,-78.68028609602923,200.0
13081,42.67364,-76.62527,King Ferry,NY,New York,True,,1203.0,16.2,36011,Cayuga,"{""36011"": 100}",Cayuga,36011,False,False,America/New_York,"(42.67364, -76.62527)",164.54419940966733,36311739.0,27_0_yes,40.85086148046825,-78.68028609602923,200.0
13082,43.10148,-75.95253,Kirkville,NY,New York,True,,4201.0,66.6,36053,Madison,"{""36053"": 52.57, ""36067"": 47.43}",Madison|Onondaga,36053|36067,False,False,America/New_York,"(43.10148, -75.95253)",209.29042797016524,36311739.0,27_0_yes,40.85086148046825,-78.68028609602923,200.0
13083,43.64853,-75.98091,Lacona,NY,New York,True,,2027.0,13.1,36075,Oswego,"{""36075"": 98.52, ""36045"": 1.48}",Oswego|Jefferson,36075|36045,False,False,America/New_York,"(43.64853, -75.98091)",237.50865174222966,36311739.0,27_0_yes,40.85086148046825,-78.68028609602923,200.0
13084,42.88938,-76.11314,La Fayette,NY,New York,True,,3814.0,34.6,36067,Onondaga,"{""36067"": 100}",Onondaga,36067,False,False,America/New_York,"(42.88938, -76.11314)",193.0710168847111,36311739.0,27_0_yes,40.85086148046825,-78.68028609602923,200.0
13087,42.69634,-76.16493,Little York,NY,New York,True,,243.0,98.9,36023,Cortland,"{""36023"": 100}",Cortland,36023,False,False,America/New_York,"(42.69634, -76.16493)",181.8029626491449,36311739.0,27_0_yes,40.85086148046825,-78.68028609602923,200.0
13088,43.10787,-76.19096,Liverpool,NY,New York,True,,20926.0,969.8,36067,Onondaga,"{""36067"": 100}",Onondaga,36067,False,False,America/New_York,"(43.10787, -76.19096)",201.63902710758518,36311739.0,27_0_yes,40.85086148046825,-78.68028609602923,200.0
13090,43.15162,-76.21344,Liverpool,NY,New York,True,,29017.0,766.6,36067,Onondaga,"{""36067"": 100}",Onondaga,36067,False,False,America/New_York,"(43.15162, -76.21344)",203.23669200940301,36311739.0,27_0_yes,40.85086148046825,-78.68028609602923,200.0
13092,42.65145,-76.42502,Locke,NY,New York,True,,2484.0,19.2,36011,Cayuga,"{""36011"": 90.85, ""36109"": 9.15}",Cayuga|Tompkins,36011|36109,False,False,America/New_York,"(42.65145, -76.42502)",170.2569829828797,36311739.0,27_0_yes,40.85086148046825,-78.68028609602923,200.0
13101,42.60211,-76.06665,McGraw,NY,New York,True,,2448.0,24.6,36023,Cortland,"{""36023"": 100}",Cortland,36023,False,False,America/New_York,"(42.60211, -76.06665)",181.10595137523285,36311739.0,27_0_yes,40.85086148046825,-78.68028609602923,200.0
13102,42.55276,-76.29253,McLean,NY,New York,True,,74.0,490.9,36109,Tompkins,"{""36109"": 100}",Tompkins,36109,False,False,America/New_York,"(42.55276, -76.29253)",170.27884135462511,36311739.0,27_0_yes,40.85086148046825,-78.68028609602923,200.0
13103,43.32652,-76.10507,Mallory,NY,New York,True,,226.0,224.1,36075,Oswego,"{""36075"": 100}",Oswego,36075,False,False,America/New_York,"(43.32652, -76.10507)",216.06375425493417,36311739.0,27_0_yes,40.85086148046825,-78.68028609602923,200.0
13104,42.96378,-75.95523,Manlius,NY,New York,True,,16038.0,129.8,36067,Onondaga,"{""36067"": 96.17, ""36053"": 3.83}",Onondaga|Madison,36067|36053,False,False,America/New_York,"(42.96378, -75.95523)",202.33292674914512,36311739.0,27_0_yes,40.85086148046825,-78.68028609602923,200.0
13108,42.97349,-76.33069,Marcellus,NY,New York,True,,6193.0,80.4,36067,Onondaga,"{""36067"": 100}",Onondaga,36067,False,False,America/New_York,"(42.97349, -76.33069)",189.99322064799622,36311739.0,27_0_yes,40.85086148046825,-78.68028609602923,200.0
13110,42.89019,-76.28507,Marietta,NY,New York,True,,2198.0,35.2,36067,Onondaga,"{""36067"": 100}",Onondaga,36067,False,False,America/New_York,"(42.89019, -76.28507)",187.17523661178583,36311739.0,27_0_yes,40.85086148046825,-78.68028609602923,200.0
13111,43.25988,-76.61858,Martville,NY,New York,True,,1769.0,24.9,36011,Cayuga,"{""36011"": 82.48, ""36075"": 17.52}",Cayuga|Oswego,36011|36075,False,False,America/New_York,"(43.25988, -76.61858)",197.19429797325773,36311739.0,27_0_yes,40.85086148046825,-78.68028609602923,200.0
13112,43.10306,-76.41926,Memphis,NY,New York,True,,1683.0,31.9,36067,Onondaga,"{""36067"": 100}",Onondaga,36067,False,False,America/New_York,"(43.10306, -76.41926)",194.15543239348526,36311739.0,27_0_yes,40.85086148046825,-78.68028609602923,200.0
13113,43.16425,-76.53488,Meridian,NY,New York,True,,258.0,2857.8,36011,Cayuga,"{""36011"": 100}",Cayuga,36011,False,False,America/New_York,"(43.16425, -76.53488)",194.09948771905826,36311739.0,27_0_yes,40.85086148046825,-78.68028609602923,200.0
13114,43.46386,-76.24328,Mexico,NY,New York,True,,6594.0,40.4,36075,Oswego,"{""36075"": 100}",Oswego,36075,False,False,America/New_York,"(43.46386, -76.24328)",219.4654617925025,36311739.0,27_0_yes,40.85086148046825,-78.68028609602923,200.0
13115,43.3937,-76.47462,Minetto,NY,New York,True,,238.0,359.9,36075,Oswego,"{""36075"": 100}",Oswego,36075,False,False,America/New_York,"(43.3937, -76.47462)",208.89511310168803,36311739.0,27_0_yes,40.85086148046825,-78.68028609602923,200.0
13116,43.07449,-76.00796,Minoa,NY,New York,True,,3447.0,1022.5,36067,Onondaga,"{""36067"": 100}",Onondaga,36067,False,False,America/New_York,"(43.07449, -76.00796)",206.02159956838267,36311739.0,27_0_yes,40.85086148046825,-78.68028609602923,200.0
13117,43.01007,-76.70838,Montezuma,NY,New York,True,,289.0,115.3,36011,Cayuga,"{""36011"": 99.34, ""36099"": 0.66}",Cayuga|Seneca,36011|36099,False,False,America/New_York,"(43.01007, -76.70838)",180.35023104156176,36311739.0,27_0_yes,40.85086148046825,-78.68028609602923,200.0
13118,42.75226,-76.39522,Moravia,NY,New York,True,,6130.0,23.0,36011,Cayuga,"{""36011"": 100}",Cayuga,36011,False,False,America/New_York,"(42.75226, -76.39522)",176.36941520275838,36311739.0,27_0_yes,40.85086148046825,-78.68028609602923,200.0
13120,42.94233,-76.1695,Nedrow,NY,New York,True,,2092.0,51.0,36067,Onondaga,"{""36067"": 100}",Onondaga,36067,False,False,America/New_York,"(42.94233, -76.1695)",193.7756826934671,36311739.0,27_0_yes,40.85086148046825,-78.68028609602923,200.0
13122,42.83857,-75.85919,New Woodstock,NY,New York,True,,1181.0,23.7,36053,Madison,"{""36053"": 81.54, ""36067"": 18.46}",Madison|Onondaga,36053|36067,False,False,America/New_York,"(42.83857, -75.85919)",199.8432663144488,36311739.0,27_0_yes,40.85086148046825,-78.68028609602923,200.0
13123,43.22796,-75.75325,North Bay,NY,New York,True,,485.0,652.6,36065,Oneida,"{""36065"": 100}",Oneida,36065,False,False,America/New_York,"(43.22796, -75.75325)",222.53541101777162,36311739.0,27_0_yes,40.85086148046825,-78.68028609602923,200.0
13124,42.64578,-75.81718,North Pitcher,NY,New York,True,,99.0,7.6,36017,Chenango,"{""36017"": 100}",Chenango,36017,False,False,America/New_York,"(42.64578, -75.81718)",192.75649992312327,36311739.0,27_0_yes,40.85086148046825,-78.68028609602923,200.0
13126,43.43469,-76.46331,Oswego,NY,New York,True,,35369.0,135.7,36075,Oswego,"{""36075"": 99.09, ""36011"": 0.91}",Oswego|Cayuga,36075|36011,False,False,America/New_York,"(43.43469, -76.46331)",211.57280882119397,36311739.0,27_0_yes,40.85086148046825,-78.68028609602923,200.0
13131,43.41964,-76.09539,Parish,NY,New York,True,,3317.0,24.4,36075,Oswego,"{""36075"": 100}",Oswego,36075,False,False,America/New_York,"(43.41964, -76.09539)",221.42886147318654,36311739.0,27_0_yes,40.85086148046825,-78.68028609602923,200.0
13132,43.26547,-76.24446,Pennellville,NY,New York,True,,3557.0,59.4,36075,Oswego,"{""36075"": 100}",Oswego,36075,False,False,America/New_York,"(43.26547, -76.24446)",208.41920629641444,36311739.0,27_0_yes,40.85086148046825,-78.68028609602923,200.0
13134,42.96731,-75.68476,Peterboro,NY,New York,True,,187.0,874.7,36053,Madison,"{""36053"": 100}",Madison,36053,False,False,America/New_York,"(42.96731, -75.68476)",212.36130245457477,36311739.0,27_0_yes,40.85086148046825,-78.68028609602923,200.0
13135,43.25801,-76.31676,Phoenix,NY,New York,True,,5939.0,71.6,36075,Oswego,"{""36075"": 73.98, ""36067"": 26.02}",Oswego|Onondaga,36075|36067,False,False,America/New_York,"(43.25801, -76.31676)",205.80584690636977,36311739.0,27_0_yes,40.85086148046825,-78.68028609602923,200.0
13136,42.60368,-75.84582,Pitcher,NY,New York,True,,360.0,7.7,36017,Chenango,"{""36017"": 100}",Chenango,36017,False,False,America/New_York,"(42.60368, -75.84582)",189.79700173778997,36311739.0,27_0_yes,40.85086148046825,-78.68028609602923,200.0
13138,42.89915,-76.01461,Pompey,NY,New York,True,,121.0,1137.8,36067,Onondaga,"{""36067"": 100}",Onondaga,36067,False,False,America/New_York,"(42.89915, -76.01461)",197.04888817845347,36311739.0,27_0_yes,40.85086148046825,-78.68028609602923,200.0
13140,43.05891,-76.65841,Port Byron,NY,New York,True,,4534.0,33.0,36011,Cayuga,"{""36011"": 100}",Cayuga,36011,False,False,America/New_York,"(43.05891, -76.65841)",184.56173777550427,36311739.0,27_0_yes,40.85086148046825,-78.68028609602923,200.0
13141,42.76684,-76.18616,Preble,NY,New York,True,,510.0,13.7,36023,Cortland,"{""36023"": 63.65, ""36067"": 36.35}",Cortland|Onondaga,36023|36067,False,False,America/New_York,"(42.76684, -76.18616)",184.4382668403325,36311739.0,27_0_yes,40.85086148046825,-78.68028609602923,200.0
13142,43.55189,-76.12959,Pulaski,NY,New York,True,,6486.0,34.7,36075,Oswego,"{""36075"": 100}",Oswego,36075,False,False,America/New_York,"(43.55189, -76.12959)",227.72865804181527,36311739.0,27_0_yes,40.85086148046825,-78.68028609602923,200.0
13143,43.23325,-76.71545,Red Creek,NY,New York,True,,2300.0,19.8,36117,Wayne,"{""36117"": 55.65, ""36011"": 44.35}",Wayne|Cayuga,36117|36011,False,False,America/New_York,"(43.23325, -76.71545)",193.0152647813499,36311739.0,27_0_yes,40.85086148046825,-78.68028609602923,200.0
13144,43.57034,-75.97464,Richland,NY,New York,True,,1608.0,16.7,36075,Oswego,"{""36075"": 100}",Oswego,36075,False,False,America/New_York,"(43.57034, -75.97464)",233.37525661438565,36311739.0,27_0_yes,40.85086148046825,-78.68028609602923,200.0
13145,43.65188,-76.1232,Sandy Creek,NY,New York,True,,1410.0,35.0,36075,Oswego,"{""36075"": 100}",Oswego,36075,False,False,America/New_York,"(43.65188, -76.1232)",233.54697337026585,36311739.0,27_0_yes,40.85086148046825,-78.68028609602923,200.0
13146,43.09711,-76.76031,Savannah,NY,New York,True,,2433.0,17.9,36117,Wayne,"{""36117"": 96.47, ""36099"": 3.53}",Wayne|Seneca,36117|36099,False,False,America/New_York,"(43.09711, -76.76031)",183.87332416405226,36311739.0,27_0_yes,40.85086148046825,-78.68028609602923,200.0
13147,42.77336,-76.56603,Scipio Center,NY,New York,True,,1031.0,11.3,36011,Cayuga,"{""36011"": 100}",Cayuga,36011,False,False,America/New_York,"(42.77336, -76.56603)",171.74018074259286,36311739.0,27_0_yes,40.85086148046825,-78.68028609602923,200.0
13148,42.9208,-76.78106,Seneca Falls,NY,New York,True,,10648.0,66.0,36099,Seneca,"{""36099"": 100}",Seneca,36099,False,False,America/New_York,"(42.9208, -76.78106)",173.18921818285554,36311739.0,27_0_yes,40.85086148046825,-78.68028609602923,200.0
13152,42.89323,-76.38518,Skaneateles,NY,New York,True,,7841.0,47.8,36067,Onondaga,"{""36067"": 85.77, ""36011"": 14.23}",Onondaga|Cayuga,36067|36011,False,False,America/New_York,"(42.89323, -76.38518)",183.98573486509207,36311739.0,27_0_yes,40.85086148046825,-78.68028609602923,200.0
13153,42.9945,-76.45476,Skaneateles Falls,NY,New York,True,,469.0,314.6,36067,Onondaga,"{""36067"": 100}",Onondaga,36067,False,False,America/New_York,"(42.9945, -76.45476)",187.1390000433169,36311739.0,27_0_yes,40.85086148046825,-78.68028609602923,200.0
13155,42.65945,-75.77136,South Otselic,NY,New York,True,,491.0,7.8,36017,Chenango,"{""36017"": 100}",Chenango,36017,False,False,America/New_York,"(42.65945, -75.77136)",195.16097842823865,36311739.0,27_0_yes,40.85086148046825,-78.68028609602923,200.0
13156,43.33355,-76.66249,Sterling,NY,New York,True,,1757.0,23.1,36011,Cayuga,"{""36011"": 99.1, ""36117"": 0.9}",Cayuga|Wayne,36011|36117,False,False,America/New_York,"(43.33355, -76.66249)",200.30485383086366,36311739.0,27_0_yes,40.85086148046825,-78.68028609602923,200.0
13157,43.20288,-75.7254,Sylvan Beach,NY,New York,True,,489.0,451.2,36065,Oneida,"{""36065"": 100}",Oneida,36065,False,False,America/New_York,"(43.20288, -75.7254)",222.2524654728991,36311739.0,27_0_yes,40.85086148046825,-78.68028609602923,200.0
13158,42.71603,-75.97626,Truxton,NY,New York,True,,1772.0,11.6,36023,Cortland,"{""36023"": 94.15, ""36067"": 5.85}",Cortland|Onondaga,36023|36067,False,False,America/New_York,"(42.71603, -75.97626)",189.7591877060897,36311739.0,27_0_yes,40.85086148046825,-78.68028609602923,200.0
13159,42.80321,-76.11545,Tully,NY,New York,True,,5303.0,26.5,36067,Onondaga,"{""36067"": 67.88, ""36023"": 32.12}",Onondaga|Cortland,36067|36023,False,False,America/New_York,"(42.80321, -76.11545)",188.7520496168424,36311739.0,27_0_yes,40.85086148046825,-78.68028609602923,200.0
13160,42.82613,-76.65157,Union Springs,NY,New York,True,,2242.0,38.2,36011,Cayuga,"{""36011"": 100}",Cayuga,36011,False,False,America/New_York,"(42.82613, -76.65157)",171.83702929501064,36311739.0,27_0_yes,40.85086148046825,-78.68028609602923,200.0
13162,43.18833,-75.71823,Verona Beach,NY,New York,True,,248.0,54.1,36065,Oneida,"{""36065"": 100}",Oneida,36065,False,False,America/New_York,"(43.18833, -75.71823)",221.78262728221807,36311739.0,27_0_yes,40.85086148046825,-78.68028609602923,200.0
13163,43.08194,-75.70841,Wampsville,NY,New York,True,,462.0,489.2,36053,Madison,"{""36053"": 100}",Madison,36053,False,False,America/New_York,"(43.08194, -75.70841)",216.934434028997,36311739.0,27_0_yes,40.85086148046825,-78.68028609602923,200.0
13164,43.09377,-76.31626,Warners,NY,New York,True,,2607.0,90.4,36067,Onondaga,"{""36067"": 100}",Onondaga,36067,False,False,America/New_York,"(43.09377, -76.31626)",196.86375512368096,36311739.0,27_0_yes,40.85086148046825,-78.68028609602923,200.0
13165,42.91185,-76.87601,Waterloo,NY,New York,True,,9905.0,56.1,36099,Seneca,"{""36099"": 100}",Seneca,36099,False,False,America/New_York,"(42.91185, -76.87601)",169.96831755001114,36311739.0,27_0_yes,40.85086148046825,-78.68028609602923,200.0
13166,43.07219,-76.5568,Weedsport,NY,New York,True,,5465.0,51.6,36011,Cayuga,"{""36011"": 98.23, ""36067"": 1.77}",Cayuga|Onondaga,36011|36067,False,False,America/New_York,"(43.07219, -76.5568)",188.28913980394785,36311739.0,27_0_yes,40.85086148046825,-78.68028609602923,200.0
13167,43.3171,-76.0571,West Monroe,NY,New York,True,,2756.0,29.0,36075,Oswego,"{""36075"": 100}",Oswego,36075,False,False,America/New_York,"(43.3171, -76.0571)",217.0696412215589,36311739.0,27_0_yes,40.85086148046825,-78.68028609602923,200.0
13202,43.04356,-76.15065,Syracuse,NY,New York,True,,6943.0,2667.6,36067,Onondaga,"{""36067"": 100}",Onondaga,36067,False,False,America/New_York,"(43.04356, -76.15065)",199.60734737967135,36311739.0,27_0_yes,40.85086148046825,-78.68028609602923,200.0
13203,43.061,-76.13486,Syracuse,NY,New York,True,,16876.0,3832.9,36067,Onondaga,"{""36067"": 100}",Onondaga,36067,False,False,America/New_York,"(43.061, -76.13486)",201.03822308389022,36311739.0,27_0_yes,40.85086148046825,-78.68028609602923,200.0
13204,43.05204,-76.17666,Syracuse,NY,New York,True,,19264.0,1747.5,36067,Onondaga,"{""36067"": 100}",Onondaga,36067,False,False,America/New_York,"(43.05204, -76.17666)",199.18128094559262,36311739.0,27_0_yes,40.85086148046825,-78.68028609602923,200.0
13205,43.00474,-76.14163,Syracuse,NY,New York,True,,16746.0,1784.4,36067,Onondaga,"{""36067"": 100}",Onondaga,36067,False,False,America/New_York,"(43.00474, -76.14163)",197.91121441276033,36311739.0,27_0_yes,40.85086148046825,-78.68028609602923,200.0
13206,43.07354,-76.10584,Syracuse,NY,New York,True,,16837.0,1599.7,36067,Onondaga,"{""36067"": 100}",Onondaga,36067,False,False,America/New_York,"(43.07354, -76.10584)",202.65795453753583,36311739.0,27_0_yes,40.85086148046825,-78.68028609602923,200.0
13207,43.01221,-76.16354,Syracuse,NY,New York,True,,12552.0,1502.6,36067,Onondaga,"{""36067"": 100}",Onondaga,36067,False,False,America/New_York,"(43.01221, -76.16354)",197.5555640682042,36311739.0,27_0_yes,40.85086148046825,-78.68028609602923,200.0
13208,43.07878,-76.14521,Syracuse,NY,New York,True,,22560.0,2129.5,36067,Onondaga,"{""36067"": 100}",Onondaga,36067,False,False,America/New_York,"(43.07878, -76.14521)",201.61714228417586,36311739.0,27_0_yes,40.85086148046825,-78.68028609602923,200.0
13209,43.08581,-76.24355,Syracuse,NY,New York,True,,12364.0,365.1,36067,Onondaga,"{""36067"": 100}",Onondaga,36067,False,False,America/New_York,"(43.08581, -76.24355)",198.76557135665925,36311739.0,27_0_yes,40.85086148046825,-78.68028609602923,200.0
13210,43.03186,-76.12653,Syracuse,NY,New York,True,,27172.0,2785.7,36067,Onondaga,"{""36067"": 100}",Onondaga,36067,False,False,America/New_York,"(43.03186, -76.12653)",199.81404607246904,36311739.0,27_0_yes,40.85086148046825,-78.68028609602923,200.0
13211,43.10333,-76.11954,Syracuse,NY,New York,True,,6117.0,517.2,36067,Onondaga,"{""36067"": 100}",Onondaga,36067,False,False,America/New_York,"(43.10333, -76.11954)",203.74687431951878,36311739.0,27_0_yes,40.85086148046825,-78.68028609602923,200.0
13212,43.12839,-76.12889,Syracuse,NY,New York,True,,21557.0,749.5,36067,Onondaga,"{""36067"": 100}",Onondaga,36067,False,False,America/New_York,"(43.12839, -76.12889)",204.74805306677408,36311739.0,27_0_yes,40.85086148046825,-78.68028609602923,200.0
13214,43.03865,-76.0741,Syracuse,NY,New York,True,,8392.0,923.0,36067,Onondaga,"{""36067"": 100}",Onondaga,36067,False,False,America/New_York,"(43.03865, -76.0741)",201.93928696835647,36311739.0,27_0_yes,40.85086148046825,-78.68028609602923,200.0
13215,42.97852,-76.22979,Syracuse,NY,New York,True,,14306.0,164.7,36067,Onondaga,"{""36067"": 100}",Onondaga,36067,False,False,America/New_York,"(42.97852, -76.22979)",193.59228465214298,36311739.0,27_0_yes,40.85086148046825,-78.68028609602923,200.0
13219,43.03969,-76.22277,Syracuse,NY,New York,True,,14819.0,1139.6,36067,Onondaga,"{""36067"": 100}",Onondaga,36067,False,False,America/New_York,"(43.03969, -76.22277)",197.01226225296995,36311739.0,27_0_yes,40.85086148046825,-78.68028609602923,200.0
13224,43.03892,-76.10264,Syracuse,NY,New York,True,,8486.0,1142.2,36067,Onondaga,"{""36067"": 100}",Onondaga,36067,False,False,America/New_York,"(43.03892, -76.10264)",200.98390535274208,36311739.0,27_0_yes,40.85086148046825,-78.68028609602923,200.0
13301,43.42225,-75.21546,Alder Creek,NY,New York,True,,198.0,66.0,36065,Oneida,"{""36065"": 100}",Oneida,36065,False,False,America/New_York,"(43.42225, -75.21546)",251.11237311503328,36311739.0,27_0_yes,40.85086148046825,-78.68028609602923,200.0
13302,43.50261,-75.95044,Altmar,NY,New York,True,,1483.0,12.7,36075,Oswego,"{""36075"": 100}",Oswego,36075,False,False,America/New_York,"(43.50261, -75.95044)",230.41934490535016,36311739.0,27_0_yes,40.85086148046825,-78.68028609602923,200.0
13303,43.36992,-75.46636,Ava,NY,New York,True,,1454.0,16.3,36065,Oneida,"{""36065"": 100}",Oneida,36065,False,False,America/New_York,"(43.36992, -75.46636)",239.6111871009401,36311739.0,27_0_yes,40.85086148046825,-78.68028609602923,200.0
13304,43.23954,-75.1589,Barneveld,NY,New York,True,,1726.0,37.8,36065,Oneida,"{""36065"": 89.32, ""36043"": 10.68}",Oneida|Herkimer,36065|36043,False,False,America/New_York,"(43.23954, -75.1589)",244.67117278885516,36311739.0,27_0_yes,40.85086148046825,-78.68028609602923,200.0
13308,43.24865,-75.66686,Blossvale,NY,New York,True,,3867.0,39.4,36065,Oneida,"{""36065"": 100}",Oneida,36065,False,False,America/New_York,"(43.24865, -75.66686)",226.57459067718398,36311739.0,27_0_yes,40.85086148046825,-78.68028609602923,200.0
13309,43.47398,-75.34103,Boonville,NY,New York,True,,5672.0,15.1,36065,Oneida,"{""36065"": 73.62, ""36049"": 26.38}",Oneida|Lewis,36065|36049,False,False,America/New_York,"(43.47398, -75.34103)",249.1477972908825,36311739.0,27_0_yes,40.85086148046825,-78.68028609602923,200.0
13310,42.89055,-75.57065,Bouckville,NY,New York,True,,828.0,37.9,36053,Madison,"{""36053"": 100}",Madison,36053,False,False,America/New_York,"(42.89055, -75.57065)",213.18217424921997,36311739.0,27_0_yes,40.85086148046825,-78.68028609602923,200.0
13312,43.70247,-75.20758,Brantingham,NY,New York,True,,332.0,1.9,36049,Lewis,"{""36049"": 100}",Lewis,36049,False,False,America/New_York,"(43.70247, -75.20758)",265.16218694508615,36311739.0,27_0_yes,40.85086148046825,-78.68028609602923,200.0
13313,42.88715,-75.26228,Bridgewater,NY,New York,True,,451.0,52.7,36065,Oneida,"{""36065"": 100}",Oneida,36065,False,False,America/New_York,"(42.88715, -75.26228)",225.18329032528163,36311739.0,27_0_yes,40.85086148046825,-78.68028609602923,200.0
13314,42.82476,-75.31568,Brookfield,NY,New York,True,,232.0,40.1,36053,Madison,"{""36053"": 100}",Madison,36053,False,False,America/New_York,"(42.82476, -75.31568)",220.4195315574418,36311739.0,27_0_yes,40.85086148046825,-78.68028609602923,200.0
13315,42.7438,-75.1385,Burlington Flats,NY,New York,True,,1471.0,11.7,36077,Otsego,"{""36077"": 100}",Otsego,36077,False,False,America/New_York,"(42.7438, -75.1385)",224.44119680631414,36311739.0,27_0_yes,40.85086148046825,-78.68028609602923,200.0
13316,43.41492,-75.73963,Camden,NY,New York,True,,6168.0,14.0,36065,Oneida,"{""36065"": 68.19, ""36049"": 28.98, ""36075"": 2.83}",Oneida|Lewis|Oswego,36065|36049|36075,False,False,America/New_York,"(43.41492, -75.73963)",232.5372245198397,36311739.0,27_0_yes,40.85086148046825,-78.68028609602923,200.0
13318,42.92366,-75.25958,Cassville,NY,New York,True,,1300.0,20.4,36065,Oneida,"{""36065"": 100}",Oneida,36065,False,False,America/New_York,"(42.92366, -75.25958)",226.835755342005,36311739.0,27_0_yes,40.85086148046825,-78.68028609602923,200.0
13319,43.02705,-75.26593,Chadwicks,NY,New York,True,,761.0,298.6,36065,Oneida,"{""36065"": 100}",Oneida,36065,False,False,America/New_York,"(43.02705, -75.26593)",231.05362294323683,36311739.0,27_0_yes,40.85086148046825,-78.68028609602923,200.0
13321,43.08901,-75.37259,Clark Mills,NY,New York,True,,639.0,425.7,36065,Oneida,"{""36065"": 100}",Oneida,36065,False,False,America/New_York,"(43.08901, -75.37259)",229.71741222888923,36311739.0,27_0_yes,40.85086148046825,-78.68028609602923,200.0
13322,42.96661,-75.20445,Clayville,NY,New York,True,,888.0,25.7,36043,Herkimer,"{""36043"": 60.06, ""36065"": 39.94}",Herkimer|Oneida,36043|36065,False,False,America/New_York,"(42.96661, -75.20445)",230.8605283923045,36311739.0,27_0_yes,40.85086148046825,-78.68028609602923,200.0
13323,43.04198,-75.38144,Clinton,NY,New York,True,,11585.0,115.0,36065,Oneida,"{""36065"": 100}",Oneida,36065,False,False,America/New_York,"(43.04198, -75.38144)",227.25137064570944,36311739.0,27_0_yes,40.85086148046825,-78.68028609602923,200.0
13324,43.3165,-74.93325,Cold Brook,NY,New York,True,,2195.0,6.3,36043,Herkimer,"{""36043"": 100}",Herkimer,36043,False,False,America/New_York,"(43.3165, -74.93325)",256.7410369406145,36311739.0,27_0_yes,40.85086148046825,-78.68028609602923,200.0
13325,43.58398,-75.54091,Constableville,NY,New York,True,,955.0,3.6,36049,Lewis,"{""36049"": 100}",Lewis,36049,False,False,America/New_York,"(43.58398, -75.54091)",247.8855890802214,36311739.0,27_0_yes,40.85086148046825,-78.68028609602923,200.0
13326,42.71865,-74.90374,Cooperstown,NY,New York,True,,5165.0,21.7,36077,Otsego,"{""36077"": 100}",Otsego,36077,False,False,America/New_York,"(42.71865, -74.90374)",233.43758459692464,36311739.0,27_0_yes,40.85086148046825,-78.68028609602923,200.0
13328,42.98247,-75.42836,Deansboro,NY,New York,True,,1622.0,39.8,36065,Oneida,"{""36065"": 100}",Oneida,36065,False,False,America/New_York,"(42.98247, -75.42836)",222.77936334570254,36311739.0,27_0_yes,40.85086148046825,-78.68028609602923,200.0
13332,42.75831,-75.57452,Earlville,NY,New York,True,,2823.0,19.5,36053,Madison,"{""36053"": 80.73, ""36017"": 19.27}",Madison|Chenango,36053|36017,False,False,America/New_York,"(42.75831, -75.57452)",207.23212581941925,36311739.0,27_0_yes,40.85086148046825,-78.68028609602923,200.0
13334,42.83445,-75.65986,Eaton,NY,New York,True,,1083.0,14.3,36053,Madison,"{""36053"": 100}",Madison,36053,False,False,America/New_York,"(42.83445, -75.65986)",207.22935307248656,36311739.0,27_0_yes,40.85086148046825,-78.68028609602923,200.0
13335,42.70193,-75.24847,Edmeston,NY,New York,True,,1386.0,15.0,36077,Otsego,"{""36077"": 100}",Otsego,36077,False,False,America/New_York,"(42.70193, -75.24847)",218.20352394717463,36311739.0,27_0_yes,40.85086148046825,-78.68028609602923,200.0
13337,42.75114,-74.9816,Fly Creek,NY,New York,True,,628.0,14.4,36077,Otsego,"{""36077"": 100}",Otsego,36077,False,False,America/New_York,"(42.75114, -74.9816)",231.33279316874092,36311739.0,27_0_yes,40.85086148046825,-78.68028609602923,200.0
13338,43.49706,-74.97833,Forestport,NY,New York,True,,1263.0,2.1,36043,Herkimer,"{""36043"": 76.74, ""36065"": 23.26}",Herkimer|Oneida,36043|36065,False,False,America/New_York,"(43.49706, -74.97833)",263.31439891271015,36311739.0,27_0_yes,40.85086148046825,-78.68028609602923,200.0
13340,43.04814,-75.11502,Frankfort,NY,New York,True,,8023.0,51.3,36043,Herkimer,"{""36043"": 100}",Herkimer,36043,False,False,America/New_York,"(43.04814, -75.11502)",237.89725705326703,36311739.0,27_0_yes,40.85086148046825,-78.68028609602923,200.0
13342,42.64766,-75.18918,Garrattsville,NY,New York,True,,229.0,15.1,36077,Otsego,"{""36077"": 100}",Otsego,36077,False,False,America/New_York,"(42.64766, -75.18918)",218.5972836360513,36311739.0,27_0_yes,40.85086148046825,-78.68028609602923,200.0
13345,43.6889,-75.33153,Greig,NY,New York,True,,150.0,10.8,36049,Lewis,"{""36049"": 100}",Lewis,36049,False,False,America/New_York,"(43.6889, -75.33153)",260.2716076265869,36311739.0,27_0_yes,40.85086148046825,-78.68028609602923,200.0
13346,42.82093,-75.54453,Hamilton,NY,New York,True,,6225.0,67.9,36053,Madison,"{""36053"": 100}",Madison,36053,False,False,America/New_York,"(42.82093, -75.54453)",211.12679629233944,36311739.0,27_0_yes,40.85086148046825,-78.68028609602923,200.0
13348,42.70202,-75.06398,Hartwick,NY,New York,True,,1381.0,14.9,36077,Otsego,"{""36077"": 100}",Otsego,36077,False,False,America/New_York,"(42.70202, -75.06398)",225.97481818461478,36311739.0,27_0_yes,40.85086148046825,-78.68028609602923,200.0
13350,43.06352,-74.98817,Herkimer,NY,New York,True,,9727.0,118.7,36043,Herkimer,"{""36043"": 100}",Herkimer,36043,False,False,America/New_York,"(43.06352, -74.98817)",243.5964218700801,36311739.0,27_0_yes,40.85086148046825,-78.68028609602923,200.0
13352,43.31122,-75.12058,Hinckley,NY,New York,True,,10.0,13.9,36065,Oneida,"{""36065"": 100}",Oneida,36065,False,False,America/New_York,"(43.31122, -75.12058)",249.3961559321833,36311739.0,27_0_yes,40.85086148046825,-78.68028609602923,200.0
13354,43.26612,-75.27199,Holland Patent,NY,New York,True,,3777.0,27.3,36065,Oneida,"{""36065"": 100}",Oneida,36065,False,False,America/New_York,"(43.26612, -75.27199)",241.65846220758863,36311739.0,27_0_yes,40.85086148046825,-78.68028609602923,200.0
13355,42.80971,-75.42401,Hubbardsville,NY,New York,True,,1440.0,17.1,36053,Madison,"{""36053"": 100}",Madison,36053,False,False,America/New_York,"(42.80971, -75.42401)",215.42857050526942,36311739.0,27_0_yes,40.85086148046825,-78.68028609602923,200.0
13357,42.96952,-75.08037,Ilion,NY,New York,True,,10748.0,140.4,36043,Herkimer,"{""36043"": 100}",Herkimer,36043,False,False,America/New_York,"(42.96952, -75.08037)",235.9525115218848,36311739.0,27_0_yes,40.85086148046825,-78.68028609602923,200.0
13363,43.33127,-75.50984,Lee Center,NY,New York,True,,2358.0,38.8,36065,Oneida,"{""36065"": 100}",Oneida,36065,False,False,America/New_York,"(43.33127, -75.50984)",236.17551247355365,36311739.0,27_0_yes,40.85086148046825,-78.68028609602923,200.0
13364,42.80501,-75.26105,Leonardsville,NY,New York,True,,222.0,29.1,36053,Madison,"{""36053"": 99.7, ""36077"": 0.3}",Madison|Otsego,36053|36077,False,False,America/New_York,"(42.80501, -75.26105)",221.8234727025658,36311739.0,27_0_yes,40.85086148046825,-78.68028609602923,200.0
13368,43.6446,-75.33209,Lyons Falls,NY,New York,True,,1184.0,19.0,36049,Lewis,"{""36049"": 100}",Lewis,36049,False,False,America/New_York,"(43.6446, -75.33209)",257.99561101853067,36311739.0,27_0_yes,40.85086148046825,-78.68028609602923,200.0
13402,42.90209,-75.50728,Madison,NY,New York,True,,1441.0,23.2,36053,Madison,"{""36053"": 93.1, ""36065"": 6.9}",Madison|Oneida,36053|36065,False,False,America/New_York,"(42.90209, -75.50728)",216.14900824625815,36311739.0,27_0_yes,40.85086148046825,-78.68028609602923,200.0
13403,43.17041,-75.27188,Marcy,NY,New York,True,,7485.0,103.8,36065,Oneida,"{""36065"": 100}",Oneida,36065,False,False,America/New_York,"(43.17041, -75.27188)",237.24397038213883,36311739.0,27_0_yes,40.85086148046825,-78.68028609602923,200.0
13404,43.73842,-75.48089,Martinsburg,NY,New York,True,,130.0,30.4,36049,Lewis,"{""36049"": 100}",Lewis,36049,False,False,America/New_York,"(43.73842, -75.48089)",257.91268611875296,36311739.0,27_0_yes,40.85086148046825,-78.68028609602923,200.0
13406,43.14326,-74.92257,Middleville,NY,New York,True,,865.0,72.2,36043,Herkimer,"{""36043"": 100}",Herkimer,36043,False,False,America/New_York,"(43.14326, -74.92257)",249.59080894093188,36311739.0,27_0_yes,40.85086148046825,-78.68028609602923,200.0
13407,42.9677,-74.94087,Mohawk,NY,New York,True,,4830.0,33.1,36043,Herkimer,"{""36043"": 100}",Herkimer,36043,False,False,America/New_York,"(42.9677, -74.94087)",241.54275762837506,36311739.0,27_0_yes,40.85086148046825,-78.68028609602923,200.0
13408,42.92205,-75.66722,Morrisville,NY,New York,True,,3584.0,40.7,36053,Madison,"{""36053"": 100}",Madison,36053,False,False,America/New_York,"(42.92205, -75.66722)",210.92277398692679,36311739.0,27_0_yes,40.85086148046825,-78.68028609602923,200.0
13409,42.97602,-75.59131,Munnsville,NY,New York,True,,2255.0,24.2,36053,Madison,"{""36053"": 94.2, ""36065"": 5.8}",Madison|Oneida,36053|36065,False,False,America/New_York,"(42.97602, -75.59131)",216.26980954410985,36311739.0,27_0_yes,40.85086148046825,-78.68028609602923,200.0
13411,42.63723,-75.30981,New Berlin,NY,New York,True,,3092.0,16.9,36077,Otsego,"{""36077"": 53.65, ""36017"": 46.35}",Otsego|Chenango,36077|36017,False,False,America/New_York,"(42.63723, -75.30981)",213.10359076523483,36311739.0,27_0_yes,40.85086148046825,-78.68028609602923,200.0
13413,43.0576,-75.27495,New Hartford,NY,New York,True,,15750.0,315.4,36065,Oneida,"{""36065"": 88.73, ""36043"": 11.27}",Oneida|Herkimer,36065|36043,False,False,America/New_York,"(43.0576, -75.27495)",232.0508126094368,36311739.0,27_0_yes,40.85086148046825,-78.68028609602923,200.0
13415,42.59714,-75.19729,New Lisbon,NY,New York,True,,25.0,4.7,36077,Otsego,"{""36077"": 100}",Otsego,36077,False,False,America/New_York,"(42.59714, -75.19729)",216.34676058635898,36311739.0,27_0_yes,40.85086148046825,-78.68028609602923,200.0
13416,43.18768,-74.9571,Newport,NY,New York,True,,2079.0,16.0,36043,Herkimer,"{""36043"": 100}",Herkimer,36043,False,False,America/New_York,"(43.18768, -74.9571)",250.14092234937073,36311739.0,27_0_yes,40.85086148046825,-78.68028609602923,200.0
13417,43.10002,-75.29399,New York Mills,NY,New York,True,,3066.0,834.1,36065,Oneida,"{""36065"": 100}",Oneida,36065,False,False,America/New_York,"(43.10002, -75.29399)",233.21256465044462,36311739.0,27_0_yes,40.85086148046825,-78.68028609602923,200.0
13418,42.84519,-75.38213,North Brookfield,NY,New York,True,,268.0,19.3,36053,Madison,"{""36053"": 100}",Madison,36053,False,False,America/New_York,"(42.84519, -75.38213)",218.60892808640617,36311739.0,27_0_yes,40.85086148046825,-78.68028609602923,200.0
13420,43.65069,-74.9619,Old Forge,NY,New York,True,,1064.0,2.8,36043,Herkimer,"{""36043"": 100}",Herkimer,36043,False,False,America/New_York,"(43.65069, -74.9619)",271.21441690665876,36311739.0,27_0_yes,40.85086148046825,-78.68028609602923,200.0
13421,43.06293,-75.64654,Oneida,NY,New York,True,,13230.0,127.3,36053,Madison,"{""36053"": 75.91, ""36065"": 24.09}",Madison|Oneida,36053|36065,False,False,America/New_York,"(43.06293, -75.64654)",218.27685174308144,36311739.0,27_0_yes,40.85086148046825,-78.68028609602923,200.0
13424,43.15228,-75.36291,Oriskany,NY,New York,True,,2375.0,76.3,36065,Oneida,"{""36065"": 100}",Oneida,36065,False,False,America/New_York,"(43.15228, -75.36291)",232.98236364140843,36311739.0,27_0_yes,40.85086148046825,-78.68028609602923,200.0
13425,42.9635,-75.48675,Oriskany Falls,NY,New York,True,,2143.0,32.1,36065,Oneida,"{""36065"": 86.05, ""36053"": 13.95}",Oneida|Madison,36065|36053,False,False,America/New_York,"(42.9635, -75.48675)",219.68223042243966,36311739.0,27_0_yes,40.85086148046825,-78.68028609602923,200.0
13431,43.20691,-75.07608,Poland,NY,New York,True,,1902.0,20.3,36043,Herkimer,"{""36043"": 87.98, ""36065"": 12.02}",Herkimer|Oneida,36043|36065,False,False,America/New_York,"(43.20691, -75.07608)",246.36429331290893,36311739.0,27_0_yes,40.85086148046825,-78.68028609602923,200.0
13433,43.59914,-75.24765,Port Leyden,NY,New York,True,,1657.0,11.2,36049,Lewis,"{""36049"": 100}",Lewis,36049,False,False,America/New_York,"(43.59914, -75.24765)",258.60835789465693,36311739.0,27_0_yes,40.85086148046825,-78.68028609602923,200.0
13435,43.30255,-75.15134,Prospect,NY,New York,True,,347.0,311.4,36065,Oneida,"{""36065"": 100}",Oneida,36065,False,False,America/New_York,"(43.30255, -75.15134)",247.84429433955137,36311739.0,27_0_yes,40.85086148046825,-78.68028609602923,200.0
13437,43.59677,-75.80383,Redfield,NY,New York,True,,326.0,1.3,36075,Oswego,"{""36075"": 75.58, ""36049"": 24.42}",Oswego|Lewis,36075|36049,False,False,America/New_York,"(43.59677, -75.80383)",240.08194450189268,36311739.0,27_0_yes,40.85086148046825,-78.68028609602923,200.0
13438,43.35171,-75.15527,Remsen,NY,New York,True,,2944.0,11.9,36065,Oneida,"{""36065"": 75.68, ""36043"": 24.32}",Oneida|Herkimer,36065|36043,False,False,America/New_York,"(43.35171, -75.15527)",249.9804106792145,36311739.0,27_0_yes,40.85086148046825,-78.68028609602923,200.0
13439,42.85491,-74.99724,Richfield Springs,NY,New York,True,,3720.0,16.3,36077,Otsego,"{""36077"": 61.12, ""36043"": 38.88}",Otsego|Herkimer,36077|36043,False,False,America/New_York,"(42.85491, -74.99724)",234.6984644724545,36311739.0,27_0_yes,40.85086148046825,-78.68028609602923,200.0
13440,43.21807,-75.45941,Rome,NY,New York,True,,41342.0,137.0,36065,Oneida,"{""36065"": 100}",Oneida,36065,False,False,America/New_York,"(43.21807, -75.45941)",232.49917417846325,36311739.0,27_0_yes,40.85086148046825,-78.68028609602923,200.0
13441,43.22711,-75.40758,Rome,NY,New York,True,,197.0,22.4,36065,Oneida,"{""36065"": 100}",Oneida,36065,False,False,America/New_York,"(43.22711, -75.40758)",234.82372061115836,36311739.0,27_0_yes,40.85086148046825,-78.68028609602923,200.0
13456,43.00145,-75.25855,Sauquoit,NY,New York,True,,4039.0,61.1,36065,Oneida,"{""36065"": 85.95, ""36043"": 14.05}",Oneida|Herkimer,36065|36043,False,False,America/New_York,"(43.00145, -75.25855)",230.22355358188364,36311739.0,27_0_yes,40.85086148046825,-78.68028609602923,200.0
13460,42.68492,-75.45572,Sherburne,NY,New York,True,,4122.0,23.9,36017,Chenango,"{""36017"": 95.98, ""36053"": 4.02}",Chenango|Madison,36017|36053,False,False,America/New_York,"(42.68492, -75.45572)",208.95063389421625,36311739.0,27_0_yes,40.85086148046825,-78.68028609602923,200.0
13461,43.07115,-75.59866,Sherrill,NY,New York,True,,2987.0,468.4,36065,Oneida,"{""36065"": 100}",Oneida,36065,False,False,America/New_York,"(43.07115, -75.59866)",220.42667592700323,36311739.0,27_0_yes,40.85086148046825,-78.68028609602923,200.0
13464,42.68632,-75.61998,Smyrna,NY,New York,True,,1368.0,13.3,36017,Chenango,"{""36017"": 98.27, ""36053"": 1.73}",Chenango|Madison,36017|36053,False,False,America/New_York,"(42.68632, -75.61998)",202.34659436849878,36311739.0,27_0_yes,40.85086148046825,-78.68028609602923,200.0
13469,43.22028,-75.29853,Stittville,NY,New York,True,,1238.0,154.4,36065,Oneida,"{""36065"": 100}",Oneida,36065,False,False,America/New_York,"(43.22028, -75.29853)",238.53761138333448,36311739.0,27_0_yes,40.85086148046825,-78.68028609602923,200.0
13471,43.37606,-75.6122,Taberg,NY,New York,True,,3045.0,14.9,36065,Oneida,"{""36065"": 81.37, ""36049"": 18.63}",Oneida|Lewis,36065|36049,False,False,America/New_York,"(43.37606, -75.6122)",234.84833288347576,36311739.0,27_0_yes,40.85086148046825,-78.68028609602923,200.0
13472,43.69491,-75.06072,Thendara,NY,New York,True,,79.0,2.2,36043,Herkimer,"{""36043"": 100}",Herkimer,36043,False,False,America/New_York,"(43.69491, -75.06072)",269.86864711663645,36311739.0,27_0_yes,40.85086148046825,-78.68028609602923,200.0
13473,43.64414,-75.44517,Turin,NY,New York,True,,958.0,9.0,36049,Lewis,"{""36049"": 100}",Lewis,36049,False,False,America/New_York,"(43.64414, -75.44517)",254.17336886324836,36311739.0,27_0_yes,40.85086148046825,-78.68028609602923,200.0
13476,43.08728,-75.51219,Vernon,NY,New York,True,,3617.0,60.9,36065,Oneida,"{""36065"": 100}",Oneida,36065,False,False,America/New_York,"(43.08728, -75.51219)",224.38765314313318,36311739.0,27_0_yes,40.85086148046825,-78.68028609602923,200.0
13477,43.03633,-75.51441,Vernon Center,NY,New York,True,,1029.0,22.1,36065,Oneida,"{""36065"": 100}",Oneida,36065,False,False,America/New_York,"(43.03633, -75.51441)",221.9434093341437,36311739.0,27_0_yes,40.85086148046825,-78.68028609602923,200.0
13478,43.14916,-75.58009,Verona,NY,New York,True,,3257.0,36.0,36065,Oneida,"{""36065"": 100}",Oneida,36065,False,False,America/New_York,"(43.14916, -75.58009)",224.81476181380026,36311739.0,27_0_yes,40.85086148046825,-78.68028609602923,200.0
13480,42.91424,-75.36699,Waterville,NY,New York,True,,3235.0,22.8,36065,Oneida,"{""36065"": 91.0, ""36053"": 9.0}",Oneida|Madison,36065|36053,False,False,America/New_York,"(42.91424, -75.36699)",222.17187012436563,36311739.0,27_0_yes,40.85086148046825,-78.68028609602923,200.0
13483,43.40075,-75.81995,Westdale,NY,New York,True,,317.0,13.6,36065,Oneida,"{""36065"": 98.16, ""36075"": 1.84}",Oneida|Oswego,36065|36075,False,False,America/New_York,"(43.40075, -75.81995)",229.15108561903696,36311739.0,27_0_yes,40.85086148046825,-78.68028609602923,200.0
13484,42.85426,-75.65549,West Eaton,NY,New York,True,,174.0,2436.5,36053,Madison,"{""36053"": 100}",Madison,36053,False,False,America/New_York,"(42.85426, -75.65549)",208.2866785771882,36311739.0,27_0_yes,40.85086148046825,-78.68028609602923,200.0
13485,42.7865,-75.3165,West Edmeston,NY,New York,True,,1231.0,11.1,36053,Madison,"{""36053"": 80.42, ""36077"": 12.01, ""36017"": 7.57}",Madison|Otsego|Chenango,36053|36077|36017,False,False,America/New_York,"(42.7865, -75.3165)",218.80219404119757,36311739.0,27_0_yes,40.85086148046825,-78.68028609602923,200.0
13486,43.35707,-75.34088,Westernville,NY,New York,True,,701.0,10.2,36065,Oneida,"{""36065"": 100}",Oneida,36065,False,False,America/New_York,"(43.35707, -75.34088)",243.4544909136028,36311739.0,27_0_yes,40.85086148046825,-78.68028609602923,200.0
13489,43.46698,-75.52928,West Leyden,NY,New York,True,,538.0,6.7,36049,Lewis,"{""36049"": 100}",Lewis,36049,False,False,America/New_York,"(43.46698, -75.52928)",242.28179831139374,36311739.0,27_0_yes,40.85086148046825,-78.68028609602923,200.0
13490,43.10612,-75.42991,Westmoreland,NY,New York,True,,1606.0,63.0,36065,Oneida,"{""36065"": 100}",Oneida,36065,False,False,America/New_York,"(43.10612, -75.42991)",228.3377147121835,36311739.0,27_0_yes,40.85086148046825,-78.68028609602923,200.0
13491,42.85957,-75.17698,West Winfield,NY,New York,True,,3330.0,17.1,36077,Otsego,"{""36077"": 51.82, ""36043"": 38.08, ""36053"": 10.11}",Otsego|Herkimer|Madison,36077|36043|36053,False,False,America/New_York,"(42.85957, -75.17698)",227.48894636719862,36311739.0,27_0_yes,40.85086148046825,-78.68028609602923,200.0
13492,43.1172,-75.33023,Whitesboro,NY,New York,True,,11118.0,280.5,36065,Oneida,"{""36065"": 100}",Oneida,36065,False,False,America/New_York,"(43.1172, -75.33023)",232.60820857424346,36311739.0,27_0_yes,40.85086148046825,-78.68028609602923,200.0
13493,43.43162,-75.90102,Williamstown,NY,New York,True,,2318.0,12.7,36075,Oswego,"{""36075"": 99.5, ""36065"": 0.5}",Oswego|Oneida,36075|36065,False,False,America/New_York,"(43.43162, -75.90102)",228.1587864940167,36311739.0,27_0_yes,40.85086148046825,-78.68028609602923,200.0
13494,43.53136,-75.14198,Woodgate,NY,New York,True,,240.0,5.5,36065,Oneida,"{""36065"": 100}",Oneida,36065,False,False,America/New_York,"(43.53136, -75.14198)",259.00662306028244,36311739.0,27_0_yes,40.85086148046825,-78.68028609602923,200.0
13495,43.11087,-75.27744,Yorkville,NY,New York,True,,2035.0,907.6,36065,Oneida,"{""36065"": 100}",Oneida,36065,False,False,America/New_York,"(43.11087, -75.27744)",234.33432882629853,36311739.0,27_0_yes,40.85086148046825,-78.68028609602923,200.0
13501,43.08138,-75.22611,Utica,NY,New York,True,,37132.0,1621.3,36065,Oneida,"{""36065"": 100}",Oneida,36065,False,False,America/New_York,"(43.08138, -75.22611)",234.9961426707088,36311739.0,27_0_yes,40.85086148046825,-78.68028609602923,200.0
13502,43.14121,-75.16584,Utica,NY,New York,True,,32437.0,243.5,36065,Oneida,"{""36065"": 70.28, ""36043"": 29.72}",Oneida|Herkimer,36065|36043,False,False,America/New_York,"(43.14121, -75.16584)",239.98074590855816,36311739.0,27_0_yes,40.85086148046825,-78.68028609602923,200.0
13636,43.74107,-76.12762,Ellisburg,NY,New York,True,,237.0,27.0,36045,Jefferson,"{""36045"": 100}",Jefferson,36045,False,False,America/New_York,"(43.74107, -76.12762)",238.502668420422,36311739.0,27_0_yes,40.85086148046825,-78.68028609602923,200.0
13659,43.73783,-75.8707,Lorraine,NY,New York,True,,382.0,2.6,36045,Jefferson,"{""36045"": 100}",Jefferson,36045,False,False,America/New_York,"(43.73783, -75.8707)",245.7445109814491,36311739.0,27_0_yes,40.85086148046825,-78.68028609602923,200.0
13661,43.70924,-76.1054,Mannsville,NY,New York,True,,1609.0,13.7,36045,Jefferson,"{""36045"": 89.5, ""36075"": 10.5}",Jefferson|Oswego,36045|36075,False,False,America/New_York,"(43.70924, -76.1054)",237.31069207953777,36311739.0,27_0_yes,40.85086148046825,-78.68028609602923,200.0
13674,43.73763,-76.05192,Pierrepont Manor,NY,New York,True,,191.0,1407.8,36045,Jefferson,"{""36045"": 100}",Jefferson,36045,False,False,America/New_York,"(43.73763, -76.05192)",240.44367230124712,36311739.0,27_0_yes,40.85086148046825,-78.68028609602923,200.0
13730,42.23201,-75.53127,Afton,NY,New York,True,,2630.0,19.8,36017,Chenango,"{""36017"": 87.21, ""36007"": 12.79}",Chenango|Broome,36017|36007,False,False,America/New_York,"(42.23201, -75.53127)",188.73171725032043,36311739.0,27_0_yes,40.85086148046825,-78.68028609602923,200.0
13732,42.04396,-76.16772,Apalachin,NY,New York,True,,7602.0,89.2,36107,Tioga,"{""36107"": 100}",Tioga,36107,False,False,America/New_York,"(42.04396, -76.16772)",154.02923250936652,36311739.0,27_0_yes,40.85086148046825,-78.68028609602923,200.0
13733,42.30459,-75.4793,Bainbridge,NY,New York,True,,5112.0,22.4,36017,Chenango,"{""36017"": 88.53, ""36025"": 9.23, ""36077"": 2.24}",Chenango|Delaware|Otsego,36017|36025|36077,False,False,America/New_York,"(42.30459, -75.4793)",193.5275581067109,36311739.0,27_0_yes,40.85086148046825,-78.68028609602923,200.0
13734,42.07752,-76.40864,Barton,NY,New York,True,,1828.0,17.7,36107,Tioga,"{""36107"": 100}",Tioga,36107,False,False,America/New_York,"(42.07752, -76.40864)",144.9643394618554,36311739.0,27_0_yes,40.85086148046825,-78.68028609602923,200.0
13736,42.31722,-76.19389,Berkshire,NY,New York,True,,2086.0,13.2,36107,Tioga,"{""36107"": 75.4, ""36109"": 20.18, ""36007"": 4.42}",Tioga|Tompkins|Broome,36107|36109|36007,False,False,America/New_York,"(42.31722, -76.19389)",163.62340586820065,36311739.0,27_0_yes,40.85086148046825,-78.68028609602923,200.0
13743,42.21706,-76.33898,Candor,NY,New York,True,,3630.0,23.2,36107,Tioga,"{""36107"": 100}",Tioga,36107,False,False,America/New_York,"(42.21706, -76.33898)",153.52863576472257,36311739.0,27_0_yes,40.85086148046825,-78.68028609602923,200.0
13744,42.24078,-75.90629,Castle Creek,NY,New York,True,,1307.0,49.7,36007,Broome,"{""36007"": 100}",Broome,36007,False,False,America/New_York,"(42.24078, -75.90629)",172.61062638778552,36311739.0,27_0_yes,40.85086148046825,-78.68028609602923,200.0
13746,42.26868,-75.82085,Chenango Forks,NY,New York,True,,1578.0,18.2,36007,Broome,"{""36007"": 60.84, ""36017"": 39.16}",Broome|Chenango,36007|36017,False,False,America/New_York,"(42.26868, -75.82085)",177.32865591745474,36311739.0,27_0_yes,40.85086148046825,-78.68028609602923,200.0
13748,42.03428,-75.81727,Conklin,NY,New York,True,,3766.0,107.7,36007,Broome,"{""36007"": 100}",Broome,36007,False,False,America/New_York,"(42.03428, -75.81727)",169.32216155748887,36311739.0,27_0_yes,40.85086148046825,-78.68028609602923,200.0
13751,42.45745,-74.88363,Davenport Center,NY,New York,True,,189.0,22.3,36025,Delaware,"{""36025"": 100}",Delaware,36025,False,False,America/New_York,"(42.45745, -74.88363)",225.21898420933564,36311739.0,27_0_yes,40.85086148046825,-78.68028609602923,200.0
13752,42.17257,-74.90379,Delancey,NY,New York,True,,886.0,6.3,36025,Delaware,"{""36025"": 100}",Delaware,36025,False,False,America/New_York,"(42.17257, -74.90379)",215.65079560856532,36311739.0,27_0_yes,40.85086148046825,-78.68028609602923,200.0
13753,42.30873,-74.92538,Delhi,NY,New York,True,,5511.0,21.7,36025,Delaware,"{""36025"": 100}",Delaware,36025,False,False,America/New_York,"(42.30873, -74.92538)",218.62374262976925,36311739.0,27_0_yes,40.85086148046825,-78.68028609602923,200.0
13754,42.09387,-75.43625,Deposit,NY,New York,True,,2883.0,14.3,36007,Broome,"{""36007"": 64.65, ""36025"": 35.35}",Broome|Delaware,36007|36025,False,False,America/New_York,"(42.09387, -75.43625)",188.61096367100342,36311739.0,27_0_yes,40.85086148046825,-78.68028609602923,200.0
13755,42.05976,-75.01524,Downsville,NY,New York,True,,982.0,7.3,36025,Delaware,"{""36025"": 100}",Delaware,36025,False,False,America/New_York,"(42.05976, -75.01524)",207.33277121156632,36311739.0,27_0_yes,40.85086148046825,-78.68028609602923,200.0
13756,42.01025,-75.10394,East Branch,NY,New York,True,,431.0,3.7,36025,Delaware,"{""36025"": 100}",Delaware,36025,False,False,America/New_York,"(42.01025, -75.10394)",201.82163547520548,36311739.0,27_0_yes,40.85086148046825,-78.68028609602923,200.0
13757,42.40915,-74.89321,East Meredith,NY,New York,True,,1396.0,15.1,36025,Delaware,"{""36025"": 100}",Delaware,36025,False,False,America/New_York,"(42.40915, -74.89321)",223.22518159433756,36311739.0,27_0_yes,40.85086148046825,-78.68028609602923,200.0
13760,42.13425,-76.08354,Endicott,NY,New York,True,,42103.0,329.7,36007,Broome,"{""36007"": 71.75, ""36107"": 28.25}",Broome|Tioga,36007|36107,False,False,America/New_York,"(42.13425, -76.08354)",160.99767501119484,36311739.0,27_0_yes,40.85086148046825,-78.68028609602923,200.0
13774,41.96192,-75.17283,Fishs Eddy,NY,New York,True,,198.0,12.6,36025,Delaware,"{""36025"": 100}",Delaware,36025,False,False,America/New_York,"(41.96192, -75.17283)",197.29148424894078,36311739.0,27_0_yes,40.85086148046825,-78.68028609602923,200.0
13775,42.33706,-75.14728,Franklin,NY,New York,True,,1780.0,14.1,36025,Delaware,"{""36025"": 98.26, ""36077"": 1.74}",Delaware|Otsego,36025|36077,False,False,America/New_York,"(42.33706, -75.14728)",209.432099506443,36311739.0,27_0_yes,40.85086148046825,-78.68028609602923,200.0
13776,42.47023,-75.33458,Gilbertsville,NY,New York,True,,507.0,31.1,36077,Otsego,"{""36077"": 100}",Otsego,36077,False,False,America/New_York,"(42.47023, -75.33458)",205.75442499143313,36311739.0,27_0_yes,40.85086148046825,-78.68028609602923,200.0
13777,42.25894,-75.9866,Glen Aubrey,NY,New York,True,,433.0,22.0,36007,Broome,"{""36007"": 100}",Broome,36007,False,False,America/New_York,"(42.25894, -75.9866)",169.8753928119011,36311739.0,27_0_yes,40.85086148046825,-78.68028609602923,200.0
13778,42.34795,-75.75977,Greene,NY,New York,True,,5458.0,22.1,36017,Chenango,"{""36017"": 93.32, ""36007"": 6.68}",Chenango|Broome,36017|36007,False,False,America/New_York,"(42.34795, -75.75977)",182.93008048987585,36311739.0,27_0_yes,40.85086148046825,-78.68028609602923,200.0
13780,42.42496,-75.48128,Guilford,NY,New York,True,,708.0,12.0,36017,Chenango,"{""36017"": 100}",Chenango,36017,False,False,America/New_York,"(42.42496, -75.48128)",197.75528895361373,36311739.0,27_0_yes,40.85086148046825,-78.68028609602923,200.0
13782,42.17304,-74.9836,Hamden,NY,New York,True,,824.0,8.9,36025,Delaware,"{""36025"": 100}",Delaware,36025,False,False,America/New_York,"(42.17304, -74.9836)",211.9317822916922,36311739.0,27_0_yes,40.85086148046825,-78.68028609602923,200.0
13783,41.99037,-75.26764,Hancock,NY,New York,True,,2659.0,9.1,36025,Delaware,"{""36025"": 99.51, ""36007"": 0.49}",Delaware|Broome,36025|36007,False,False,America/New_York,"(41.99037, -75.26764)",193.53134945454303,36311739.0,27_0_yes,40.85086148046825,-78.68028609602923,200.0
13784,42.43542,-76.2177,Harford,NY,New York,True,,215.0,80.6,36023,Cortland,"{""36023"": 100}",Cortland,36023,False,False,America/New_York,"(42.43542, -76.2177)",167.7778111425333,36311739.0,27_0_yes,40.85086148046825,-78.68028609602923,200.0
13787,42.20606,-75.66334,Harpursville,NY,New York,True,,3039.0,19.3,36007,Broome,"{""36007"": 66.79, ""36017"": 33.21}",Broome|Chenango,36007|36017,False,False,America/New_York,"(42.20606, -75.66334)",181.97121974161226,36311739.0,27_0_yes,40.85086148046825,-78.68028609602923,200.0
13790,42.16937,-75.99796,Johnson City,NY,New York,True,,17763.0,252.2,36007,Broome,"{""36007"": 100}",Broome,36007,False,False,America/New_York,"(42.16937, -75.99796)",165.9988279381405,36311739.0,27_0_yes,40.85086148046825,-78.68028609602923,200.0
13795,42.05844,-75.77419,Kirkwood,NY,New York,True,,3093.0,50.0,36007,Broome,"{""36007"": 100}",Broome,36007,False,False,America/New_York,"(42.05844, -75.77419)",172.05734733211696,36311739.0,27_0_yes,40.85086148046825,-78.68028609602923,200.0
13796,42.5513,-75.13644,Laurens,NY,New York,True,,1063.0,16.8,36077,Otsego,"{""36077"": 100}",Otsego,36077,False,False,America/New_York,"(42.5513, -75.13644)",217.28415586760102,36311739.0,27_0_yes,40.85086148046825,-78.68028609602923,200.0
13797,42.32765,-76.04389,Lisle,NY,New York,True,,2262.0,26.0,36007,Broome,"{""36007"": 100}",Broome,36007,False,False,America/New_York,"(42.32765, -76.04389)",170.19930561918233,36311739.0,27_0_yes,40.85086148046825,-78.68028609602923,200.0
13801,42.50327,-75.78028,McDonough,NY,New York,True,,1457.0,8.8,36017,Chenango,"{""36017"": 100}",Chenango,36017,False,False,America/New_York,"(42.50327, -75.78028)",188.21568463128017,36311739.0,27_0_yes,40.85086148046825,-78.68028609602923,200.0
13802,42.25164,-76.04207,Maine,NY,New York,True,,964.0,34.7,36007,Broome,"{""36007"": 100}",Broome,36007,False,False,America/New_York,"(42.25164, -76.04207)",167.24681390392172,36311739.0,27_0_yes,40.85086148046825,-78.68028609602923,200.0
