zip,lat,lng,city,state_id,state_name,zcta,parent_zcta,population,density,county_fips,county_name,county_weights,county_names_all,county_fips_all,imprecise,military,timezone,Coord,distance_miles,market_total_population,market_id,market_center_lat,market_center_lng,radius_miles
56113,44.40218,-96.14904,Arco,MN,Minnesota,True,,240.0,2.3,27081,Lincoln,"{""27081"": 93.91, ""27083"": 6.09}",Lincoln|Lyon,27081|27083,False,False,America/Chicago,"(44.40218, -96.14904)",247.4293788914701,1404101.0,37_0_yes,47.23920282249175,-99.28627490823746,200.0
56136,44.50187,-96.41645,Hendricks,MN,Minnesota,True,,1106.0,3.8,27081,Lincoln,"{""27081"": 77.68, ""46011"": 22.32}",Lincoln|Brookings,27081|46011,False,False,America/Chicago,"(44.50187, -96.41645)",234.12590882361874,1404101.0,37_0_yes,47.23920282249175,-99.28627490823746,200.0
56142,44.4711,-96.2327,Ivanhoe,MN,Minnesota,True,,961.0,4.1,27081,Lincoln,"{""27081"": 100}",Lincoln,27081,False,False,America/Chicago,"(44.4711, -96.2327)",241.14665462718676,1404101.0,37_0_yes,47.23920282249175,-99.28627490823746,200.0
56157,44.39702,-95.94805,Lynd,MN,Minnesota,True,,731.0,6.5,27083,Lyon,"{""27083"": 100}",Lyon,27083,False,False,America/Chicago,"(44.39702, -95.94805)",253.72769905354758,1404101.0,37_0_yes,47.23920282249175,-99.28627490823746,200.0
56201,45.10181,-95.04226,Willmar,MN,Minnesota,True,,23465.0,76.7,27067,Kandiyohi,"{""27067"": 100}",Kandiyohi,27067,False,False,America/Chicago,"(45.10181, -95.04226)",251.02980087630948,1404101.0,37_0_yes,47.23920282249175,-99.28627490823746,200.0
56207,45.50266,-96.0708,Alberta,MN,Minnesota,True,,252.0,2.0,27149,Stevens,"{""27149"": 94.16, ""27151"": 5.84}",Stevens|Swift,27149|27151,False,False,America/Chicago,"(45.50266, -96.0708)",194.63784598183875,1404101.0,37_0_yes,47.23920282249175,-99.28627490823746,200.0
56208,45.24422,-96.00961,Appleton,MN,Minnesota,True,,1988.0,3.9,27151,Swift,"{""27151"": 81.38, ""27073"": 12.05, ""27011"": 4.46, ""27023"": 2.11}",Swift|Lac qui Parle|Big Stone|Chippewa,27151|27073|27011|27023,False,False,America/Chicago,"(45.24422, -96.00961)",208.5736505488103,1404101.0,37_0_yes,47.23920282249175,-99.28627490823746,200.0
56210,45.55739,-96.55958,Barry,MN,Minnesota,True,,7.0,15.0,27011,Big Stone,"{""27011"": 100}",Big Stone,27011,False,False,America/Chicago,"(45.55739, -96.55958)",174.28954669968923,1404101.0,37_0_yes,47.23920282249175,-99.28627490823746,200.0
56211,45.58641,-96.6828,Beardsley,MN,Minnesota,True,,452.0,1.7,27011,Big Stone,"{""27011"": 54.12, ""27155"": 45.88}",Big Stone|Traverse,27011|27155,False,False,America/Chicago,"(45.58641, -96.6828)",168.57157101262027,1404101.0,37_0_yes,47.23920282249175,-99.28627490823746,200.0
56212,45.13499,-96.32459,Bellingham,MN,Minnesota,True,,507.0,2.4,27073,Lac qui Parle,"{""27073"": 100}",Lac qui Parle,27073,False,False,America/Chicago,"(45.13499, -96.32459)",202.96673800147255,1404101.0,37_0_yes,47.23920282249175,-99.28627490823746,200.0
56214,44.60804,-95.32943,Belview,MN,Minnesota,True,,693.0,4.2,27127,Redwood,"{""27127"": 84.52, ""27173"": 15.48}",Redwood|Yellow Medicine,27127|27173,False,False,America/Chicago,"(44.60804, -95.32943)",263.025836921288,1404101.0,37_0_yes,47.23920282249175,-99.28627490823746,200.0
56215,45.31077,-95.57233,Benson,MN,Minnesota,True,,4258.0,7.8,27151,Swift,"{""27151"": 92.5, ""27121"": 7.5}",Swift|Pope,27151|27121,False,False,America/Chicago,"(45.31077, -95.57233)",221.79784067489155,1404101.0,37_0_yes,47.23920282249175,-99.28627490823746,200.0
56216,44.93886,-95.05532,Blomkest,MN,Minnesota,True,,728.0,7.4,27067,Kandiyohi,"{""27067"": 100}",Kandiyohi,27067,False,False,America/Chicago,"(44.93886, -95.05532)",257.55233235584893,1404101.0,37_0_yes,47.23920282249175,-99.28627490823746,200.0
56218,44.82642,-95.94363,Boyd,MN,Minnesota,True,,440.0,1.7,27073,Lac qui Parle,"{""27073"": 61.71, ""27173"": 38.29}",Lac qui Parle|Yellow Medicine,27073|27173,False,False,America/Chicago,"(44.82642, -95.94363)",231.25805362507688,1404101.0,37_0_yes,47.23920282249175,-99.28627490823746,200.0
56219,45.5977,-96.81913,Browns Valley,MN,Minnesota,True,,1224.0,5.3,46109,Roberts,"{""46109"": 55.12, ""27155"": 36.6, ""27011"": 8.28}",Roberts|Traverse|Big Stone,46109|27155|27011,False,False,America/Chicago,"(45.5977, -96.81913)",163.30355424513587,1404101.0,37_0_yes,47.23920282249175,-99.28627490823746,200.0
56220,44.73125,-96.29339,Canby,MN,Minnesota,True,,2664.0,3.7,27173,Yellow Medicine,"{""27173"": 68.07, ""27073"": 19.36, ""27081"": 12.35, ""46039"": 0.22}",Yellow Medicine|Lac qui Parle|Lincoln|Deuel,27173|27073|27081|46039,False,False,America/Chicago,"(44.73125, -96.29339)",225.06955610555488,1404101.0,37_0_yes,47.23920282249175,-99.28627490823746,200.0
56221,45.55583,-96.1938,Chokio,MN,Minnesota,True,,745.0,2.1,27149,Stevens,"{""27149"": 87.8, ""27011"": 10.1, ""27155"": 2.1}",Stevens|Big Stone|Traverse,27149|27011|27155,False,False,America/Chicago,"(45.55583, -96.1938)",187.7038817863527,1404101.0,37_0_yes,47.23920282249175,-99.28627490823746,200.0
56222,44.98586,-95.36229,Clara City,MN,Minnesota,True,,2199.0,9.0,27023,Chippewa,"{""27023"": 100}",Chippewa,27023,False,False,America/Chicago,"(44.98586, -95.36229)",244.0076639143577,1404101.0,37_0_yes,47.23920282249175,-99.28627490823746,200.0
56223,44.76259,-95.81691,Clarkfield,MN,Minnesota,True,,1468.0,4.9,27173,Yellow Medicine,"{""27173"": 100}",Yellow Medicine,27173,False,False,America/Chicago,"(44.76259, -95.81691)",238.71654433295635,1404101.0,37_0_yes,47.23920282249175,-99.28627490823746,200.0
56224,44.37628,-95.05854,Clements,MN,Minnesota,True,,333.0,3.6,27127,Redwood,"{""27127"": 100}",Redwood,27127,False,False,America/Chicago,"(44.37628, -95.05854)",283.80228161460445,1404101.0,37_0_yes,47.23920282249175,-99.28627490823746,200.0
56225,45.45325,-96.4482,Clinton,MN,Minnesota,True,,660.0,2.4,27011,Big Stone,"{""27011"": 100}",Big Stone,27011,False,False,America/Chicago,"(45.45325, -96.4482)",183.14360812393076,1404101.0,37_0_yes,47.23920282249175,-99.28627490823746,200.0
56226,45.41065,-95.67705,Clontarf,MN,Minnesota,True,,211.0,2.3,27121,Pope,"{""27121"": 50.67, ""27151"": 49.33}",Pope|Swift,27121|27151,False,False,America/Chicago,"(45.41065, -95.67705)",213.5467191645682,1404101.0,37_0_yes,47.23920282249175,-99.28627490823746,200.0
56227,45.29436,-96.16938,Correll,MN,Minnesota,True,,249.0,1.7,27011,Big Stone,"{""27011"": 100}",Big Stone,27011,False,False,America/Chicago,"(45.29436, -96.16938)",200.52216260368527,1404101.0,37_0_yes,47.23920282249175,-99.28627490823746,200.0
56229,44.59385,-95.72398,Cottonwood,MN,Minnesota,True,,1782.0,6.7,27083,Lyon,"{""27083"": 78.33, ""27173"": 21.67}",Lyon|Yellow Medicine,27083|27173,False,False,America/Chicago,"(44.59385, -95.72398)",250.40338813270947,1404101.0,37_0_yes,47.23920282249175,-99.28627490823746,200.0
56230,44.79284,-95.09288,Danube,MN,Minnesota,True,,776.0,4.8,27129,Renville,"{""27129"": 100}",Renville,27129,False,False,America/Chicago,"(44.79284, -95.09288)",262.71688513065936,1404101.0,37_0_yes,47.23920282249175,-99.28627490823746,200.0
56231,45.2788,-95.76381,Danvers,MN,Minnesota,True,,411.0,1.7,27151,Swift,"{""27151"": 100}",Swift,27151,False,False,America/Chicago,"(45.2788, -95.76381)",215.97692565731768,1404101.0,37_0_yes,47.23920282249175,-99.28627490823746,200.0
56232,44.92836,-96.03968,Dawson,MN,Minnesota,True,,2299.0,6.3,27073,Lac qui Parle,"{""27073"": 100}",Lac qui Parle,27073,False,False,America/Chicago,"(44.92836, -96.03968)",222.89710747826558,1404101.0,37_0_yes,47.23920282249175,-99.28627490823746,200.0
56235,45.70588,-96.01079,Donnelly,MN,Minnesota,True,,502.0,2.4,27149,Stevens,"{""27149"": 100}",Stevens,27149,False,False,America/Chicago,"(45.70588, -96.01079)",188.4341221945871,1404101.0,37_0_yes,47.23920282249175,-99.28627490823746,200.0
56236,45.66341,-96.40312,Dumont,MN,Minnesota,True,,297.0,1.1,27155,Traverse,"{""27155"": 93.94, ""27011"": 6.06}",Traverse|Big Stone,27155|27011,False,False,America/Chicago,"(45.66341, -96.40312)",175.1682914733067,1404101.0,37_0_yes,47.23920282249175,-99.28627490823746,200.0
56237,44.61956,-95.43489,Echo,MN,Minnesota,True,,550.0,3.4,27173,Yellow Medicine,"{""27173"": 100}",Yellow Medicine,27173,False,False,America/Chicago,"(44.61956, -95.43489)",258.8182751899221,1404101.0,37_0_yes,47.23920282249175,-99.28627490823746,200.0
56239,44.50416,-95.91079,Ghent,MN,Minnesota,True,,691.0,10.2,27083,Lyon,"{""27083"": 100}",Lyon,27083,False,False,America/Chicago,"(44.50416, -95.91079)",249.10908539186596,1404101.0,37_0_yes,47.23920282249175,-99.28627490823746,200.0
56240,45.56327,-96.47475,Graceville,MN,Minnesota,True,,910.0,2.4,27011,Big Stone,"{""27011"": 64.45, ""27155"": 35.55}",Big Stone|Traverse,27011|27155,False,False,America/Chicago,"(45.56327, -96.47475)",177.05039290068297,1404101.0,37_0_yes,47.23920282249175,-99.28627490823746,200.0
56241,44.79654,-95.57944,Granite Falls,MN,Minnesota,True,,3753.0,9.9,27173,Yellow Medicine,"{""27173"": 67.79, ""27023"": 22.51, ""27129"": 9.7}",Yellow Medicine|Chippewa|Renville,27173|27023|27129,False,False,America/Chicago,"(44.79654, -95.57944)",245.13491162525435,1404101.0,37_0_yes,47.23920282249175,-99.28627490823746,200.0
56244,45.48372,-95.77963,Hancock,MN,Minnesota,True,,1608.0,4.7,27149,Stevens,"{""27149"": 59.37, ""27121"": 34.3, ""27151"": 6.33}",Stevens|Pope|Swift,27149|27121|27151,False,False,America/Chicago,"(45.48372, -95.77963)",206.53028902061777,1404101.0,37_0_yes,47.23920282249175,-99.28627490823746,200.0
56245,44.68508,-95.67574,Hanley Falls,MN,Minnesota,True,,735.0,6.2,27173,Yellow Medicine,"{""27173"": 100}",Yellow Medicine,27173,False,False,America/Chicago,"(44.68508, -95.67574)",247.36207396434858,1404101.0,37_0_yes,47.23920282249175,-99.28627490823746,200.0
56248,45.79317,-96.13677,Herman,MN,Minnesota,True,,854.0,2.4,27051,Grant,"{""27051"": 69.16, ""27149"": 17.31, ""27155"": 13.53}",Grant|Stevens|Traverse,27051|27149|27155,False,False,America/Chicago,"(45.79317, -96.13677)",179.9963705335397,1404101.0,37_0_yes,47.23920282249175,-99.28627490823746,200.0
56249,45.31795,-95.89899,Holloway,MN,Minnesota,True,,308.0,1.8,27151,Swift,"{""27151"": 100}",Swift,27151,False,False,America/Chicago,"(45.31795, -95.89899)",209.21819268804987,1404101.0,37_0_yes,47.23920282249175,-99.28627490823746,200.0
56252,45.17785,-95.30397,Kerkhoven,MN,Minnesota,True,,1175.0,6.1,27151,Swift,"{""27151"": 59.72, ""27023"": 32.1, ""27067"": 8.18}",Swift|Chippewa|Kandiyohi,27151|27023|27067,False,False,America/Chicago,"(45.17785, -95.30397)",237.73617784500257,1404101.0,37_0_yes,47.23920282249175,-99.28627490823746,200.0
56255,44.39426,-95.41707,Lucan,MN,Minnesota,True,,375.0,3.8,27127,Redwood,"{""27127"": 100}",Redwood,27127,False,False,America/Chicago,"(44.39426, -95.41707)",270.7724951562709,1404101.0,37_0_yes,47.23920282249175,-99.28627490823746,200.0
56256,45.02306,-96.19986,Madison,MN,Minnesota,True,,2417.0,4.0,27073,Lac qui Parle,"{""27073"": 100}",Lac qui Parle,27073,False,False,America/Chicago,"(45.02306, -96.19986)",212.77248440723642,1404101.0,37_0_yes,47.23920282249175,-99.28627490823746,200.0
56257,44.9684,-96.40275,Marietta,MN,Minnesota,True,,514.0,2.2,27073,Lac qui Parle,"{""27073"": 95.08, ""46039"": 4.92}",Lac qui Parle|Deuel,27073|46039,False,False,America/Chicago,"(44.9684, -96.40275)",209.01305489685407,1404101.0,37_0_yes,47.23920282249175,-99.28627490823746,200.0
56258,44.44121,-95.75906,Marshall,MN,Minnesota,True,,15666.0,31.2,27083,Lyon,"{""27083"": 96.02, ""27127"": 3.98}",Lyon|Redwood,27083|27127,False,False,America/Chicago,"(44.44121, -95.75906)",257.23703405535974,1404101.0,37_0_yes,47.23920282249175,-99.28627490823746,200.0
56260,44.96338,-95.48571,Maynard,MN,Minnesota,True,,969.0,3.8,27023,Chippewa,"{""27023"": 87.39, ""27129"": 12.61}",Chippewa|Renville,27023|27129,False,False,America/Chicago,"(44.96338, -95.48571)",240.52802492610562,1404101.0,37_0_yes,47.23920282249175,-99.28627490823746,200.0
56262,45.12276,-95.86843,Milan,MN,Minnesota,True,,716.0,4.0,27023,Chippewa,"{""27023"": 80.38, ""27151"": 19.62}",Chippewa|Swift,27023|27151,False,False,America/Chicago,"(45.12276, -95.86843)",219.31987828261177,1404101.0,37_0_yes,47.23920282249175,-99.28627490823746,200.0
56263,44.41577,-95.54086,Milroy,MN,Minnesota,True,,437.0,3.3,27127,Redwood,"{""27127"": 83.85, ""27083"": 16.15}",Redwood|Lyon,27127|27083,False,False,America/Chicago,"(44.41577, -95.54086)",265.5944189916994,1404101.0,37_0_yes,47.23920282249175,-99.28627490823746,200.0
56264,44.57529,-95.98001,Minneota,MN,Minnesota,True,,2117.0,6.3,27083,Lyon,"{""27083"": 69.9, ""27173"": 25.8, ""27081"": 4.3}",Lyon|Yellow Medicine|Lincoln,27083|27173|27081,False,False,America/Chicago,"(44.57529, -95.98001)",243.1489896549399,1404101.0,37_0_yes,47.23920282249175,-99.28627490823746,200.0
56265,45.0064,-95.70098,Montevideo,MN,Minnesota,True,,7019.0,10.3,27023,Chippewa,"{""27023"": 75.15, ""27073"": 18.9, ""27173"": 5.95}",Chippewa|Lac qui Parle|Yellow Medicine,27023|27073|27173,False,False,America/Chicago,"(45.0064, -95.70098)",230.78005621964186,1404101.0,37_0_yes,47.23920282249175,-99.28627490823746,200.0
56267,45.58512,-95.9322,Morris,MN,Minnesota,True,,6955.0,13.8,27149,Stevens,"{""27149"": 100}",Stevens,27149,False,False,America/Chicago,"(45.58512, -95.9322)",196.41663769122297,1404101.0,37_0_yes,47.23920282249175,-99.28627490823746,200.0
56271,45.24125,-95.41288,Murdock,MN,Minnesota,True,,1202.0,3.1,27151,Swift,"{""27151"": 82.04, ""27023"": 17.96}",Swift|Chippewa,27151|27023,False,False,America/Chicago,"(45.24125, -95.41288)",230.86115072895396,1404101.0,37_0_yes,47.23920282249175,-99.28627490823746,200.0
56274,45.90145,-96.2383,Norcross,MN,Minnesota,True,,211.0,1.0,27051,Grant,"{""27051"": 62.59, ""27155"": 37.41}",Grant|Traverse,27051|27155,False,False,America/Chicago,"(45.90145, -96.2383)",171.74619597196528,1404101.0,37_0_yes,47.23920282249175,-99.28627490823746,200.0
56276,45.24134,-96.31249,Odessa,MN,Minnesota,True,,180.0,1.3,27073,Lac qui Parle,"{""27073"": 51.84, ""27011"": 48.16}",Lac qui Parle|Big Stone,27073|27011,False,False,America/Chicago,"(45.24134, -96.31249)",198.08802723899058,1404101.0,37_0_yes,47.23920282249175,-99.28627490823746,200.0
56278,45.345,-96.37718,Ortonville,MN,Minnesota,True,,2710.0,7.7,27011,Big Stone,"{""27011"": 90.19, ""27073"": 9.81}",Big Stone|Lac qui Parle,27011|27073,False,False,America/Chicago,"(45.345, -96.37718)",190.8105384811125,1404101.0,37_0_yes,47.23920282249175,-99.28627490823746,200.0
56279,45.21651,-95.17585,Pennock,MN,Minnesota,True,,1272.0,7.9,27067,Kandiyohi,"{""27067"": 100}",Kandiyohi,27067,False,False,America/Chicago,"(45.21651, -95.17585)",241.05312001062651,1404101.0,37_0_yes,47.23920282249175,-99.28627490823746,200.0
56280,44.63212,-96.16719,Porter,MN,Minnesota,True,,465.0,2.6,27081,Lincoln,"{""27081"": 50.32, ""27173"": 49.68}",Lincoln|Yellow Medicine,27081|27173,False,False,America/Chicago,"(44.63212, -96.16719)",234.29056660147506,1404101.0,37_0_yes,47.23920282249175,-99.28627490823746,200.0
56281,44.94833,-95.16479,Prinsburg,MN,Minnesota,True,,702.0,21.0,27067,Kandiyohi,"{""27067"": 100}",Kandiyohi,27067,False,False,America/Chicago,"(44.94833, -95.16479)",253.02518178615452,1404101.0,37_0_yes,47.23920282249175,-99.28627490823746,200.0
56282,45.03089,-95.21862,Raymond,MN,Minnesota,True,,1615.0,5.8,27067,Kandiyohi,"{""27067"": 67.29, ""27023"": 32.71}",Kandiyohi|Chippewa,27067|27023,False,False,America/Chicago,"(45.03089, -95.21862)",247.35009008636396,1404101.0,37_0_yes,47.23920282249175,-99.28627490823746,200.0
56283,44.53208,-95.14225,Redwood Falls,MN,Minnesota,True,,6308.0,13.7,27127,Redwood,"{""27127"": 83.97, ""27129"": 16.03}",Redwood|Renville,27127|27129,False,False,America/Chicago,"(44.53208, -95.14225)",273.25744244418837,1404101.0,37_0_yes,47.23920282249175,-99.28627490823746,200.0
56284,44.77729,-95.20204,Renville,MN,Minnesota,True,,2078.0,5.9,27129,Renville,"{""27129"": 87.82, ""27067"": 9.02, ""27127"": 3.16}",Renville|Kandiyohi|Redwood,27129|27067|27127,False,False,America/Chicago,"(44.77729, -95.20204)",259.455092641929,1404101.0,37_0_yes,47.23920282249175,-99.28627490823746,200.0
56285,44.78837,-95.34797,Sacred Heart,MN,Minnesota,True,,1138.0,4.4,27129,Renville,"{""27129"": 100}",Renville,27129,False,False,America/Chicago,"(44.78837, -95.34797)",253.68658882822152,1404101.0,37_0_yes,47.23920282249175,-99.28627490823746,200.0
56287,44.47537,-95.3262,Seaforth,MN,Minnesota,True,,63.0,54.8,27127,Redwood,"{""27127"": 100}",Redwood,27127,False,False,America/Chicago,"(44.47537, -95.3262)",269.70805393337156,1404101.0,37_0_yes,47.23920282249175,-99.28627490823746,200.0
56289,45.33334,-95.2236,Sunburg,MN,Minnesota,True,,656.0,4.9,27067,Kandiyohi,"{""27067"": 70.36, ""27151"": 29.64}",Kandiyohi|Swift,27067|27151,False,False,America/Chicago,"(45.33334, -95.2236)",234.40622711491204,1404101.0,37_0_yes,47.23920282249175,-99.28627490823746,200.0
56291,44.62254,-96.06933,Taunton,MN,Minnesota,True,,381.0,2.2,27173,Yellow Medicine,"{""27173"": 42.43, ""27083"": 31.43, ""27081"": 26.14}",Yellow Medicine|Lyon|Lincoln,27173|27083|27081,False,False,America/Chicago,"(44.62254, -96.06933)",237.83448696621622,1404101.0,37_0_yes,47.23920282249175,-99.28627490823746,200.0
56292,44.49734,-95.44863,Vesta,MN,Minnesota,True,,606.0,4.1,27127,Redwood,"{""27127"": 96.48, ""27173"": 3.52}",Redwood|Yellow Medicine,27127|27173,False,False,America/Chicago,"(44.49734, -95.44863)",264.46934739356084,1404101.0,37_0_yes,47.23920282249175,-99.28627490823746,200.0
56293,44.41598,-95.26559,Wabasso,MN,Minnesota,True,,1254.0,5.7,27127,Redwood,"{""27127"": 100}",Redwood,27127,False,False,America/Chicago,"(44.41598, -95.26559)",274.7432304888785,1404101.0,37_0_yes,47.23920282249175,-99.28627490823746,200.0
56295,45.0437,-95.84292,Watson,MN,Minnesota,True,,262.0,4.5,27023,Chippewa,"{""27023"": 100}",Chippewa,27023,False,False,America/Chicago,"(45.0437, -95.84292)",223.97973476208077,1404101.0,37_0_yes,47.23920282249175,-99.28627490823746,200.0
56296,45.82981,-96.46953,Wheaton,MN,Minnesota,True,,1845.0,3.0,27155,Traverse,"{""27155"": 100}",Traverse,27155,False,False,America/Chicago,"(45.82981, -96.46953)",165.53324621991794,1404101.0,37_0_yes,47.23920282249175,-99.28627490823746,200.0
56297,44.63005,-95.54428,Wood Lake,MN,Minnesota,True,,794.0,4.5,27173,Yellow Medicine,"{""27173"": 94.06, ""27127"": 5.94}",Yellow Medicine|Redwood,27173|27127,False,False,America/Chicago,"(44.63005, -95.54428)",254.56406946966064,1404101.0,37_0_yes,47.23920282249175,-99.28627490823746,200.0
56308,45.87047,-95.38985,Alexandria,MN,Minnesota,True,,25281.0,62.6,27041,Douglas,"{""27041"": 96.14, ""27121"": 3.86}",Douglas|Pope,27041|27121,False,False,America/Chicago,"(45.87047, -95.38985)",207.85243437967605,1404101.0,37_0_yes,47.23920282249175,-99.28627490823746,200.0
56309,46.08035,-95.80202,Ashby,MN,Minnesota,True,,1430.0,9.6,27051,Grant,"{""27051"": 59.94, ""27111"": 34.84, ""27041"": 5.22}",Grant|Otter Tail|Douglas,27051|27111|27041,False,False,America/Chicago,"(46.08035, -95.80202)",183.58174064423912,1404101.0,37_0_yes,47.23920282249175,-99.28627490823746,200.0
56311,45.89756,-95.89852,Barrett,MN,Minnesota,True,,724.0,3.9,27051,Grant,"{""27051"": 100}",Grant,27051,False,False,America/Chicago,"(45.89756, -95.89852)",185.68695968081104,1404101.0,37_0_yes,47.23920282249175,-99.28627490823746,200.0
56315,45.97996,-95.59211,Brandon,MN,Minnesota,True,,1810.0,10.1,27041,Douglas,"{""27041"": 96.83, ""27111"": 3.17}",Douglas|Otter Tail,27041|27111,False,False,America/Chicago,"(45.97996, -95.59211)",195.71422121093215,1404101.0,37_0_yes,47.23920282249175,-99.28627490823746,200.0
56316,45.49959,-95.14992,Brooten,MN,Minnesota,True,,1505.0,4.3,27121,Pope,"{""27121"": 52.3, ""27145"": 36.27, ""27067"": 11.43}",Pope|Stearns|Kandiyohi,27121|27145|27067,False,False,America/Chicago,"(45.49959, -95.14992)",230.89668027631984,1404101.0,37_0_yes,47.23920282249175,-99.28627490823746,200.0
56319,46.00488,-95.22322,Carlos,MN,Minnesota,True,,1246.0,11.9,27041,Douglas,"{""27041"": 80.76, ""27153"": 19.24}",Douglas|Todd,27041|27153,False,False,America/Chicago,"(46.00488, -95.22322)",210.79291548486776,1404101.0,37_0_yes,47.23920282249175,-99.28627490823746,200.0
56323,45.63321,-95.72586,Cyrus,MN,Minnesota,True,,512.0,4.6,27121,Pope,"{""27121"": 79.94, ""27149"": 20.06}",Pope|Stevens,27121|27149,False,False,America/Chicago,"(45.63321, -95.72586)",202.58806731208819,1404101.0,37_0_yes,47.23920282249175,-99.28627490823746,200.0
56324,46.16385,-95.90766,Dalton,MN,Minnesota,True,,1090.0,7.2,27111,Otter Tail,"{""27111"": 98.24, ""27051"": 1.76}",Otter Tail|Grant,27111|27051,False,False,America/Chicago,"(46.16385, -95.90766)",176.47375000231835,1404101.0,37_0_yes,47.23920282249175,-99.28627490823746,200.0
56326,46.02506,-95.68596,Evansville,MN,Minnesota,True,,1740.0,7.1,27041,Douglas,"{""27041"": 89.2, ""27111"": 8.69, ""27051"": 2.11}",Douglas|Otter Tail|Grant,27041|27111|27051,False,False,America/Chicago,"(46.02506, -95.68596)",190.27895480565383,1404101.0,37_0_yes,47.23920282249175,-99.28627490823746,200.0
56327,45.75893,-95.61336,Farwell,MN,Minnesota,True,,829.0,6.6,27121,Pope,"{""27121"": 53.37, ""27041"": 46.63}",Pope|Douglas,27121|27041,False,False,America/Chicago,"(45.75893, -95.61336)",202.39623350758214,1404101.0,37_0_yes,47.23920282249175,-99.28627490823746,200.0
56332,45.96993,-95.50554,Garfield,MN,Minnesota,True,,1589.0,11.8,27041,Douglas,"{""27041"": 100}",Douglas,27041,False,False,America/Chicago,"(45.96993, -95.50554)",199.71995814708447,1404101.0,37_0_yes,47.23920282249175,-99.28627490823746,200.0
56334,45.58402,-95.34765,Glenwood,MN,Minnesota,True,,5590.0,10.5,27121,Pope,"{""27121"": 98.77, ""27041"": 1.23}",Pope|Douglas,27121|27041,False,False,America/Chicago,"(45.58402, -95.34765)",219.69361880883406,1404101.0,37_0_yes,47.23920282249175,-99.28627490823746,200.0
56339,45.8258,-95.82129,Hoffman,MN,Minnesota,True,,988.0,6.3,27051,Grant,"{""27051"": 85.72, ""27041"": 14.28}",Grant|Douglas,27051|27041,False,False,America/Chicago,"(45.8258, -95.82129)",191.44773187252682,1404101.0,37_0_yes,47.23920282249175,-99.28627490823746,200.0
56343,45.79088,-95.69765,Kensington,MN,Minnesota,True,,953.0,5.3,27041,Douglas,"{""27041"": 67.75, ""27121"": 16.8, ""27149"": 10.17, ""27051"": 5.28}",Douglas|Pope|Stevens|Grant,27041|27121|27149|27051,False,False,America/Chicago,"(45.79088, -95.69765)",197.78010914067931,1404101.0,37_0_yes,47.23920282249175,-99.28627490823746,200.0
56349,45.72373,-95.52456,Lowry,MN,Minnesota,True,,764.0,7.1,27121,Pope,"{""27121"": 87.32, ""27041"": 12.68}",Pope|Douglas,27121|27041,False,False,America/Chicago,"(45.72373, -95.52456)",207.3174310374757,1404101.0,37_0_yes,47.23920282249175,-99.28627490823746,200.0
56354,46.06034,-95.27496,Miltona,MN,Minnesota,True,,1320.0,12.1,27041,Douglas,"{""27041"": 100}",Douglas,27041,False,False,America/Chicago,"(46.06034, -95.27496)",206.92502271254858,1404101.0,37_0_yes,47.23920282249175,-99.28627490823746,200.0
56355,45.94007,-95.24031,Nelson,MN,Minnesota,True,,551.0,8.3,27041,Douglas,"{""27041"": 100}",Douglas,27041,False,False,America/Chicago,"(45.94007, -95.24031)",212.0119711876324,1404101.0,37_0_yes,47.23920282249175,-99.28627490823746,200.0
56360,45.87482,-95.12686,Osakis,MN,Minnesota,True,,3824.0,11.1,27153,Todd,"{""27153"": 55.04, ""27041"": 44.96}",Todd|Douglas,27153|27041,False,False,America/Chicago,"(45.87482, -95.12686)",218.91186950598302,1404101.0,37_0_yes,47.23920282249175,-99.28627490823746,200.0
56361,46.16146,-95.3351,Parkers Prairie,MN,Minnesota,True,,2547.0,6.2,27111,Otter Tail,"{""27111"": 83.55, ""27041"": 16.45}",Otter Tail|Douglas,27111|27041,False,False,America/Chicago,"(46.16146, -95.3351)",201.462743223586,1404101.0,37_0_yes,47.23920282249175,-99.28627490823746,200.0
56381,45.55523,-95.54669,Starbuck,MN,Minnesota,True,,2470.0,6.6,27121,Pope,"{""27121"": 100}",Pope,27121,False,False,America/Chicago,"(45.55523, -95.54669)",212.77879288758106,1404101.0,37_0_yes,47.23920282249175,-99.28627490823746,200.0
56385,45.70349,-95.20681,Villard,MN,Minnesota,True,,867.0,4.5,27121,Pope,"{""27121"": 83.53, ""27145"": 13.84, ""27041"": 2.63}",Pope|Stearns|Douglas,27121|27145|27041,False,False,America/Chicago,"(45.70349, -95.20681)",221.19022144990936,1404101.0,37_0_yes,47.23920282249175,-99.28627490823746,200.0
56389,45.79961,-95.08832,West Union,MN,Minnesota,True,,81.0,45.2,27153,Todd,"{""27153"": 100}",Todd,27153,False,False,America/Chicago,"(45.79961, -95.08832)",222.95726703557426,1404101.0,37_0_yes,47.23920282249175,-99.28627490823746,200.0
56437,46.25049,-95.05654,Bertha,MN,Minnesota,True,,1451.0,8.5,27153,Todd,"{""27153"": 88.49, ""27111"": 11.51}",Todd|Otter Tail,27153|27111,False,False,America/Chicago,"(46.25049, -95.05654)",211.55960087748116,1404101.0,37_0_yes,47.23920282249175,-99.28627490823746,200.0
56446,46.12448,-95.08966,Eagle Bend,MN,Minnesota,True,,1818.0,7.3,27153,Todd,"{""27153"": 82.86, ""27111"": 12.5, ""27041"": 4.64}",Todd|Otter Tail|Douglas,27153|27111|27041,False,False,America/Chicago,"(46.12448, -95.08966)",213.2807894389714,1404101.0,37_0_yes,47.23920282249175,-99.28627490823746,200.0
56453,46.31374,-95.16161,Hewitt,MN,Minnesota,True,,809.0,5.9,27111,Otter Tail,"{""27111"": 59.12, ""27153"": 40.88}",Otter Tail|Todd,27111|27153,False,False,America/Chicago,"(46.31374, -95.16161)",205.35011176293008,1404101.0,37_0_yes,47.23920282249175,-99.28627490823746,200.0
56464,46.76538,-95.10382,Menahga,MN,Minnesota,True,,4727.0,7.1,27159,Wadena,"{""27159"": 46.94, ""27005"": 33.56, ""27057"": 14.42, ""27111"": 4.23, ""27021"": 0.86}",Wadena|Becker|Hubbard|Otter Tail|Cass,27159|27005|27057|27111|27021,False,False,America/Chicago,"(46.76538, -95.10382)",199.75065257320463,1404101.0,37_0_yes,47.23920282249175,-99.28627490823746,200.0
56470,47.02368,-95.09433,Park Rapids,MN,Minnesota,True,,10654.0,10.8,27057,Hubbard,"{""27057"": 67.13, ""27005"": 22.15, ""27029"": 10.12, ""27159"": 0.6}",Hubbard|Becker|Clearwater|Wadena,27057|27005|27029|27159,False,False,America/Chicago,"(47.02368, -95.09433)",197.58249709276404,1404101.0,37_0_yes,47.23920282249175,-99.28627490823746,200.0
56482,46.46555,-95.14307,Wadena,MN,Minnesota,True,,7075.0,20.1,27159,Wadena,"{""27159"": 54.41, ""27111"": 44.49, ""27153"": 1.1}",Wadena|Otter Tail|Todd,27159|27111|27153,False,False,America/Chicago,"(46.46555, -95.14307)",202.91144546671117,1404101.0,37_0_yes,47.23920282249175,-99.28627490823746,200.0
56501,46.83665,-95.82233,Detroit Lakes,MN,Minnesota,True,,17696.0,36.6,27005,Becker,"{""27005"": 92.04, ""27111"": 7.96}",Becker|Otter Tail,27005|27111,False,False,America/Chicago,"(46.83665, -95.82233)",165.4505465629207,1404101.0,37_0_yes,47.23920282249175,-99.28627490823746,200.0
56510,47.35811,-96.52316,Ada,MN,Minnesota,True,,2366.0,4.1,27107,Norman,"{""27107"": 100}",Norman,27107,False,False,America/Chicago,"(47.35811, -96.52316)",129.72635930447814,1404101.0,37_0_yes,47.23920282249175,-99.28627490823746,200.0
56511,46.8532,-96.00763,Audubon,MN,Minnesota,True,,1876.0,11.4,27005,Becker,"{""27005"": 100}",Becker,27005,False,False,America/Chicago,"(46.8532, -96.00763)",156.63601593851584,1404101.0,37_0_yes,47.23920282249175,-99.28627490823746,200.0
56514,46.64892,-96.43486,Barnesville,MN,Minnesota,True,,3796.0,6.9,27027,Clay,"{""27027"": 61.86, ""27167"": 35.7, ""27111"": 2.44}",Clay|Wilkin|Otter Tail,27027|27167|27111,False,False,America/Chicago,"(46.64892, -96.43486)",140.5416921988047,1404101.0,37_0_yes,47.23920282249175,-99.28627490823746,200.0
56515,46.29444,-95.708,Battle Lake,MN,Minnesota,True,,2840.0,11.4,27111,Otter Tail,"{""27111"": 100}",Otter Tail,27111,False,False,America/Chicago,"(46.29444, -95.708)",181.47227554235093,1404101.0,37_0_yes,47.23920282249175,-99.28627490823746,200.0
56516,47.44368,-95.96663,Bejou,MN,Minnesota,True,,292.0,1.3,27087,Mahnomen,"{""27087"": 88.15, ""27107"": 11.85}",Mahnomen|Norman,27087|27107,False,False,America/Chicago,"(47.44368, -95.96663)",156.05326173698262,1404101.0,37_0_yes,47.23920282249175,-99.28627490823746,200.0
56517,47.55474,-96.53825,Beltrami,MN,Minnesota,True,,303.0,1.2,27119,Polk,"{""27119"": 95.63, ""27107"": 4.37}",Polk|Norman,27119|27107,False,False,America/Chicago,"(47.55474, -96.53825)",130.35476986647788,1404101.0,37_0_yes,47.23920282249175,-99.28627490823746,200.0
56518,46.48926,-95.24506,Bluffton,MN,Minnesota,True,,379.0,7.9,27111,Otter Tail,"{""27111"": 100}",Otter Tail,27111,False,False,America/Chicago,"(46.48926, -95.24506)",197.79258091201584,1404101.0,37_0_yes,47.23920282249175,-99.28627490823746,200.0
56519,47.15914,-96.4877,Borup,MN,Minnesota,True,,252.0,1.0,27107,Norman,"{""27107"": 60.15, ""27027"": 39.85}",Norman|Clay,27107|27027,False,False,America/Chicago,"(47.15914, -96.4877)",131.49026850892258,1404101.0,37_0_yes,47.23920282249175,-99.28627490823746,200.0
56520,46.28645,-96.50361,Breckenridge,MN,Minnesota,True,,3751.0,11.5,27167,Wilkin,"{""27167"": 100}",Wilkin,27167,False,False,America/Chicago,"(46.28645, -96.50361)",147.2276288806499,1404101.0,37_0_yes,47.23920282249175,-99.28627490823746,200.0
56521,46.99691,-95.89783,Callaway,MN,Minnesota,True,,834.0,5.1,27005,Becker,"{""27005"": 100}",Becker,27005,False,False,America/Chicago,"(46.99691, -95.89783)",160.18001676861965,1404101.0,37_0_yes,47.23920282249175,-99.28627490823746,200.0
56522,46.1352,-96.3887,Campbell,MN,Minnesota,True,,403.0,1.0,27167,Wilkin,"{""27167"": 87.63, ""27111"": 12.37}",Wilkin|Otter Tail,27167|27111,False,False,America/Chicago,"(46.1352, -96.3887)",157.0826009853153,1404101.0,37_0_yes,47.23920282249175,-99.28627490823746,200.0
56523,47.63838,-96.80871,Climax,MN,Minnesota,True,,499.0,2.4,27119,Polk,"{""27119"": 100}",Polk,27119,False,False,America/Chicago,"(47.63838, -96.80871)",119.01840505145461,1404101.0,37_0_yes,47.23920282249175,-99.28627490823746,200.0
56524,46.21115,-95.606,Clitherall,MN,Minnesota,True,,656.0,5.7,27111,Otter Tail,"{""27111"": 100}",Otter Tail,27111,False,False,America/Chicago,"(46.21115, -95.606)",188.20341281119147,1404101.0,37_0_yes,47.23920282249175,-99.28627490823746,200.0
56525,46.6716,-96.75195,Comstock,MN,Minnesota,True,,78.0,25.7,27027,Clay,"{""27027"": 100}",Clay,27027,False,False,America/Chicago,"(46.6716, -96.75195)",125.78374134044186,1404101.0,37_0_yes,47.23920282249175,-99.28627490823746,200.0
56527,46.37383,-95.31806,Deer Creek,MN,Minnesota,True,,924.0,6.5,27111,Otter Tail,"{""27111"": 100}",Otter Tail,27111,False,False,America/Chicago,"(46.37383, -95.31806)",196.93308967842918,1404101.0,37_0_yes,47.23920282249175,-99.28627490823746,200.0
56528,46.53066,-95.80983,Dent,MN,Minnesota,True,,1626.0,10.2,27111,Otter Tail,"{""27111"": 100}",Otter Tail,27111,False,False,America/Chicago,"(46.53066, -95.80983)",171.29477448779866,1404101.0,37_0_yes,47.23920282249175,-99.28627490823746,200.0
56529,46.88027,-96.69754,Dilworth,MN,Minnesota,True,,4434.0,463.9,27027,Clay,"{""27027"": 100}",Clay,27027,False,False,America/Chicago,"(46.88027, -96.69754)",124.34071230518045,1404101.0,37_0_yes,47.23920282249175,-99.28627490823746,200.0
56531,45.98967,-95.98376,Elbow Lake,MN,Minnesota,True,,1910.0,4.9,27051,Grant,"{""27051"": 100}",Grant,27051,False,False,America/Chicago,"(45.98967, -95.98376)",178.92177935296337,1404101.0,37_0_yes,47.23920282249175,-99.28627490823746,200.0
56533,46.40393,-96.15144,Elizabeth,MN,Minnesota,True,,288.0,8.0,27111,Otter Tail,"{""27111"": 100}",Otter Tail,27111,False,False,America/Chicago,"(46.40393, -96.15144)",159.03629027212233,1404101.0,37_0_yes,47.23920282249175,-99.28627490823746,200.0
56534,46.46325,-96.01431,Erhard,MN,Minnesota,True,,1339.0,8.0,27111,Otter Tail,"{""27111"": 100}",Otter Tail,27111,False,False,America/Chicago,"(46.46325, -96.01431)",163.62534726503216,1404101.0,37_0_yes,47.23920282249175,-99.28627490823746,200.0
56535,47.67541,-96.04611,Erskine,MN,Minnesota,True,,1227.0,5.3,27119,Polk,"{""27119"": 88.11, ""27125"": 11.89}",Polk|Red Lake,27119|27125,False,False,America/Chicago,"(47.67541, -96.04611)",154.32900947749687,1404101.0,37_0_yes,47.23920282249175,-99.28627490823746,200.0
56536,47.04596,-96.53173,Felton,MN,Minnesota,True,,338.0,1.4,27027,Clay,"{""27027"": 100}",Clay,27027,False,False,America/Chicago,"(47.04596, -96.53173)",130.13157718727356,1404101.0,37_0_yes,47.23920282249175,-99.28627490823746,200.0
56537,46.27697,-96.08977,Fergus Falls,MN,Minnesota,True,,18914.0,25.8,27111,Otter Tail,"{""27111"": 100}",Otter Tail,27111,False,False,America/Chicago,"(46.27697, -96.08977)",165.25079265607928,1404101.0,37_0_yes,47.23920282249175,-99.28627490823746,200.0
56540,47.54255,-96.27671,Fertile,MN,Minnesota,True,,2120.0,4.7,27119,Polk,"{""27119"": 73.87, ""27107"": 26.13}",Polk|Norman,27119|27107,False,False,America/Chicago,"(47.54255, -96.27671)",142.31702806253614,1404101.0,37_0_yes,47.23920282249175,-99.28627490823746,200.0
56541,47.16606,-96.13081,Flom,MN,Minnesota,True,,29.0,2.8,27107,Norman,"{""27107"": 100}",Norman,27107,False,False,America/Chicago,"(47.16606, -96.13081)",148.20177448342304,1404101.0,37_0_yes,47.23920282249175,-99.28627490823746,200.0
56542,47.56679,-95.72331,Fosston,MN,Minnesota,True,,2656.0,5.7,27119,Polk,"{""27119"": 80.23, ""27087"": 19.77}",Polk|Mahnomen,27119|27087,False,False,America/Chicago,"(47.56679, -95.72331)",168.136960386526,1404101.0,37_0_yes,47.23920282249175,-99.28627490823746,200.0
56543,46.28541,-96.33654,Foxhome,MN,Minnesota,True,,243.0,1.4,27167,Wilkin,"{""27167"": 100}",Wilkin,27167,False,False,America/Chicago,"(46.28541, -96.33654)",154.37147290366354,1404101.0,37_0_yes,47.23920282249175,-99.28627490823746,200.0
56544,46.75894,-95.59693,Frazee,MN,Minnesota,True,,5281.0,10.3,27005,Becker,"{""27005"": 76.79, ""27111"": 23.21}",Becker|Otter Tail,27005|27111,False,False,America/Chicago,"(46.75894, -95.59693)",176.97134279108639,1404101.0,37_0_yes,47.23920282249175,-99.28627490823746,200.0
56545,47.38527,-96.2399,Gary,MN,Minnesota,True,,654.0,1.6,27107,Norman,"{""27107"": 100}",Norman,27107,False,False,America/Chicago,"(47.38527, -96.2399)",143.05621015813145,1404101.0,37_0_yes,47.23920282249175,-99.28627490823746,200.0
56546,47.10107,-96.73038,Georgetown,MN,Minnesota,True,,231.0,1.5,27027,Clay,"{""27027"": 100}",Clay,27027,False,False,America/Chicago,"(47.10107, -96.73038)",120.42711203113707,1404101.0,37_0_yes,47.23920282249175,-99.28627490823746,200.0
56547,46.89068,-96.55043,Glyndon,MN,Minnesota,True,,3063.0,7.8,27027,Clay,"{""27027"": 100}",Clay,27027,False,False,America/Chicago,"(46.89068, -96.55043)",130.98570185677397,1404101.0,37_0_yes,47.23920282249175,-99.28627490823746,200.0
56548,47.37025,-96.75392,Halstad,MN,Minnesota,True,,735.0,4.2,27107,Norman,"{""27107"": 100}",Norman,27107,False,False,America/Chicago,"(47.37025, -96.75392)",118.98602824648437,1404101.0,37_0_yes,47.23920282249175,-99.28627490823746,200.0
56549,46.85287,-96.31285,Hawley,MN,Minnesota,True,,4934.0,9.2,27027,Clay,"{""27027"": 100}",Clay,27027,False,False,America/Chicago,"(46.85287, -96.31285)",142.50447552704446,1404101.0,37_0_yes,47.23920282249175,-99.28627490823746,200.0
56550,47.2697,-96.74867,Hendrum,MN,Minnesota,True,,316.0,2.5,27107,Norman,"{""27107"": 100}",Norman,27107,False,False,America/Chicago,"(47.2697, -96.74867)",119.01875486277903,1404101.0,37_0_yes,47.23920282249175,-99.28627490823746,200.0
56551,46.31856,-95.45081,Henning,MN,Minnesota,True,,2101.0,7.7,27111,Otter Tail,"{""27111"": 100}",Otter Tail,27111,False,False,America/Chicago,"(46.31856, -95.45081)",192.27992652470877,1404101.0,37_0_yes,47.23920282249175,-99.28627490823746,200.0
56552,46.9814,-96.21602,Hitterdal,MN,Minnesota,True,,579.0,4.8,27027,Clay,"{""27027"": 73.3, ""27005"": 26.7}",Clay|Becker,27027|27005,False,False,America/Chicago,"(46.9814, -96.21602)",145.4612923615869,1404101.0,37_0_yes,47.23920282249175,-99.28627490823746,200.0
56553,46.42946,-96.61757,Kent,MN,Minnesota,True,,184.0,1.1,27167,Wilkin,"{""27167"": 100}",Wilkin,27167,False,False,America/Chicago,"(46.42946, -96.61757)",137.9838243273399,1404101.0,37_0_yes,47.23920282249175,-99.28627490823746,200.0
56554,46.88408,-96.11483,Lake Park,MN,Minnesota,True,,2584.0,8.7,27005,Becker,"{""27005"": 92.09, ""27027"": 7.91}",Becker|Clay,27005|27027,False,False,America/Chicago,"(46.88408, -96.11483)",151.26310459946572,1404101.0,37_0_yes,47.23920282249175,-99.28627490823746,200.0
56556,47.66403,-95.88349,Mcintosh,MN,Minnesota,True,,1028.0,3.9,27119,Polk,"{""27119"": 100}",Polk,27119,False,False,America/Chicago,"(47.66403, -95.88349)",161.6572060096168,1404101.0,37_0_yes,47.23920282249175,-99.28627490823746,200.0
56557,47.32422,-95.837,Mahnomen,MN,Minnesota,True,,2885.0,4.7,27087,Mahnomen,"{""27087"": 93.42, ""27107"": 3.9, ""27029"": 2.68}",Mahnomen|Norman|Clearwater,27087|27107|27029,False,False,America/Chicago,"(47.32422, -95.837)",161.76983732696618,1404101.0,37_0_yes,47.23920282249175,-99.28627490823746,200.0
56560,46.83637,-96.73467,Moorhead,MN,Minnesota,True,,44763.0,109.8,27027,Clay,"{""27027"": 98.76, ""27167"": 1.24}",Clay|Wilkin,27027|27167,False,False,America/Chicago,"(46.83637, -96.73467)",123.32605206929635,1404101.0,37_0_yes,47.23920282249175,-99.28627490823746,200.0
56565,46.04861,-96.31511,Nashua,MN,Minnesota,True,,81.0,1.0,27167,Wilkin,"{""27167"": 75.03, ""27051"": 24.97}",Wilkin|Grant,27167|27051,False,False,America/Chicago,"(46.04861, -96.31511)",163.17066021664616,1404101.0,37_0_yes,47.23920282249175,-99.28627490823746,200.0
56566,47.24724,-95.61322,Naytahwaush,MN,Minnesota,True,,613.0,17.9,27087,Mahnomen,"{""27087"": 100}",Mahnomen,27087,False,False,America/Chicago,"(47.24724, -95.61322)",172.27574859345708,1404101.0,37_0_yes,47.23920282249175,-99.28627490823746,200.0
56567,46.54896,-95.36707,New York Mills,MN,Minnesota,True,,3066.0,8.0,27111,Otter Tail,"{""27111"": 100}",Otter Tail,27111,False,False,America/Chicago,"(46.54896, -95.36707)",191.06845385607875,1404101.0,37_0_yes,47.23920282249175,-99.28627490823746,200.0
56568,47.5292,-96.77925,Nielsville,MN,Minnesota,True,,161.0,2.1,27119,Polk,"{""27119"": 93.33, ""27107"": 6.67}",Polk|Norman,27119|27107,False,False,America/Chicago,"(47.5292, -96.77925)",118.97659047911579,1404101.0,37_0_yes,47.23920282249175,-99.28627490823746,200.0
56569,47.07482,-95.81956,Ogema,MN,Minnesota,True,,1287.0,3.1,27005,Becker,"{""27005"": 100}",Becker,27005,False,False,America/Chicago,"(47.07482, -95.81956)",163.2584257858746,1404101.0,37_0_yes,47.23920282249175,-99.28627490823746,200.0
56570,46.91051,-95.35552,Osage,MN,Minnesota,True,,1227.0,4.8,27005,Becker,"{""27005"": 100}",Becker,27005,False,False,America/Chicago,"(46.91051, -95.35552)",186.3323815588025,1404101.0,37_0_yes,47.23920282249175,-99.28627490823746,200.0
56571,46.43856,-95.53939,Ottertail,MN,Minnesota,True,,1748.0,14.6,27111,Otter Tail,"{""27111"": 100}",Otter Tail,27111,False,False,America/Chicago,"(46.43856, -95.53939)",185.50797211458945,1404101.0,37_0_yes,47.23920282249175,-99.28627490823746,200.0
56572,46.60485,-96.08682,Pelican Rapids,MN,Minnesota,True,,5531.0,12.5,27111,Otter Tail,"{""27111"": 92.13, ""27027"": 3.94, ""27005"": 3.43, ""27167"": 0.5}",Otter Tail|Clay|Becker|Wilkin,27111|27027|27005|27167,False,False,America/Chicago,"(46.60485, -96.08682)",157.20306018336407,1404101.0,37_0_yes,47.23920282249175,-99.28627490823746,200.0
56573,46.61443,-95.55216,Perham,MN,Minnesota,True,,6498.0,18.2,27111,Otter Tail,"{""27111"": 100}",Otter Tail,27111,False,False,America/Chicago,"(46.61443, -95.55216)",181.38929006955087,1404101.0,37_0_yes,47.23920282249175,-99.28627490823746,200.0
56574,47.20085,-96.70242,Perley,MN,Minnesota,True,,219.0,1.2,27107,Norman,"{""27107"": 98.56, ""27027"": 1.44}",Norman|Clay,27107|27027,False,False,America/Chicago,"(47.20085, -96.70242)",121.27648530669687,1404101.0,37_0_yes,47.23920282249175,-99.28627490823746,200.0
56575,47.03827,-95.43146,Ponsford,MN,Minnesota,True,,794.0,2.2,27005,Becker,"{""27005"": 100}",Becker,27005,False,False,America/Chicago,"(47.03827, -95.43146)",181.6852656040753,1404101.0,37_0_yes,47.23920282249175,-99.28627490823746,200.0
56576,46.47164,-95.70537,Richville,MN,Minnesota,True,,835.0,8.0,27111,Otter Tail,"{""27111"": 100}",Otter Tail,27111,False,False,America/Chicago,"(46.47164, -95.70537)",177.29163561535137,1404101.0,37_0_yes,47.23920282249175,-99.28627490823746,200.0
56578,46.9264,-95.65563,Rochert,MN,Minnesota,True,,716.0,5.0,27005,Becker,"{""27005"": 100}",Becker,27005,False,False,America/Chicago,"(46.9264, -95.65563)",172.16217446526213,1404101.0,37_0_yes,47.23920282249175,-99.28627490823746,200.0
56579,46.4688,-96.34229,Rothsay,MN,Minnesota,True,,1044.0,2.0,27167,Wilkin,"{""27167"": 73.05, ""27111"": 26.95}",Wilkin|Otter Tail,27167|27111,False,False,America/Chicago,"(46.4688, -96.34229)",148.9286716169813,1404101.0,37_0_yes,47.23920282249175,-99.28627490823746,200.0
56580,46.73944,-96.61004,Sabin,MN,Minnesota,True,,1221.0,7.4,27027,Clay,"{""27027"": 100}",Clay,27027,False,False,America/Chicago,"(46.73944, -96.61004)",130.76716059409662,1404101.0,37_0_yes,47.23920282249175,-99.28627490823746,200.0
56581,47.45725,-96.76141,Shelly,MN,Minnesota,True,,234.0,2.3,27107,Norman,"{""27107"": 100}",Norman,27107,False,False,America/Chicago,"(47.45725, -96.76141)",119.14886718022784,1404101.0,37_0_yes,47.23920282249175,-99.28627490823746,200.0
56583,46.00332,-96.40667,Tintah,MN,Minnesota,True,,177.0,0.9,27155,Traverse,"{""27155"": 71.7, ""27167"": 28.3}",Traverse|Wilkin,27155|27167,False,False,America/Chicago,"(46.00332, -96.40667)",161.1204715322403,1404101.0,37_0_yes,47.23920282249175,-99.28627490823746,200.0
56584,47.23087,-96.23496,Twin Valley,MN,Minnesota,True,,1379.0,4.0,27107,Norman,"{""27107"": 100}",Norman,27107,False,False,America/Chicago,"(47.23087, -96.23496)",143.1411621323197,1404101.0,37_0_yes,47.23920282249175,-99.28627490823746,200.0
56585,47.08896,-96.24492,Ulen,MN,Minnesota,True,,972.0,3.0,27027,Clay,"{""27027"": 66.79, ""27005"": 32.43, ""27107"": 0.78}",Clay|Becker|Norman,27027|27005|27107,False,False,America/Chicago,"(47.08896, -96.24492)",143.24024550723004,1404101.0,37_0_yes,47.23920282249175,-99.28627490823746,200.0
56586,46.32324,-95.84,Underwood,MN,Minnesota,True,,1850.0,9.7,27111,Otter Tail,"{""27111"": 100}",Otter Tail,27111,False,False,America/Chicago,"(46.32324, -95.84)",174.88947842409777,1404101.0,37_0_yes,47.23920282249175,-99.28627490823746,200.0
56587,46.63721,-95.8628,Vergas,MN,Minnesota,True,,1372.0,10.0,27111,Otter Tail,"{""27111"": 100}",Otter Tail,27111,False,False,America/Chicago,"(46.63721, -95.8628)",166.76045548022282,1404101.0,37_0_yes,47.23920282249175,-99.28627490823746,200.0
56588,46.22028,-95.5006,Vining,MN,Minnesota,True,,427.0,3.5,27111,Otter Tail,"{""27111"": 100}",Otter Tail,27111,False,False,America/Chicago,"(46.22028, -95.5006)",192.58851238007747,1404101.0,37_0_yes,47.23920282249175,-99.28627490823746,200.0
56589,47.17959,-95.71984,Waubun,MN,Minnesota,True,,2234.0,3.5,27087,Mahnomen,"{""27087"": 59.89, ""27005"": 26.2, ""27029"": 13.91}",Mahnomen|Becker|Clearwater,27087|27005|27029,False,False,America/Chicago,"(47.17959, -95.71984)",167.4324376025328,1404101.0,37_0_yes,47.23920282249175,-99.28627490823746,200.0
56590,46.03514,-96.16093,Wendell,MN,Minnesota,True,,296.0,1.4,27051,Grant,"{""27051"": 99.4, ""27111"": 0.6}",Grant|Otter Tail,27051|27111,False,False,America/Chicago,"(46.03514, -96.16093)",169.99454851433165,1404101.0,37_0_yes,47.23920282249175,-99.28627490823746,200.0
56591,47.09968,-95.84357,White Earth,MN,Minnesota,True,,155.0,22.3,27005,Becker,"{""27005"": 100}",Becker,27005,False,False,America/Chicago,"(47.09968, -95.84357)",161.9844220418642,1404101.0,37_0_yes,47.23920282249175,-99.28627490823746,200.0
56592,47.53542,-96.00769,Winger,MN,Minnesota,True,,502.0,3.3,27119,Polk,"{""27119"": 89.96, ""27087"": 10.04}",Polk|Mahnomen,27119|27087,False,False,America/Chicago,"(47.53542, -96.00769)",154.7162976142355,1404101.0,37_0_yes,47.23920282249175,-99.28627490823746,200.0
56594,46.54906,-96.64493,Wolverton,MN,Minnesota,True,,489.0,2.0,27167,Wilkin,"{""27167"": 100}",Wilkin,27167,False,False,America/Chicago,"(46.54906, -96.64493)",133.50760115053646,1404101.0,37_0_yes,47.23920282249175,-99.28627490823746,200.0
56621,47.40975,-95.41597,Bagley,MN,Minnesota,True,,4880.0,5.9,27029,Clearwater,"{""27029"": 98.02, ""27119"": 1.69, ""27087"": 0.29}",Clearwater|Polk|Mahnomen,27029|27119|27087,False,False,America/Chicago,"(47.40975, -95.41597)",181.6281888950639,1404101.0,37_0_yes,47.23920282249175,-99.28627490823746,200.0
56634,47.68577,-95.40169,Clearbrook,MN,Minnesota,True,,1723.0,5.5,27029,Clearwater,"{""27029"": 100}",Clearwater,27029,False,False,America/Chicago,"(47.68577, -95.40169)",184.0413311948009,1404101.0,37_0_yes,47.23920282249175,-99.28627490823746,200.0
56644,47.78095,-95.51263,Gonvick,MN,Minnesota,True,,712.0,2.8,27029,Clearwater,"{""27029"": 95.07, ""27119"": 4.93}",Clearwater|Polk,27029|27119,False,False,America/Chicago,"(47.78095, -95.51263)",180.0295064324849,1404101.0,37_0_yes,47.23920282249175,-99.28627490823746,200.0
56646,47.78925,-95.62865,Gully,MN,Minnesota,True,,565.0,2.9,27119,Polk,"{""27119"": 91.61, ""27029"": 8.39}",Polk|Clearwater,27119|27029,False,False,America/Chicago,"(47.78925, -95.62865)",174.84890355875433,1404101.0,37_0_yes,47.23920282249175,-99.28627490823746,200.0
56651,47.43883,-95.6172,Lengby,MN,Minnesota,True,,634.0,3.5,27087,Mahnomen,"{""27087"": 82.59, ""27119"": 17.41}",Mahnomen|Polk,27087|27119,False,False,America/Chicago,"(47.43883, -95.6172)",172.32922077656087,1404101.0,37_0_yes,47.23920282249175,-99.28627490823746,200.0
56652,47.71104,-95.23721,Leonard,MN,Minnesota,True,,474.0,2.8,27029,Clearwater,"{""27029"": 88.41, ""27007"": 11.59}",Clearwater|Beltrami,27029|27007,False,False,America/Chicago,"(47.71104, -95.23721)",191.8614029350177,1404101.0,37_0_yes,47.23920282249175,-99.28627490823746,200.0
56671,47.94006,-95.31791,Redlake,MN,Minnesota,True,,3144.0,3.8,27029,Clearwater,"{""27029"": 58.11, ""27007"": 41.89}",Clearwater|Beltrami,27029|27007,False,False,America/Chicago,"(47.94006, -95.31791)",191.13280420090092,1404101.0,37_0_yes,47.23920282249175,-99.28627490823746,200.0
56673,48.74365,-95.13896,Roosevelt,MN,Minnesota,True,,628.0,1.2,27077,Lake of the Woods,"{""27077"": 81.19, ""27135"": 18.81}",Lake of the Woods|Roseau,27077|27135,False,False,America/Chicago,"(48.74365, -95.13896)",218.08950431371753,1404101.0,37_0_yes,47.23920282249175,-99.28627490823746,200.0
56676,47.52188,-95.19877,Shevlin,MN,Minnesota,True,,1635.0,2.9,27029,Clearwater,"{""27029"": 61.48, ""27007"": 38.52}",Clearwater|Beltrami,27029|27007,False,False,America/Chicago,"(47.52188, -95.19877)",192.2057575179278,1404101.0,37_0_yes,47.23920282249175,-99.28627490823746,200.0
56678,47.4298,-95.11768,Solway,MN,Minnesota,True,,1335.0,4.1,27007,Beltrami,"{""27007"": 52.41, ""27057"": 43.0, ""27029"": 4.59}",Beltrami|Hubbard|Clearwater,27007|27057|27029,False,False,America/Chicago,"(47.4298, -95.11768)",195.61781160570018,1404101.0,37_0_yes,47.23920282249175,-99.28627490823746,200.0
56684,47.87109,-95.70401,Trail,MN,Minnesota,True,,279.0,0.9,27119,Polk,"{""27119"": 62.13, ""27113"": 33.0, ""27125"": 4.87}",Polk|Pennington|Red Lake,27119|27113|27125,False,False,America/Chicago,"(47.87109, -95.70401)",172.63350191418883,1404101.0,37_0_yes,47.23920282249175,-99.28627490823746,200.0
56701,48.12021,-96.1994,Thief River Falls,MN,Minnesota,True,,13061.0,13.2,27113,Pennington,"{""27113"": 74.39, ""27089"": 23.77, ""27119"": 1.84}",Pennington|Marshall|Polk,27113|27089|27119,False,False,America/Chicago,"(48.12021, -96.1994)",155.95225555492573,1404101.0,37_0_yes,47.23920282249175,-99.28627490823746,200.0
56710,48.2182,-96.99776,Alvarado,MN,Minnesota,True,,543.0,4.7,27089,Marshall,"{""27089"": 81.42, ""27119"": 18.58}",Marshall|Polk,27089|27119,False,False,America/Chicago,"(48.2182, -96.99776)",126.03817105871182,1404101.0,37_0_yes,47.23920282249175,-99.28627490823746,200.0
56713,48.3487,-96.81717,Argyle,MN,Minnesota,True,,1050.0,2.2,27089,Marshall,"{""27089"": 100}",Marshall,27089,False,False,America/Chicago,"(48.3487, -96.81717)",137.87166791742234,1404101.0,37_0_yes,47.23920282249175,-99.28627490823746,200.0
56714,48.78845,-96.00529,Badger,MN,Minnesota,True,,1229.0,2.3,27135,Roseau,"{""27135"": 100}",Roseau,27135,False,False,America/Chicago,"(48.78845, -96.00529)",185.593837980896,1404101.0,37_0_yes,47.23920282249175,-99.28627490823746,200.0
56715,47.80636,-95.94904,Brooks,MN,Minnesota,True,,327.0,2.1,27125,Red Lake,"{""27125"": 95.85, ""27119"": 4.15}",Red Lake|Polk,27125|27119,False,False,America/Chicago,"(47.80636, -95.94904)",160.5514711717195,1404101.0,37_0_yes,47.23920282249175,-99.28627490823746,200.0
56716,47.74189,-96.55522,Crookston,MN,Minnesota,True,,9293.0,11.0,27119,Polk,"{""27119"": 98.5, ""27125"": 1.5}",Polk|Red Lake,27119|27125,False,False,America/Chicago,"(47.74189, -96.55522)",132.14318285129497,1404101.0,37_0_yes,47.23920282249175,-99.28627490823746,200.0
56720,48.56788,-96.90632,Donaldson,MN,Minnesota,True,,7.0,0.3,27069,Kittson,"{""27069"": 100}",Kittson,27069,False,False,America/Chicago,"(48.56788, -96.90632)",143.4448558614581,1404101.0,37_0_yes,47.23920282249175,-99.28627490823746,200.0
56721,47.97108,-96.94336,East Grand Forks,MN,Minnesota,True,,10296.0,20.7,27119,Polk,"{""27119"": 100}",Polk,27119,False,False,America/Chicago,"(47.97108, -96.94336)",120.28369758597958,1404101.0,37_0_yes,47.23920282249175,-99.28627490823746,200.0
56722,47.9825,-96.64644,Euclid,MN,Minnesota,True,,402.0,1.1,27119,Polk,"{""27119"": 100}",Polk,27119,False,False,America/Chicago,"(47.9825, -96.64644)",133.24883159935885,1404101.0,37_0_yes,47.23920282249175,-99.28627490823746,200.0
56723,47.80493,-96.8059,Fisher,MN,Minnesota,True,,881.0,2.8,27119,Polk,"{""27119"": 100}",Polk,27119,False,False,America/Chicago,"(47.80493, -96.8059)",122.14832549940674,1404101.0,37_0_yes,47.23920282249175,-99.28627490823746,200.0
56724,48.44534,-95.73473,Gatzke,MN,Minnesota,True,,107.0,0.3,27089,Marshall,"{""27089"": 98.38, ""27135"": 1.62}",Marshall|Roseau,27089|27135,False,False,America/Chicago,"(48.44534, -95.73473)",184.55619888135757,1404101.0,37_0_yes,47.23920282249175,-99.28627490823746,200.0
56725,48.1477,-95.70485,Goodridge,MN,Minnesota,True,,880.0,0.8,27113,Pennington,"{""27113"": 42.4, ""27089"": 30.15, ""27007"": 27.45}",Pennington|Marshall|Beltrami,27113|27089|27007,False,False,America/Chicago,"(48.1477, -95.70485)",177.97405355890325,1404101.0,37_0_yes,47.23920282249175,-99.28627490823746,200.0
56726,48.7258,-96.22712,Greenbush,MN,Minnesota,True,,1600.0,2.3,27135,Roseau,"{""27135"": 100}",Roseau,27135,False,False,America/Chicago,"(48.7258, -96.22712)",174.81130143652138,1404101.0,37_0_yes,47.23920282249175,-99.28627490823746,200.0
56727,48.34945,-95.38946,Grygla,MN,Minnesota,True,,993.0,0.6,27007,Beltrami,"{""27007"": 85.35, ""27089"": 14.65}",Beltrami|Marshall,27007|27089,False,False,America/Chicago,"(48.34945, -95.38946)",196.44142457074358,1404101.0,37_0_yes,47.23920282249175,-99.28627490823746,200.0
56728,48.78736,-96.99149,Hallock,MN,Minnesota,True,,1287.0,2.6,27069,Kittson,"{""27069"": 100}",Kittson,27069,False,False,America/Chicago,"(48.78736, -96.99149)",150.6255809943507,1404101.0,37_0_yes,47.23920282249175,-99.28627490823746,200.0
56729,48.66558,-96.59438,Halma,MN,Minnesota,True,,94.0,0.8,27069,Kittson,"{""27069"": 100}",Kittson,27069,False,False,America/Chicago,"(48.66558, -96.59438)",158.82247234625265,1404101.0,37_0_yes,47.23920282249175,-99.28627490823746,200.0
56731,48.90771,-97.07475,Humboldt,MN,Minnesota,True,,132.0,1.3,27069,Kittson,"{""27069"": 100}",Kittson,27069,False,False,America/Chicago,"(48.90771, -97.07475)",153.98081575282728,1404101.0,37_0_yes,47.23920282249175,-99.28627490823746,200.0
56732,48.5863,-96.49276,Karlstad,MN,Minnesota,True,,1030.0,2.5,27069,Kittson,"{""27069"": 70.59, ""27089"": 18.09, ""27135"": 11.32}",Kittson|Marshall|Roseau,27069|27089|27135,False,False,America/Chicago,"(48.5863, -96.49276)",159.35524959120852,1404101.0,37_0_yes,47.23920282249175,-99.28627490823746,200.0
56733,48.63342,-96.89149,Kennedy,MN,Minnesota,True,,328.0,0.8,27069,Kittson,"{""27069"": 100}",Kittson,27069,False,False,America/Chicago,"(48.63342, -96.89149)",146.84819221969278,1404101.0,37_0_yes,47.23920282249175,-99.28627490823746,200.0
56734,48.76776,-96.58134,Lake Bronson,MN,Minnesota,True,,615.0,1.4,27069,Kittson,"{""27069"": 100}",Kittson,27069,False,False,America/Chicago,"(48.76776, -96.58134)",163.66146453302082,1404101.0,37_0_yes,47.23920282249175,-99.28627490823746,200.0
56735,48.91328,-96.63659,Lancaster,MN,Minnesota,True,,769.0,0.8,27069,Kittson,"{""27069"": 81.23, ""27135"": 18.77}",Kittson|Roseau,27069|27135,False,False,America/Chicago,"(48.91328, -96.63659)",168.32948686738476,1404101.0,37_0_yes,47.23920282249175,-99.28627490823746,200.0
56736,47.71212,-96.20567,Mentor,MN,Minnesota,True,,768.0,2.7,27119,Polk,"{""27119"": 84.95, ""27125"": 15.05}",Polk|Red Lake,27119|27125,False,False,America/Chicago,"(47.71212, -96.20567)",147.51875042888955,1404101.0,37_0_yes,47.23920282249175,-99.28627490823746,200.0
56737,48.41144,-96.01081,Middle River,MN,Minnesota,True,,813.0,1.3,27089,Marshall,"{""27089"": 100}",Marshall,27089,False,False,America/Chicago,"(48.41144, -96.01081)",172.16300478583125,1404101.0,37_0_yes,47.23920282249175,-99.28627490823746,200.0
56738,48.34448,-96.33456,Newfolden,MN,Minnesota,True,,1516.0,3.2,27089,Marshall,"{""27089"": 100}",Marshall,27089,False,False,America/Chicago,"(48.34448, -96.33456)",156.84415425772895,1404101.0,37_0_yes,47.23920282249175,-99.28627490823746,200.0
56742,47.92728,-95.82076,Oklee,MN,Minnesota,True,,988.0,3.5,27125,Red Lake,"{""27125"": 68.8, ""27113"": 27.15, ""27119"": 4.05}",Red Lake|Pennington|Polk,27125|27113|27119,False,False,America/Chicago,"(47.92728, -95.82076)",168.34418968132084,1404101.0,37_0_yes,47.23920282249175,-99.28627490823746,200.0
56744,48.23456,-97.1089,Oslo,MN,Minnesota,True,,492.0,2.0,27089,Marshall,"{""27089"": 49.96, ""27119"": 23.26, ""38099"": 23.11, ""38035"": 3.67}",Marshall|Polk|Walsh|Grand Forks,27089|27119|38099|38035,False,False,America/Chicago,"(48.23456, -97.1089)",122.3305858293011,1404101.0,37_0_yes,47.23920282249175,-99.28627490823746,200.0
56748,47.92066,-96.00743,Plummer,MN,Minnesota,True,,625.0,2.7,27125,Red Lake,"{""27125"": 80.54, ""27113"": 19.46}",Red Lake|Pennington,27125|27113,False,False,America/Chicago,"(47.92066, -96.00743)",159.89366900356487,1404101.0,37_0_yes,47.23920282249175,-99.28627490823746,200.0
56750,47.89027,-96.30172,Red Lake Falls,MN,Minnesota,True,,2257.0,3.7,27125,Red Lake,"{""27125"": 79.33, ""27113"": 13.89, ""27119"": 6.78}",Red Lake|Pennington|Polk,27125|27113|27119,False,False,America/Chicago,"(47.89027, -96.30172)",146.22320376535228,1404101.0,37_0_yes,47.23920282249175,-99.28627490823746,200.0
56751,48.80929,-95.76035,Roseau,MN,Minnesota,True,,5588.0,4.6,27135,Roseau,"{""27135"": 100}",Roseau,27135,False,False,America/Chicago,"(48.80929, -95.76035)",195.7143560620985,1404101.0,37_0_yes,47.23920282249175,-99.28627490823746,200.0
56754,47.99065,-96.18199,Saint Hilaire,MN,Minnesota,True,,589.0,5.9,27113,Pennington,"{""27113"": 91.0, ""27125"": 9.0}",Pennington|Red Lake,27113|27125,False,False,America/Chicago,"(47.99065, -96.18199)",153.61282963390659,1404101.0,37_0_yes,47.23920282249175,-99.28627490823746,200.0
56755,48.97141,-97.1152,Saint Vincent,MN,Minnesota,True,,67.0,0.6,27069,Kittson,"{""27069"": 100}",Kittson,27069,False,False,America/Chicago,"(48.97141, -97.1152)",156.0572954933936,1404101.0,37_0_yes,47.23920282249175,-99.28627490823746,200.0
56756,48.90302,-95.56388,Salol,MN,Minnesota,True,,649.0,1.9,27135,Roseau,"{""27135"": 100}",Roseau,27135,False,False,America/Chicago,"(48.90302, -95.56388)",206.72512557945655,1404101.0,37_0_yes,47.23920282249175,-99.28627490823746,200.0
56757,48.47641,-96.90596,Stephen,MN,Minnesota,True,,843.0,1.4,27089,Marshall,"{""27089"": 94.96, ""27069"": 5.04}",Marshall|Kittson,27089|27069,False,False,America/Chicago,"(48.47641, -96.90596)",139.57608070176605,1404101.0,37_0_yes,47.23920282249175,-99.28627490823746,200.0
56758,48.46201,-96.51891,Strandquist,MN,Minnesota,True,,295.0,1.1,27089,Marshall,"{""27089"": 100}",Marshall,27089,False,False,America/Chicago,"(48.46201, -96.51891)",153.61506709975353,1404101.0,37_0_yes,47.23920282249175,-99.28627490823746,200.0
56759,48.55188,-96.08011,Strathcona,MN,Minnesota,True,,290.0,0.7,27135,Roseau,"{""27135"": 63.75, ""27089"": 36.25}",Roseau|Marshall,27135|27089,False,False,America/Chicago,"(48.55188, -96.08011)",174.00916179135308,1404101.0,37_0_yes,47.23920282249175,-99.28627490823746,200.0
56760,48.24037,-96.44586,Viking,MN,Minnesota,True,,391.0,1.8,27089,Marshall,"{""27089"": 100}",Marshall,27089,False,False,America/Chicago,"(48.24037, -96.44586)",148.9963422019966,1404101.0,37_0_yes,47.23920282249175,-99.28627490823746,200.0
56761,48.60862,-95.69725,Wannaska,MN,Minnesota,True,,440.0,1.7,27135,Roseau,"{""27135"": 100}",Roseau,27135,False,False,America/Chicago,"(48.60862, -95.69725)",191.19431504480178,1404101.0,37_0_yes,47.23920282249175,-99.28627490823746,200.0
56762,48.1688,-96.7415,Warren,MN,Minnesota,True,,2515.0,2.9,27119,Polk,"{""27119"": 51.75, ""27089"": 48.25}",Polk|Marshall,27119|27089,False,False,America/Chicago,"(48.1688, -96.7415)",134.62338065677005,1404101.0,37_0_yes,47.23920282249175,-99.28627490823746,200.0
56763,48.80879,-95.34167,Warroad,MN,Minnesota,True,,5150.0,7.6,27135,Roseau,"{""27135"": 100}",Roseau,27135,False,False,America/Chicago,"(48.80879, -95.34167)",212.0648256712081,1404101.0,37_0_yes,47.23920282249175,-99.28627490823746,200.0
57201,44.93412,-97.09424,Watertown,SD,South Dakota,True,,25582.0,31.0,46029,Codington,"{""46029"": 99.1, ""46057"": 0.9}",Codington|Hamlin,46029|46057,False,False,America/Chicago,"(44.93412, -97.09424)",190.76965607754988,1404101.0,37_0_yes,47.23920282249175,-99.28627490823746,200.0
57212,44.38111,-97.14344,Arlington,SD,South Dakota,True,,2138.0,3.6,46077,Kingsbury,"{""46077"": 53.94, ""46011"": 41.72, ""46057"": 3.54, ""46079"": 0.8}",Kingsbury|Brookings|Hamlin|Lake,46077|46011|46057|46079,False,False,America/Chicago,"(44.38111, -97.14344)",222.7936766761403,1404101.0,37_0_yes,47.23920282249175,-99.28627490823746,200.0
57213,44.57112,-96.5323,Astoria,SD,South Dakota,True,,712.0,5.8,46039,Deuel,"{""46039"": 76.01, ""46011"": 23.99}",Deuel|Brookings,46039|46011,False,False,America/Chicago,"(44.57112, -96.5323)",226.9369848464634,1404101.0,37_0_yes,47.23920282249175,-99.28627490823746,200.0
57214,44.47764,-97.19575,Badger,SD,South Dakota,True,,61.0,4.2,46077,Kingsbury,"{""46077"": 100}",Kingsbury,46077,False,False,America/Chicago,"(44.47764, -97.19575)",215.6785183086181,1404101.0,37_0_yes,47.23920282249175,-99.28627490823746,200.0
57216,45.30041,-96.52471,Big Stone City,SD,South Dakota,True,,1203.0,7.6,46051,Grant,"{""46051"": 63.64, ""46109"": 36.36}",Grant|Roberts,46051|46109,False,False,America/Chicago,"(45.30041, -96.52471)",187.96994054118989,1404101.0,37_0_yes,47.23920282249175,-99.28627490823746,200.0
57217,45.0845,-97.67004,Bradley,SD,South Dakota,True,,249.0,1.2,46025,Clark,"{""46025"": 100}",Clark,46025,False,False,America/Chicago,"(45.0845, -97.67004)",167.75939140283907,1404101.0,37_0_yes,47.23920282249175,-99.28627490823746,200.0
57218,44.65787,-96.59624,Brandt,SD,South Dakota,True,,285.0,1.6,46039,Deuel,"{""46039"": 100}",Deuel,46039,False,False,America/Chicago,"(44.65787, -96.59624)",220.22086408628363,1404101.0,37_0_yes,47.23920282249175,-99.28627490823746,200.0
57219,45.2877,-97.801,Bristol,SD,South Dakota,True,,482.0,1.1,46037,Day,"{""46037"": 100}",Day,46037,False,False,America/Chicago,"(45.2877, -97.801)",152.3550896092787,1404101.0,37_0_yes,47.23920282249175,-99.28627490823746,200.0
57220,44.45927,-96.92022,Bruce,SD,South Dakota,True,,843.0,3.0,46011,Brookings,"{""46011"": 100}",Brookings,46011,False,False,America/Chicago,"(44.45927, -96.92022)",223.26629277340578,1404101.0,37_0_yes,47.23920282249175,-99.28627490823746,200.0
57221,44.60654,-97.44853,Bryant,SD,South Dakota,True,,973.0,3.2,46057,Hamlin,"{""46057"": 73.24, ""46025"": 26.76}",Hamlin|Clark,46057|46025,False,False,America/Chicago,"(44.60654, -97.44853)",202.19593023498956,1404101.0,37_0_yes,47.23920282249175,-99.28627490823746,200.0
57223,44.71019,-97.00567,Castlewood,SD,South Dakota,True,,1217.0,3.8,46057,Hamlin,"{""46057"": 97.69, ""46039"": 2.31}",Hamlin|Deuel,46057|46039,False,False,America/Chicago,"(44.71019, -97.00567)",206.1964874481674,1404101.0,37_0_yes,47.23920282249175,-99.28627490823746,200.0
57224,45.81332,-97.15672,Claire City,SD,South Dakota,True,,108.0,0.9,46109,Roberts,"{""46109"": 100}",Roberts,46109,False,False,America/Chicago,"(45.81332, -97.15672)",141.24975579565853,1404101.0,37_0_yes,47.23920282249175,-99.28627490823746,200.0
57225,44.88359,-97.72676,Clark,SD,South Dakota,True,,1871.0,2.5,46025,Clark,"{""46025"": 100}",Clark,46025,False,False,America/Chicago,"(44.88359, -97.72676)",179.09963105129765,1404101.0,37_0_yes,47.23920282249175,-99.28627490823746,200.0
57226,44.78565,-96.72368,Clear Lake,SD,South Dakota,True,,1906.0,3.9,46039,Deuel,"{""46039"": 96.42, ""46057"": 3.58}",Deuel|Hamlin,46039|46057,False,False,America/Chicago,"(44.78565, -96.72368)",209.40023100909102,1404101.0,37_0_yes,47.23920282249175,-99.28627490823746,200.0
57227,45.36184,-96.72105,Corona,SD,South Dakota,True,,428.0,3.8,46109,Roberts,"{""46109"": 93.0, ""46051"": 7.0}",Roberts|Grant,46109|46051,False,False,America/Chicago,"(45.36184, -96.72105)",178.36127782064415,1404101.0,37_0_yes,47.23920282249175,-99.28627490823746,200.0
57231,44.3749,-97.58243,De Smet,SD,South Dakota,True,,1731.0,2.7,46077,Kingsbury,"{""46077"": 100}",Kingsbury,46077,False,False,America/Chicago,"(44.3749, -97.58243)",214.22980179123903,1404101.0,37_0_yes,47.23920282249175,-99.28627490823746,200.0
57232,45.61752,-97.38393,Eden,SD,South Dakota,True,,380.0,1.9,46091,Marshall,"{""46091"": 100}",Marshall,46091,False,False,America/Chicago,"(45.61752, -97.38393)",144.0818023540145,1404101.0,37_0_yes,47.23920282249175,-99.28627490823746,200.0
57233,44.50992,-97.3993,Erwin,SD,South Dakota,True,,264.0,2.8,46077,Kingsbury,"{""46077"": 100}",Kingsbury,46077,False,False,America/Chicago,"(44.50992, -97.3993)",209.26904236486087,1404101.0,37_0_yes,47.23920282249175,-99.28627490823746,200.0
57234,44.59719,-96.89929,Estelline,SD,South Dakota,True,,1315.0,5.0,46039,Deuel,"{""46039"": 47.98, ""46057"": 45.94, ""46011"": 6.07}",Deuel|Hamlin|Brookings,46039|46057|46011,False,False,America/Chicago,"(44.59719, -96.89929)",215.58397380028725,1404101.0,37_0_yes,47.23920282249175,-99.28627490823746,200.0
57235,45.06896,-97.31338,Florence,SD,South Dakota,True,,940.0,2.8,46029,Codington,"{""46029"": 94.95, ""46037"": 5.05}",Codington|Day,46029|46037,False,False,America/Chicago,"(45.06896, -97.31338)",177.19041578531926,1404101.0,37_0_yes,47.23920282249175,-99.28627490823746,200.0
57236,44.98724,-97.59033,Garden City,SD,South Dakota,True,,150.0,1.1,46025,Clark,"{""46025"": 100}",Clark,46025,False,False,America/Chicago,"(44.98724, -97.59033)",175.513256818331,1404101.0,37_0_yes,47.23920282249175,-99.28627490823746,200.0
57237,44.79323,-96.51991,Gary,SD,South Dakota,True,,658.0,2.6,46039,Deuel,"{""46039"": 100}",Deuel,46039,False,False,America/Chicago,"(44.79323, -96.51991)",214.86531061779405,1404101.0,37_0_yes,47.23920282249175,-99.28627490823746,200.0
57238,44.87287,-96.86231,Goodwin,SD,South Dakota,True,,517.0,2.7,46039,Deuel,"{""46039"": 64.03, ""46029"": 31.23, ""46057"": 4.74}",Deuel|Codington|Hamlin,46039|46029|46057,False,False,America/Chicago,"(44.87287, -96.86231)",200.57503294969322,1404101.0,37_0_yes,47.23920282249175,-99.28627490823746,200.0
57239,45.51223,-97.30938,Grenville,SD,South Dakota,True,,294.0,2.5,46037,Day,"{""46037"": 100}",Day,46037,False,False,America/Chicago,"(45.51223, -97.30938)",152.03674217747817,1404101.0,37_0_yes,47.23920282249175,-99.28627490823746,200.0
57241,44.69742,-97.21747,Hayti,SD,South Dakota,True,,1012.0,3.8,46057,Hamlin,"{""46057"": 100}",Hamlin,46057,False,False,America/Chicago,"(44.69742, -97.21747)",201.75721453368703,1404101.0,37_0_yes,47.23920282249175,-99.28627490823746,200.0
57242,44.77352,-97.35902,Hazel,SD,South Dakota,True,,482.0,2.1,46057,Hamlin,"{""46057"": 79.66, ""46029"": 20.34}",Hamlin|Codington,46057|46029,False,False,America/Chicago,"(44.77352, -97.35902)",193.8346561664795,1404101.0,37_0_yes,47.23920282249175,-99.28627490823746,200.0
57243,44.91177,-97.42072,Henry,SD,South Dakota,True,,628.0,2.1,46029,Codington,"{""46029"": 87.53, ""46025"": 10.89, ""46057"": 1.58}",Codington|Clark|Hamlin,46029|46025|46057,False,False,America/Chicago,"(44.91177, -97.42072)",183.98484657557117,1404101.0,37_0_yes,47.23920282249175,-99.28627490823746,200.0
57245,44.89365,-96.91835,Kranzburg,SD,South Dakota,True,,182.0,282.8,46029,Codington,"{""46029"": 100}",Codington,46029,False,False,America/Chicago,"(44.89365, -96.91835)",197.841609362225,1404101.0,37_0_yes,47.23920282249175,-99.28627490823746,200.0
57246,45.05639,-96.66914,Labolt,SD,South Dakota,True,,210.0,2.7,46051,Grant,"{""46051"": 100}",Grant,46051,False,False,America/Chicago,"(45.05639, -96.66914)",196.03796144610791,1404101.0,37_0_yes,47.23920282249175,-99.28627490823746,200.0
57247,45.71675,-97.45817,Lake City,SD,South Dakota,True,,210.0,1.1,46091,Marshall,"{""46091"": 100}",Marshall,46091,False,False,America/Chicago,"(45.71675, -97.45817)",136.48709483662077,1404101.0,37_0_yes,47.23920282249175,-99.28627490823746,200.0
57248,44.58063,-97.19328,Lake Norden,SD,South Dakota,True,,1101.0,6.3,46057,Hamlin,"{""46057"": 83.26, ""46077"": 16.74}",Hamlin|Kingsbury,46057|46077,False,False,America/Chicago,"(44.58063, -97.19328)",209.42313659458208,1404101.0,37_0_yes,47.23920282249175,-99.28627490823746,200.0
57249,44.37111,-97.3646,Lake Preston,SD,South Dakota,True,,777.0,2.1,46077,Kingsbury,"{""46077"": 100}",Kingsbury,46077,False,False,America/Chicago,"(44.37111, -97.3646)",218.69825300004717,1404101.0,37_0_yes,47.23920282249175,-99.28627490823746,200.0
57251,45.27717,-96.93677,Marvin,SD,South Dakota,True,,152.0,1.2,46051,Grant,"{""46051"": 100}",Grant,46051,False,False,America/Chicago,"(45.27717, -96.93677)",175.98057951019103,1404101.0,37_0_yes,47.23920282249175,-99.28627490823746,200.0
57252,45.20507,-96.61053,Milbank,SD,South Dakota,True,,4516.0,10.6,46051,Grant,"{""46051"": 96.39, ""46109"": 3.61}",Grant|Roberts,46051|46109,False,False,America/Chicago,"(45.20507, -96.61053)",190.01281240747963,1404101.0,37_0_yes,47.23920282249175,-99.28627490823746,200.0
57255,45.86702,-96.94985,New Effington,SD,South Dakota,True,,430.0,1.6,46109,Roberts,"{""46109"": 95.48, ""38077"": 4.52}",Roberts|Richland,46109|38077,False,False,America/Chicago,"(45.86702, -96.94985)",145.97693039178247,1404101.0,37_0_yes,47.23920282249175,-99.28627490823746,200.0
57256,45.24918,-97.20156,Ortley,SD,South Dakota,True,,172.0,1.5,46051,Grant,"{""46051"": 62.22, ""46109"": 20.12, ""46037"": 12.97, ""46029"": 4.69}",Grant|Roberts|Day|Codington,46051|46109|46037|46029,False,False,America/Chicago,"(45.24918, -97.20156)",169.77661769206068,1404101.0,37_0_yes,47.23920282249175,-99.28627490823746,200.0
57257,45.49975,-97.02982,Peever,SD,South Dakota,True,,739.0,3.8,46109,Roberts,"{""46109"": 100}",Roberts,46109,False,False,America/Chicago,"(45.49975, -97.02982)",161.28353716002448,1404101.0,37_0_yes,47.23920282249175,-99.28627490823746,200.0
57258,44.88434,-97.9246,Raymond,SD,South Dakota,True,,75.0,0.2,46025,Clark,"{""46025"": 93.39, ""46115"": 6.61}",Clark|Spink,46025|46115,False,False,America/Chicago,"(44.88434, -97.9246)",175.30611720809858,1404101.0,37_0_yes,47.23920282249175,-99.28627490823746,200.0
57259,45.00047,-96.56786,Revillo,SD,South Dakota,True,,527.0,1.5,46051,Grant,"{""46051"": 61.31, ""46039"": 38.69}",Grant|Deuel,46051|46039,False,False,America/Chicago,"(45.00047, -96.56786)",202.1517575695307,1404101.0,37_0_yes,47.23920282249175,-99.28627490823746,200.0
57260,45.83641,-96.7172,Rosholt,SD,South Dakota,True,,1112.0,2.6,46109,Roberts,"{""46109"": 100}",Roberts,46109,False,False,America/Chicago,"(45.83641, -96.7172)",155.88011956116574,1404101.0,37_0_yes,47.23920282249175,-99.28627490823746,200.0
57261,45.54051,-97.49412,Roslyn,SD,South Dakota,True,,320.0,1.8,46037,Day,"{""46037"": 100}",Day,46037,False,False,America/Chicago,"(45.54051, -97.49412)",145.14616969290472,1404101.0,37_0_yes,47.23920282249175,-99.28627490823746,200.0
57262,45.67288,-97.06641,Sisseton,SD,South Dakota,True,,5314.0,6.1,46109,Roberts,"{""46109"": 91.15, ""46091"": 8.85}",Roberts|Marshall,46109|46091,False,False,America/Chicago,"(45.67288, -97.06641)",151.23899644850482,1404101.0,37_0_yes,47.23920282249175,-99.28627490823746,200.0
57263,45.14106,-97.00589,South Shore,SD,South Dakota,True,,489.0,1.7,46029,Codington,"{""46029"": 65.69, ""46051"": 34.31}",Codington|Grant,46029|46051,False,False,America/Chicago,"(45.14106, -97.00589)",181.40066470316208,1404101.0,37_0_yes,47.23920282249175,-99.28627490823746,200.0
57264,45.10863,-96.80254,Stockholm,SD,South Dakota,True,,282.0,2.5,46051,Grant,"{""46051"": 100}",Grant,46051,False,False,America/Chicago,"(45.10863, -96.80254)",189.16662503104635,1404101.0,37_0_yes,47.23920282249175,-99.28627490823746,200.0
57265,44.98866,-96.79591,Strandburg,SD,South Dakota,True,,192.0,0.9,46051,Grant,"{""46051"": 58.57, ""46039"": 38.01, ""46029"": 3.42}",Grant|Deuel|Codington,46051|46039|46029,False,False,America/Chicago,"(44.98866, -96.79591)",195.95612488959404,1404101.0,37_0_yes,47.23920282249175,-99.28627490823746,200.0
57266,45.28619,-97.08985,Summit,SD,South Dakota,True,,542.0,1.6,46051,Grant,"{""46051"": 51.59, ""46109"": 48.41}",Grant|Roberts,46051|46109,False,False,America/Chicago,"(45.28619, -97.08985)",170.91390720530742,1404101.0,37_0_yes,47.23920282249175,-99.28627490823746,200.0
57268,44.56885,-96.68781,Toronto,SD,South Dakota,True,,488.0,2.9,46039,Deuel,"{""46039"": 77.94, ""46011"": 22.06}",Deuel|Brookings,46039|46011,False,False,America/Chicago,"(44.56885, -96.68781)",222.79284650118015,1404101.0,37_0_yes,47.23920282249175,-99.28627490823746,200.0
57269,45.22273,-96.80182,Twin Brooks,SD,South Dakota,True,,241.0,1.0,46051,Grant,"{""46051"": 100}",Grant,46051,False,False,America/Chicago,"(45.22273, -96.80182)",183.04287170639748,1404101.0,37_0_yes,47.23920282249175,-99.28627490823746,200.0
57270,45.84824,-97.32999,Veblen,SD,South Dakota,True,,834.0,2.0,46091,Marshall,"{""46091"": 86.85, ""46109"": 13.15}",Marshall|Roberts,46091|46109,False,False,America/Chicago,"(45.84824, -97.32999)",133.70534818475804,1404101.0,37_0_yes,47.23920282249175,-99.28627490823746,200.0
57271,44.75179,-97.55161,Vienna,SD,South Dakota,True,,279.0,1.7,46025,Clark,"{""46025"": 83.01, ""46057"": 16.99}",Clark|Hamlin,46025|46057,False,False,America/Chicago,"(44.75179, -97.55161)",190.95880562435255,1404101.0,37_0_yes,47.23920282249175,-99.28627490823746,200.0
57272,45.09564,-97.48002,Wallace,SD,South Dakota,True,,207.0,1.8,46029,Codington,"{""46029"": 60.59, ""46025"": 39.41}",Codington|Clark,46029|46025,False,False,America/Chicago,"(45.09564, -97.48002)",171.46918876703285,1404101.0,37_0_yes,47.23920282249175,-99.28627490823746,200.0
57273,45.33334,-97.27574,Waubay,SD,South Dakota,True,,1078.0,2.4,46037,Day,"{""46037"": 77.42, ""46109"": 22.58}",Day|Roberts,46037|46109,False,False,America/Chicago,"(45.33334, -97.27574)",162.9470692523707,1404101.0,37_0_yes,47.23920282249175,-99.28627490823746,200.0
57274,45.30943,-97.55533,Webster,SD,South Dakota,True,,2591.0,2.7,46037,Day,"{""46037"": 92.63, ""46025"": 7.37}",Day|Clark,46037|46025,False,False,America/Chicago,"(45.30943, -97.55533)",156.87183256810542,1404101.0,37_0_yes,47.23920282249175,-99.28627490823746,200.0
57276,44.43308,-96.61983,White,SD,South Dakota,True,,1222.0,3.8,46011,Brookings,"{""46011"": 100}",Brookings,46011,False,False,America/Chicago,"(44.43308, -96.61983)",232.49028182577518,1404101.0,37_0_yes,47.23920282249175,-99.28627490823746,200.0
57278,44.64689,-97.68227,Willow Lake,SD,South Dakota,True,,877.0,2.1,46025,Clark,"{""46025"": 100}",Clark,46025,False,False,America/Chicago,"(44.64689, -97.68227)",194.97604668765942,1404101.0,37_0_yes,47.23920282249175,-99.28627490823746,200.0
57279,45.41816,-96.87274,Wilmot,SD,South Dakota,True,,1081.0,3.0,46109,Roberts,"{""46109"": 100}",Roberts,46109,False,False,America/Chicago,"(45.41816, -96.87274)",170.5434680829247,1404101.0,37_0_yes,47.23920282249175,-99.28627490823746,200.0
57322,44.63498,-97.96129,Carpenter,SD,South Dakota,True,,300.0,0.7,46005,Beadle,"{""46005"": 43.69, ""46025"": 36.14, ""46115"": 20.17}",Beadle|Clark|Spink,46005|46025|46115,False,False,America/Chicago,"(44.63498, -97.96129)",190.85832313028615,1404101.0,37_0_yes,47.23920282249175,-99.28627490823746,200.0
57345,44.5687,-99.45009,Highmore,SD,South Dakota,True,,1217.0,0.7,46069,Hyde,"{""46069"": 100}",Hyde,46069,False,False,America/Chicago,"(44.5687, -99.45009)",184.68206688621663,1404101.0,37_0_yes,47.23920282249175,-99.28627490823746,200.0
57348,44.62147,-98.36483,Hitchcock,SD,South Dakota,True,,781.0,1.1,46005,Beadle,"{""46005"": 58.29, ""46115"": 41.71}",Beadle|Spink,46005|46115,False,False,America/Chicago,"(44.62147, -98.36483)",186.206014909209,1404101.0,37_0_yes,47.23920282249175,-99.28627490823746,200.0
57350,44.3948,-98.20037,Huron,SD,South Dakota,True,,15051.0,19.9,46005,Beadle,"{""46005"": 99.24, ""46111"": 0.76}",Beadle|Sanborn,46005|46111,False,False,America/Chicago,"(44.3948, -98.20037)",203.36142630858677,1404101.0,37_0_yes,47.23920282249175,-99.28627490823746,200.0
57353,44.36944,-97.83438,Iroquois,SD,South Dakota,True,,789.0,1.0,46077,Kingsbury,"{""46077"": 55.78, ""46005"": 41.21, ""46025"": 3.01}",Kingsbury|Beadle|Clark,46077|46005|46025,False,False,America/Chicago,"(44.36944, -97.83438)",210.2419493244748,1404101.0,37_0_yes,47.23920282249175,-99.28627490823746,200.0
57362,44.47488,-99.06447,Miller,SD,South Dakota,True,,1996.0,1.7,46059,Hand,"{""46059"": 96.96, ""46017"": 3.04}",Hand|Buffalo,46059|46017,False,False,America/Chicago,"(44.47488, -99.06447)",191.29426375988191,1404101.0,37_0_yes,47.23920282249175,-99.28627490823746,200.0
57371,44.43146,-99.23104,Ree Heights,SD,South Dakota,True,,183.0,0.3,46059,Hand,"{""46059"": 97.48, ""46069"": 2.52}",Hand|Hyde,46059|46069,False,False,America/Chicago,"(44.43146, -99.23104)",194.0147571686539,1404101.0,37_0_yes,47.23920282249175,-99.28627490823746,200.0
57373,44.52936,-98.86987,Saint Lawrence,SD,South Dakota,True,,427.0,0.8,46059,Hand,"{""46059"": 100}",Hand,46059,False,False,America/Chicago,"(44.52936, -98.86987)",188.29957293718465,1404101.0,37_0_yes,47.23920282249175,-99.28627490823746,200.0
57381,44.38717,-98.73267,Wessington,SD,South Dakota,True,,424.0,0.5,46059,Hand,"{""46059"": 61.42, ""46005"": 38.58}",Hand|Beadle,46059|46005,False,False,America/Chicago,"(44.38717, -98.73267)",198.850478646753,1404101.0,37_0_yes,47.23920282249175,-99.28627490823746,200.0
57384,44.42044,-98.48477,Wolsey,SD,South Dakota,True,,1118.0,2.1,46005,Beadle,"{""46005"": 100}",Beadle,46005,False,False,America/Chicago,"(44.42044, -98.48477)",198.54064046770944,1404101.0,37_0_yes,47.23920282249175,-99.28627490823746,200.0
57386,44.50908,-97.99845,Yale,SD,South Dakota,True,,279.0,1.6,46005,Beadle,"{""46005"": 100}",Beadle,46005,False,False,America/Chicago,"(44.50908, -97.99845)",198.5382689621305,1404101.0,37_0_yes,47.23920282249175,-99.28627490823746,200.0
57401,45.4753,-98.53042,Aberdeen,SD,South Dakota,True,,32468.0,45.0,46013,Brown,"{""46013"": 100}",Brown,46013,False,False,America/Chicago,"(45.4753, -98.53042)",127.09036158004318,1404101.0,37_0_yes,47.23920282249175,-99.28627490823746,200.0
57420,45.2852,-100.14319,Akaska,SD,South Dakota,True,,139.0,1.2,46129,Walworth,"{""46129"": 100}",Walworth,46129,False,False,America/Chicago,"(45.2852, -100.14319)",141.07513693139262,1404101.0,37_0_yes,47.23920282249175,-99.28627490823746,200.0
57421,45.75045,-97.90618,Amherst,SD,South Dakota,True,,98.0,1.1,46091,Marshall,"{""46091"": 100}",Marshall,46091,False,False,America/Chicago,"(45.75045, -97.90618)",122.01991027649345,1404101.0,37_0_yes,47.23920282249175,-99.28627490823746,200.0
57422,45.42288,-97.92199,Andover,SD,South Dakota,True,,201.0,0.7,46037,Day,"{""46037"": 95.55, ""46013"": 4.45}",Day|Brown,46037|46013,False,False,America/Chicago,"(45.42288, -97.92199)",141.36487387538753,1404101.0,37_0_yes,47.23920282249175,-99.28627490823746,200.0
57424,45.02012,-98.53101,Ashton,SD,South Dakota,True,,160.0,0.4,46115,Spink,"{""46115"": 92.97, ""46049"": 7.03}",Spink|Faulk,46115|46049,False,False,America/Chicago,"(45.02012, -98.53101)",157.529204997426,1404101.0,37_0_yes,47.23920282249175,-99.28627490823746,200.0
57426,45.73485,-98.4936,Barnard,SD,South Dakota,True,,32.0,2.1,46013,Brown,"{""46013"": 100}",Brown,46013,False,False,America/Chicago,"(45.73485, -98.4936)",110.56819884871165,1404101.0,37_0_yes,47.23920282249175,-99.28627490823746,200.0
57427,45.48109,-98.31786,Bath,SD,South Dakota,True,,562.0,3.5,46013,Brown,"{""46013"": 100}",Brown,46013,False,False,America/Chicago,"(45.48109, -98.31786)",129.95190862206925,1404101.0,37_0_yes,47.23920282249175,-99.28627490823746,200.0
57428,45.44984,-99.67922,Bowdle,SD,South Dakota,True,,554.0,1.1,46045,Edmunds,"{""46045"": 62.98, ""46129"": 37.02}",Edmunds|Walworth,46045|46129,False,False,America/Chicago,"(45.44984, -99.67922)",125.04523807719909,1404101.0,37_0_yes,47.23920282249175,-99.28627490823746,200.0
57429,45.16116,-98.3005,Brentford,SD,South Dakota,True,,63.0,1.7,46115,Spink,"{""46115"": 100}",Spink,46115,False,False,America/Chicago,"(45.16116, -98.3005)",151.11672323473792,1404101.0,37_0_yes,47.23920282249175,-99.28627490823746,200.0
57430,45.82203,-97.72205,Britton,SD,South Dakota,True,,2290.0,2.5,46091,Marshall,"{""46091"": 99.13, ""38081"": 0.87}",Marshall|Sargent,46091|38081,False,False,America/Chicago,"(45.82203, -97.72205)",122.94263107241859,1404101.0,37_0_yes,47.23920282249175,-99.28627490823746,200.0
57432,45.6839,-98.02453,Claremont,SD,South Dakota,True,,395.0,1.4,46013,Brown,"{""46013"": 75.93, ""46091"": 24.07}",Brown|Marshall,46013|46091,False,False,America/Chicago,"(45.6839, -98.02453)",123.09798574647154,1404101.0,37_0_yes,47.23920282249175,-99.28627490823746,200.0
57433,45.64311,-98.32104,Columbia,SD,South Dakota,True,,382.0,1.2,46013,Brown,"{""46013"": 100}",Brown,46013,False,False,America/Chicago,"(45.64311, -98.32104)",119.46965289507988,1404101.0,37_0_yes,47.23920282249175,-99.28627490823746,200.0
57434,45.16669,-98.07049,Conde,SD,South Dakota,True,,461.0,0.6,46115,Spink,"{""46115"": 56.28, ""46025"": 17.55, ""46013"": 17.37, ""46037"": 8.8}",Spink|Clark|Brown|Day,46115|46025|46013|46037,False,False,America/Chicago,"(45.16669, -98.07049)",154.54404848103775,1404101.0,37_0_yes,47.23920282249175,-99.28627490823746,200.0
57435,45.16916,-98.90975,Cresbard,SD,South Dakota,True,,264.0,0.7,46049,Faulk,"{""46049"": 76.73, ""46045"": 23.27}",Faulk|Edmunds,46049|46045,False,False,America/Chicago,"(45.16916, -98.90975)",144.15464650537047,1404101.0,37_0_yes,47.23920282249175,-99.28627490823746,200.0
57436,44.84864,-98.09131,Doland,SD,South Dakota,True,,557.0,1.1,46115,Spink,"{""46115"": 100}",Spink,46115,False,False,America/Chicago,"(44.84864, -98.09131)",174.8256735373099,1404101.0,37_0_yes,47.23920282249175,-99.28627490823746,200.0
57437,45.78368,-99.618,Eureka,SD,South Dakota,True,,1455.0,1.1,46089,McPherson,"{""46089"": 69.15, ""46021"": 30.85}",McPherson|Campbell,46089|46021,False,False,America/Chicago,"(45.78368, -99.618)",101.79629162735228,1404101.0,37_0_yes,47.23920282249175,-99.28627490823746,200.0
57438,45.06899,-99.15462,Faulkton,SD,South Dakota,True,,1360.0,1.2,46049,Faulk,"{""46049"": 100}",Faulk,46049,False,False,America/Chicago,"(45.06899, -99.15462)",150.0797004176368,1404101.0,37_0_yes,47.23920282249175,-99.28627490823746,200.0
57439,45.33464,-98.10007,Ferney,SD,South Dakota,True,,37.0,35.8,46013,Brown,"{""46013"": 100}",Brown,46013,False,False,America/Chicago,"(45.33464, -98.10007)",143.25898903265076,1404101.0,37_0_yes,47.23920282249175,-99.28627490823746,200.0
57440,44.8502,-98.25956,Frankfort,SD,South Dakota,True,,536.0,1.5,46115,Spink,"{""46115"": 100}",Spink,46115,False,False,America/Chicago,"(44.8502, -98.25956)",172.24743657443372,1404101.0,37_0_yes,47.23920282249175,-99.28627490823746,200.0
57441,45.82275,-98.51474,Frederick,SD,South Dakota,True,,545.0,0.8,46013,Brown,"{""46013"": 100}",Brown,46013,False,False,America/Chicago,"(45.82275, -98.51474)",104.51185006838979,1404101.0,37_0_yes,47.23920282249175,-99.28627490823746,200.0
57442,45.05721,-100.14997,Gettysburg,SD,South Dakota,True,,1909.0,1.2,46107,Potter,"{""46107"": 82.85, ""46041"": 15.18, ""46119"": 1.97}",Potter|Dewey|Sully,46107|46041|46119,False,False,America/Chicago,"(45.05721, -100.14997)",156.32444610338123,1404101.0,37_0_yes,47.23920282249175,-99.28627490823746,200.0
57445,45.45828,-98.12094,Groton,SD,South Dakota,True,,2063.0,3.1,46013,Brown,"{""46013"": 100}",Brown,46013,False,False,America/Chicago,"(45.45828, -98.12094)",135.0152890364615,1404101.0,37_0_yes,47.23920282249175,-99.28627490823746,200.0
57446,45.86698,-98.15423,Hecla,SD,South Dakota,True,,753.0,1.9,46013,Brown,"{""46013"": 100}",Brown,46013,False,False,America/Chicago,"(45.86698, -98.15423)",109.00352058233089,1404101.0,37_0_yes,47.23920282249175,-99.28627490823746,200.0
57448,45.61196,-99.41859,Hosmer,SD,South Dakota,True,,408.0,1.0,46089,McPherson,"{""46089"": 58.42, ""46045"": 41.58}",McPherson|Edmunds,46089|46045,False,False,America/Chicago,"(45.61196, -99.41859)",112.60817807509112,1404101.0,37_0_yes,47.23920282249175,-99.28627490823746,200.0
57449,45.73101,-98.17553,Houghton,SD,South Dakota,True,,290.0,1.3,46013,Brown,"{""46013"": 100}",Brown,46013,False,False,America/Chicago,"(45.73101, -98.17553)",116.83536411600106,1404101.0,37_0_yes,47.23920282249175,-99.28627490823746,200.0
57450,45.21599,-99.83696,Hoven,SD,South Dakota,True,,485.0,0.9,46107,Potter,"{""46107"": 64.42, ""46129"": 35.58}",Potter|Walworth,46107|46129,False,False,America/Chicago,"(45.21599, -99.83696)",142.24616402884226,1404101.0,37_0_yes,47.23920282249175,-99.28627490823746,200.0
57451,45.43488,-98.93473,Ipswich,SD,South Dakota,True,,2243.0,2.0,46045,Edmunds,"{""46045"": 92.48, ""46013"": 7.52}",Edmunds|Brown,46045|46013,False,False,America/Chicago,"(45.43488, -98.93473)",125.7892873108024,1404101.0,37_0_yes,47.23920282249175,-99.28627490823746,200.0
57452,45.52873,-99.87334,Java,SD,South Dakota,True,,230.0,0.4,46129,Walworth,"{""46129"": 70.76, ""46021"": 29.24}",Walworth|Campbell,46129|46021,False,False,America/Chicago,"(45.52873, -99.87334)",121.4485670436251,1404101.0,37_0_yes,47.23920282249175,-99.28627490823746,200.0
57454,45.61058,-97.77286,Langford,SD,South Dakota,True,,823.0,2.1,46091,Marshall,"{""46091"": 69.85, ""46037"": 30.15}",Marshall|Day,46091|46037,False,False,America/Chicago,"(45.61058, -97.77286)",133.62635291204182,1404101.0,37_0_yes,47.23920282249175,-99.28627490823746,200.0
57455,44.99301,-99.74011,Lebanon,SD,South Dakota,True,,119.0,0.4,46107,Potter,"{""46107"": 100}",Potter,46107,False,False,America/Chicago,"(44.99301, -99.74011)",156.71112657603967,1404101.0,37_0_yes,47.23920282249175,-99.28627490823746,200.0
57456,45.72104,-98.99589,Leola,SD,South Dakota,True,,836.0,0.9,46089,McPherson,"{""46089"": 97.26, ""46045"": 2.74}",McPherson|Edmunds,46089|46045,False,False,America/Chicago,"(45.72104, -98.99589)",105.80078609216561,1404101.0,37_0_yes,47.23920282249175,-99.28627490823746,200.0
57457,45.87281,-99.15812,Long Lake,SD,South Dakota,True,,70.0,0.2,46089,McPherson,"{""46089"": 100}",McPherson,46089,False,False,America/Chicago,"(45.87281, -99.15812)",94.604857420252,1404101.0,37_0_yes,47.23920282249175,-99.28627490823746,200.0
57460,45.27323,-98.66585,Mansfield,SD,South Dakota,True,,375.0,1.2,46013,Brown,"{""46013"": 58.07, ""46045"": 21.16, ""46115"": 10.93, ""46049"": 9.84}",Brown|Edmunds|Spink|Faulk,46013|46045|46115|46049,False,False,America/Chicago,"(45.27323, -98.66585)",139.03061609588565,1404101.0,37_0_yes,47.23920282249175,-99.28627490823746,200.0
57461,45.16085,-98.43327,Mellette,SD,South Dakota,True,,340.0,1.2,46115,Spink,"{""46115"": 98.16, ""46013"": 1.84}",Spink|Brown,46115|46013,False,False,America/Chicago,"(45.16085, -98.43327)",149.27949058425494,1404101.0,37_0_yes,47.23920282249175,-99.28627490823746,200.0
57465,45.14443,-98.68573,Northville,SD,South Dakota,True,,371.0,0.9,46115,Spink,"{""46115"": 60.22, ""46049"": 39.78}",Spink|Faulk,46115|46049,False,False,America/Chicago,"(45.14443, -98.68573)",147.55639435963963,1404101.0,37_0_yes,47.23920282249175,-99.28627490823746,200.0
57466,45.20045,-99.45885,Onaka,SD,South Dakota,True,,218.0,0.6,46049,Faulk,"{""46049"": 76.24, ""46045"": 23.76}",Faulk|Edmunds,46049|46045,False,False,America/Chicago,"(45.20045, -99.45885)",141.10567621719997,1404101.0,37_0_yes,47.23920282249175,-99.28627490823746,200.0
57467,44.82754,-99.14221,Orient,SD,South Dakota,True,,259.0,0.5,46059,Hand,"{""46059"": 90.05, ""46049"": 9.95}",Hand|Faulk,46059|46049,False,False,America/Chicago,"(44.82754, -99.14221)",166.77317190918563,1404101.0,37_0_yes,47.23920282249175,-99.28627490823746,200.0
57468,45.49797,-97.75318,Pierpont,SD,South Dakota,True,,477.0,2.5,46037,Day,"{""46037"": 100}",Day,46037,False,False,America/Chicago,"(45.49797, -97.75318)",140.7634188815605,1404101.0,37_0_yes,47.23920282249175,-99.28627490823746,200.0
57469,44.85858,-98.57535,Redfield,SD,South Dakota,True,,3281.0,4.2,46115,Spink,"{""46115"": 77.12, ""46059"": 16.92, ""46049"": 5.96}",Spink|Hand|Faulk,46115|46059|46049,False,False,America/Chicago,"(44.85858, -98.57535)",167.97904806937038,1404101.0,37_0_yes,47.23920282249175,-99.28627490823746,200.0
57470,44.87726,-98.86709,Rockham,SD,South Dakota,True,,67.0,0.2,46059,Hand,"{""46059"": 59.36, ""46049"": 40.64}",Hand|Faulk,46059|46049,False,False,America/Chicago,"(44.87726, -98.86709)",164.4268968627327,1404101.0,37_0_yes,47.23920282249175,-99.28627490823746,200.0
57471,45.40967,-99.31359,Roscoe,SD,South Dakota,True,,543.0,0.6,46045,Edmunds,"{""46045"": 96.31, ""46089"": 3.69}",Edmunds|McPherson,46045|46089,False,False,America/Chicago,"(45.40967, -99.31359)",126.41539403256827,1404101.0,37_0_yes,47.23920282249175,-99.28627490823746,200.0
57472,45.4284,-100.10393,Selby,SD,South Dakota,True,,877.0,1.2,46129,Walworth,"{""46129"": 99.32, ""46021"": 0.68}",Walworth|Campbell,46129|46021,False,False,America/Chicago,"(45.4284, -100.10393)",131.05206027481802,1404101.0,37_0_yes,47.23920282249175,-99.28627490823746,200.0
57473,44.98993,-99.483,Seneca,SD,South Dakota,True,,255.0,0.5,46049,Faulk,"{""46049"": 81.76, ""46107"": 18.24}",Faulk|Potter,46049|46107,False,False,America/Chicago,"(44.98993, -99.483)",155.6951755930944,1404101.0,37_0_yes,47.23920282249175,-99.28627490823746,200.0
57474,45.28577,-98.27526,Stratford,SD,South Dakota,True,,152.0,0.7,46013,Brown,"{""46013"": 82.15, ""46115"": 17.85}",Brown|Spink,46013|46115,False,False,America/Chicago,"(45.28577, -98.27526)",143.34596683657298,1404101.0,37_0_yes,47.23920282249175,-99.28627490823746,200.0
57475,45.22843,-99.62031,Tolstoy,SD,South Dakota,True,,125.0,0.4,46107,Potter,"{""46107"": 51.32, ""46045"": 48.68}",Potter|Edmunds,46107|46045,False,False,America/Chicago,"(45.22843, -99.62031)",139.84500424664958,1404101.0,37_0_yes,47.23920282249175,-99.28627490823746,200.0
57476,44.71277,-98.62127,Tulare,SD,South Dakota,True,,472.0,1.2,46115,Spink,"{""46115"": 75.97, ""46059"": 24.03}",Spink|Hand,46115|46059,False,False,America/Chicago,"(44.71277, -98.62127)",177.45444497459553,1404101.0,37_0_yes,47.23920282249175,-99.28627490823746,200.0
57477,45.03363,-98.15024,Turton,SD,South Dakota,True,,159.0,0.6,46115,Spink,"{""46115"": 100}",Spink,46115,False,False,America/Chicago,"(45.03363, -98.15024)",161.80127834172387,1404101.0,37_0_yes,47.23920282249175,-99.28627490823746,200.0
57479,45.30415,-98.4382,Warner,SD,South Dakota,True,,614.0,4.9,46013,Brown,"{""46013"": 100}",Brown,46013,False,False,America/Chicago,"(45.30415, -98.4382)",139.6976642646036,1404101.0,37_0_yes,47.23920282249175,-99.28627490823746,200.0
57481,45.65279,-98.66821,Westport,SD,South Dakota,True,,478.0,1.0,46013,Brown,"{""46013"": 56.47, ""46089"": 31.28, ""46045"": 12.25}",Brown|McPherson|Edmunds,46013|46089|46045,False,False,America/Chicago,"(45.65279, -98.66821)",113.49043833245909,1404101.0,37_0_yes,47.23920282249175,-99.28627490823746,200.0
57501,44.53525,-100.31906,Pierre,SD,South Dakota,True,,16831.0,11.5,46065,Hughes,"{""46065"": 55.15, ""46119"": 44.85}",Hughes|Sully,46065|46119,False,False,America/Chicago,"(44.53525, -100.31906)",193.3104916450958,1404101.0,37_0_yes,47.23920282249175,-99.28627490823746,200.0
57520,44.84159,-100.16447,Agar,SD,South Dakota,True,,93.0,0.2,46119,Sully,"{""46119"": 100}",Sully,46119,False,False,America/Chicago,"(44.84159, -100.16447)",170.9266518948692,1404101.0,37_0_yes,47.23920282249175,-99.28627490823746,200.0
57522,44.51014,-99.96352,Blunt,SD,South Dakota,True,,639.0,1.4,46065,Hughes,"{""46065"": 69.15, ""46119"": 30.85}",Hughes|Sully,46065|46119,False,False,America/Chicago,"(44.51014, -99.96352)",191.35180238192382,1404101.0,37_0_yes,47.23920282249175,-99.28627490823746,200.0
57532,44.36129,-100.56405,Fort Pierre,SD,South Dakota,True,,3020.0,0.9,46117,Stanley,"{""46117"": 85.29, ""46085"": 14.71}",Stanley|Lyman,46117|46085,False,False,America/Denver,"(44.36129, -100.56405)",208.14468649520927,1404101.0,37_0_yes,47.23920282249175,-99.28627490823746,200.0
57536,44.41502,-99.76694,Harrold,SD,South Dakota,True,,308.0,0.3,46065,Hughes,"{""46065"": 72.59, ""46119"": 27.41}",Hughes|Sully,46065|46119,False,False,America/Chicago,"(44.41502, -99.76694)",196.49879310139005,1404101.0,37_0_yes,47.23920282249175,-99.28627490823746,200.0
57537,44.58366,-101.07399,Hayes,SD,South Dakota,True,,96.0,0.2,46117,Stanley,"{""46117"": 83.6, ""46055"": 16.4}",Stanley|Haakon,46117|46055,False,False,America/Denver,"(44.58366, -101.07399)",202.59590700606813,1404101.0,37_0_yes,47.23920282249175,-99.28627490823746,200.0
57540,44.46477,-99.60377,Holabird,SD,South Dakota,True,,107.0,0.2,46069,Hyde,"{""46069"": 100}",Hyde,46069,False,False,America/Chicago,"(44.46477, -99.60377)",192.3025172044625,1404101.0,37_0_yes,47.23920282249175,-99.28627490823746,200.0
57553,44.48547,-101.64489,Milesville,SD,South Dakota,True,,104.0,0.2,46055,Haakon,"{""46055"": 100}",Haakon,46055,False,False,America/Denver,"(44.48547, -101.64489)",221.5141012463004,1404101.0,37_0_yes,47.23920282249175,-99.28627490823746,200.0
57564,44.72401,-100.0121,Onida,SD,South Dakota,True,,956.0,0.8,46119,Sully,"{""46119"": 97.75, ""46069"": 2.25}",Sully|Hyde,46119|46069,False,False,America/Chicago,"(44.72401, -100.0121)",177.24055483616192,1404101.0,37_0_yes,47.23920282249175,-99.28627490823746,200.0
57601,45.36646,-100.51108,Mobridge,SD,South Dakota,True,,3974.0,3.6,46041,Dewey,"{""46041"": 84.07, ""46031"": 9.39, ""46129"": 6.54}",Dewey|Corson|Walworth,46041|46031|46129,False,False,America/Denver,"(45.36646, -100.51108)",141.9840733391319,1404101.0,37_0_yes,47.23920282249175,-99.28627490823746,200.0
57620,45.38425,-102.53897,Bison,SD,South Dakota,True,,548.0,0.6,46105,Perkins,"{""46105"": 100}",Perkins,46105,False,False,America/Denver,"(45.38425, -102.53897)",201.27577327983437,1404101.0,37_0_yes,47.23920282249175,-99.28627490823746,200.0
57621,45.76891,-101.0808,Bullhead,SD,South Dakota,True,,320.0,40.3,46031,Corson,"{""46031"": 100}",Corson,46031,False,False,America/Denver,"(45.76891, -101.0808)",132.67008487088398,1404101.0,37_0_yes,47.23920282249175,-99.28627490823746,200.0
57622,44.65177,-101.54572,Cherry Creek,SD,South Dakota,True,,359.0,1.5,46137,Ziebach,"{""46137"": 100}",Ziebach,46137,False,False,America/Denver,"(44.65177, -101.54572)",209.1282968790107,1404101.0,37_0_yes,47.23920282249175,-99.28627490823746,200.0
57623,45.01587,-101.65925,Dupree,SD,South Dakota,True,,1126.0,0.7,46137,Ziebach,"{""46137"": 100}",Ziebach,46137,False,False,America/Denver,"(45.01587, -101.65925)",191.05657060873966,1404101.0,37_0_yes,47.23920282249175,-99.28627490823746,200.0
57625,44.95738,-101.00369,Eagle Butte,SD,South Dakota,True,,4336.0,1.3,46041,Dewey,"{""46041"": 78.64, ""46137"": 21.36}",Dewey|Ziebach,46041|46137,False,False,America/Denver,"(44.95738, -101.00369)",177.82796546786386,1404101.0,37_0_yes,47.23920282249175,-99.28627490823746,200.0
57626,44.99662,-102.17571,Faith,SD,South Dakota,True,,792.0,0.2,46105,Perkins,"{""46105"": 39.21, ""46093"": 32.91, ""46137"": 27.88}",Perkins|Meade|Ziebach,46105|46093|46137,False,False,America/Denver,"(44.99662, -102.17571)",207.71882853767937,1404101.0,37_0_yes,47.23920282249175,-99.28627490823746,200.0
57631,45.58195,-100.28779,Glenham,SD,South Dakota,True,,444.0,1.3,46129,Walworth,"{""46129"": 50.6, ""46021"": 49.4}",Walworth|Campbell,46129|46021,False,False,America/Chicago,"(45.58195, -100.28779)",124.04471407622741,1404101.0,37_0_yes,47.23920282249175,-99.28627490823746,200.0
57632,45.82924,-100.04927,Herreid,SD,South Dakota,True,,586.0,1.1,46021,Campbell,"{""46021"": 100}",Campbell,46021,False,False,America/Chicago,"(45.82924, -100.04927)",103.94902760104756,1404101.0,37_0_yes,47.23920282249175,-99.28627490823746,200.0
57633,45.44584,-101.50046,Isabel,SD,South Dakota,True,,417.0,0.2,46031,Corson,"{""46031"": 44.39, ""46137"": 34.43, ""46041"": 21.18}",Corson|Ziebach|Dewey,46031|46137|46041,False,False,America/Denver,"(45.44584, -101.50046)",162.79754543926796,1404101.0,37_0_yes,47.23920282249175,-99.28627490823746,200.0
57634,45.75231,-101.87895,Keldron,SD,South Dakota,True,,202.0,0.4,46031,Corson,"{""46031"": 100}",Corson,46031,False,False,America/Denver,"(45.75231, -101.87895)",160.48973653986235,1404101.0,37_0_yes,47.23920282249175,-99.28627490823746,200.0
57636,45.02905,-101.45414,Lantry,SD,South Dakota,True,,92.0,1.7,46041,Dewey,"{""46041"": 100}",Dewey,46041,False,False,America/Denver,"(45.02905, -101.45414)",184.62641906486277,1404101.0,37_0_yes,47.23920282249175,-99.28627490823746,200.0
57638,45.86899,-102.20758,Lemmon,SD,South Dakota,True,,1790.0,0.7,46105,Perkins,"{""46105"": 60.42, ""38001"": 25.18, ""38037"": 5.1, ""38085"": 4.66, ""46031"": 4.64}",Perkins|Adams|Grant|Sioux|Corson,46105|38001|38037|38085|46031,False,False,America/Denver,"(45.86899, -102.20758)",167.99556293818063,1404101.0,37_0_yes,47.23920282249175,-99.28627490823746,200.0
57639,45.679,-100.80324,Little Eagle,SD,South Dakota,True,,372.0,72.6,46031,Corson,"{""46031"": 100}",Corson,46031,False,False,America/Denver,"(45.679, -100.80324)",129.73974962624996,1404101.0,37_0_yes,47.23920282249175,-99.28627490823746,200.0
57640,45.7656,-102.70435,Lodgepole,SD,South Dakota,True,,184.0,0.3,46105,Perkins,"{""46105"": 100}",Perkins,46105,False,False,America/Denver,"(45.7656, -102.70435)",191.78524165013604,1404101.0,37_0_yes,47.23920282249175,-99.28627490823746,200.0
57641,45.89317,-101.30624,McIntosh,SD,South Dakota,True,,325.0,0.3,46031,Corson,"{""46031"": 62.47, ""38085"": 27.78, ""38037"": 9.75}",Corson|Sioux|Grant,46031|38085|38037,False,False,America/Denver,"(45.89317, -101.30624)",133.6196724674777,1404101.0,37_0_yes,47.23920282249175,-99.28627490823746,200.0
57642,45.78609,-100.72458,McLaughlin,SD,South Dakota,True,,1994.0,1.1,46031,Corson,"{""46031"": 97.17, ""38085"": 2.83}",Corson|Sioux,46031|38085,False,False,America/Denver,"(45.78609, -100.72458)",121.47583347317612,1404101.0,37_0_yes,47.23920282249175,-99.28627490823746,200.0
57644,45.45155,-102.08224,Meadow,SD,South Dakota,True,,292.0,0.2,46105,Perkins,"{""46105"": 63.31, ""46031"": 20.74, ""46137"": 15.95}",Perkins|Corson|Ziebach,46105|46031|46137,False,False,America/Denver,"(45.45155, -102.08224)",181.74632851556996,1404101.0,37_0_yes,47.23920282249175,-99.28627490823746,200.0
57645,45.9119,-101.71855,Morristown,SD,South Dakota,True,,141.0,0.2,46031,Corson,"{""46031"": 51.85, ""38037"": 26.84, ""38085"": 21.31}",Corson|Grant|Sioux,46031|38037|38085,False,False,America/Denver,"(45.9119, -101.71855)",147.48411108894638,1404101.0,37_0_yes,47.23920282249175,-99.28627490823746,200.0
57646,45.68753,-100.05395,Mound City,SD,South Dakota,True,,324.0,1.0,46021,Campbell,"{""46021"": 100}",Campbell,46021,False,False,America/Chicago,"(45.68753, -100.05395)",113.26326865436765,1404101.0,37_0_yes,47.23920282249175,-99.28627490823746,200.0
57648,45.92722,-100.31755,Pollock,SD,South Dakota,True,,312.0,0.5,46021,Campbell,"{""46021"": 52.61, ""38029"": 47.39}",Campbell|Emmons,46021|38029,False,False,America/Chicago,"(45.92722, -100.31755)",103.03002715041515,1404101.0,37_0_yes,47.23920282249175,-99.28627490823746,200.0
57649,45.48999,-102.86149,Prairie City,SD,South Dakota,True,,314.0,0.2,46105,Perkins,"{""46105"": 75.71, ""46063"": 24.29}",Perkins|Harding,46105|46063,False,False,America/Denver,"(45.48999, -102.86149)",208.92558455867058,1404101.0,37_0_yes,47.23920282249175,-99.28627490823746,200.0
57650,45.8346,-103.03033,Ralph,SD,South Dakota,True,,50.0,0.3,46063,Harding,"{""46063"": 100}",Harding,46063,False,False,America/Denver,"(45.8346, -103.03033)",202.6612691471356,1404101.0,37_0_yes,47.23920282249175,-99.28627490823746,200.0
57651,45.48394,-103.07746,Reva,SD,South Dakota,True,,122.0,0.1,46063,Harding,"{""46063"": 84.92, ""46105"": 15.08}",Harding|Perkins,46063|46105,False,False,America/Denver,"(45.48394, -103.07746)",217.64369791197714,1404101.0,37_0_yes,47.23920282249175,-99.28627490823746,200.0
57652,45.13787,-100.68883,Ridgeview,SD,South Dakota,True,,550.0,0.9,46041,Dewey,"{""46041"": 100}",Dewey,46041,False,False,America/Denver,"(45.13787, -100.68883)",159.93164748739702,1404101.0,37_0_yes,47.23920282249175,-99.28627490823746,200.0
57656,45.42387,-101.10696,Timber Lake,SD,South Dakota,True,,881.0,0.9,46041,Dewey,"{""46041"": 63.29, ""46031"": 36.71}",Dewey|Corson,46041|46031,False,False,America/Denver,"(45.42387, -101.10696)",152.5577974418151,1404101.0,37_0_yes,47.23920282249175,-99.28627490823746,200.0
57657,45.51599,-100.7776,Trail City,SD,South Dakota,True,,195.0,0.4,46031,Corson,"{""46031"": 77.87, ""46041"": 22.13}",Corson|Dewey,46031|46041,False,False,America/Denver,"(45.51599, -100.7776)",138.66378631497284,1404101.0,37_0_yes,47.23920282249175,-99.28627490823746,200.0
57658,45.65744,-100.55835,Wakpala,SD,South Dakota,True,,409.0,2.5,46031,Corson,"{""46031"": 100}",Corson,46031,False,False,America/Denver,"(45.65744, -100.55835)",124.94159441434905,1404101.0,37_0_yes,47.23920282249175,-99.28627490823746,200.0
57660,45.83052,-101.53311,Watauga,SD,South Dakota,True,,65.0,0.1,46031,Corson,"{""46031"": 87.98, ""38085"": 12.02}",Corson|Sioux,46031|38085,False,False,America/Denver,"(45.83052, -101.53311)",144.48072457019333,1404101.0,37_0_yes,47.23920282249175,-99.28627490823746,200.0
57661,45.27005,-100.96433,Whitehorse,SD,South Dakota,True,,127.0,1.7,46041,Dewey,"{""46041"": 100}",Dewey,46041,False,False,America/Denver,"(45.27005, -100.96433)",157.90892639434927,1404101.0,37_0_yes,47.23920282249175,-99.28627490823746,200.0
57741,44.41044,-103.47273,Fort Meade,SD,South Dakota,True,,154.0,361.7,46093,Meade,"{""46093"": 100}",Meade,46093,False,False,America/Denver,"(44.41044, -103.47273)",280.68990387901,1404101.0,37_0_yes,47.23920282249175,-99.28627490823746,200.0
57748,44.58484,-102.01082,Howes,SD,South Dakota,True,,292.0,0.3,46093,Meade,"{""46093"": 55.59, ""46137"": 44.41}",Meade|Ziebach,46093|46137,False,False,America/Denver,"(44.58484, -102.01082)",225.33383789775868,1404101.0,37_0_yes,47.23920282249175,-99.28627490823746,200.0
57755,45.83763,-103.35784,Ludlow,SD,South Dakota,True,,107.0,0.2,46063,Harding,"{""46063"": 100}",Harding,46063,False,False,America/Denver,"(45.83763, -103.35784)",216.35054523703167,1404101.0,37_0_yes,47.23920282249175,-99.28627490823746,200.0
57758,44.98737,-102.75985,Mud Butte,SD,South Dakota,True,,67.0,0.0,46093,Meade,"{""46093"": 63.27, ""46019"": 18.88, ""46105"": 17.85}",Meade|Butte|Perkins,46093|46019|46105,False,False,America/Denver,"(44.98737, -102.75985)",227.7478765301619,1404101.0,37_0_yes,47.23920282249175,-99.28627490823746,200.0
