zip,lat,lng,city,state_id,state_name,zcta,parent_zcta,population,density,county_fips,county_name,county_weights,county_names_all,county_fips_all,imprecise,military,timezone,Coord,distance_miles,market_total_population,market_id,market_center_lat,market_center_lng,radius_miles
39429,31.25052,-89.76337,Columbia,MS,Mississippi,True,,16540.0,21.4,28091,Marion,"{""28091"": 95.96, ""28073"": 2.69, ""28065"": 1.35}",Marion|Lamar|Jefferson Davis,28091|28073|28065,False,False,America/Chicago,"(31.25052, -89.76337)",19.051782470374977,85780.0,1031_0_no,31.00725129122634,-89.61171493124448,20.0
39455,31.01084,-89.46931,Lumberton,MS,Mississippi,True,,10126.0,10.6,28073,Lamar,"{""28073"": 45.91, ""28109"": 31.17, ""28035"": 10.67, ""28131"": 8.47, ""28091"": 3.78}",Lamar|Pearl River|Forrest|Stone|Marion,28073|28109|28035|28131|28091,False,False,America/Chicago,"(31.01084, -89.46931)",8.436721641161956,85780.0,1031_0_no,31.00725129122634,-89.61171493124448,20.0
39470,30.81602,-89.57581,Poplarville,MS,Mississippi,True,,11978.0,10.8,28109,Pearl River,"{""28109"": 98.8, ""28045"": 1.08, ""28131"": 0.12}",Pearl River|Hancock|Stone,28109|28045|28131,False,False,America/Chicago,"(30.81602, -89.57581)",13.383156966087236,85780.0,1031_0_no,31.00725129122634,-89.61171493124448,20.0
39475,31.15496,-89.4129,Purvis,MS,Mississippi,True,,13915.0,33.9,28073,Lamar,"{""28073"": 82.94, ""28035"": 17.06}",Lamar|Forrest,28073|28035,False,False,America/Chicago,"(31.15496, -89.4129)",15.57448402810308,85780.0,1031_0_no,31.00725129122634,-89.61171493124448,20.0
39478,31.05306,-89.85768,Sandy Hook,MS,Mississippi,True,,1961.0,10.3,28091,Marion,"{""28091"": 54.06, ""28147"": 45.94}",Marion|Walthall,28091|28147,False,False,America/Chicago,"(31.05306, -89.85768)",14.902561024945985,85780.0,1031_0_no,31.00725129122634,-89.61171493124448,20.0
39483,31.23515,-89.92674,Foxworth,MS,Mississippi,True,,5943.0,15.4,28091,Marion,"{""28091"": 96.69, ""28147"": 3.31}",Marion|Walthall,28091|28147,False,False,America/Chicago,"(31.23515, -89.92674)",24.395727789243107,85780.0,1031_0_no,31.00725129122634,-89.61171493124448,20.0
70426,30.93142,-89.85807,Angie,LA,Louisiana,True,,5990.0,18.6,22117,Washington,"{""22117"": 100}",Washington,22117,False,False,America/Chicago,"(30.93142, -89.85807)",15.506930987216137,85780.0,1031_0_no,31.00725129122634,-89.61171493124448,20.0
70427,30.74587,-89.9125,Bogalusa,LA,Louisiana,True,,19327.0,52.8,22117,Washington,"{""22117"": 90.01, ""22103"": 9.99}",Washington|St. Tammany,22117|22103,False,False,America/Chicago,"(30.74587, -89.9125)",25.38321119284868,85780.0,1031_0_no,31.00725129122634,-89.61171493124448,20.0
