zip,lat,lng,city,state_id,state_name,zcta,parent_zcta,population,density,county_fips,county_name,county_weights,county_names_all,county_fips_all,imprecise,military,timezone,Coord,distance_miles,market_total_population,market_id,market_center_lat,market_center_lng,radius_miles
85137,33.11275,-110.98353,Kearny,AZ,Arizona,True,,2772.0,4.6,4021,Pinal,"{""04021"": 100}",Pinal,04021,False,False,America/Phoenix,"(33.11275, -110.98353)",20.357001979518497,29278.0,1407_0_no,33.38236883977228,-110.8414813160911,20.0
85173,33.26827,-111.13651,Superior,AZ,Arizona,True,,3155.0,25.5,4021,Pinal,"{""04021"": 100}",Pinal,04021,False,False,America/Phoenix,"(33.26827, -111.13651)",18.768546734801795,29278.0,1407_0_no,33.38236883977228,-110.8414813160911,20.0
85501,33.54569,-110.74788,Globe,AZ,Arizona,True,,13073.0,9.2,4007,Gila,"{""04007"": 100}",Gila,04007,False,False,America/Phoenix,"(33.54569, -110.74788)",12.507835357847023,29278.0,1407_0_no,33.38236883977228,-110.8414813160911,20.0
85539,33.33282,-110.92883,Miami,AZ,Arizona,True,,4146.0,20.7,4007,Gila,"{""04007"": 75.19, ""04021"": 24.81}",Gila|Pinal,04007|04021,False,False,America/Phoenix,"(33.33282, -110.92883)",6.093561256081294,29278.0,1407_0_no,33.38236883977228,-110.8414813160911,20.0
85545,33.53759,-111.11955,Roosevelt,AZ,Arizona,True,,607.0,0.6,4007,Gila,"{""04007"": 50.81, ""04013"": 49.19}",Gila|Maricopa,04007|04013,False,False,America/Phoenix,"(33.53759, -111.11955)",19.285654259893743,29278.0,1407_0_no,33.38236883977228,-110.8414813160911,20.0
85550,33.54833,-110.51244,San Carlos,AZ,Arizona,True,,5525.0,5.0,4007,Gila,"{""04007"": 100}",Gila,04007,False,False,America/Phoenix,"(33.54833, -110.51244)",22.162638812402832,29278.0,1407_0_no,33.38236883977228,-110.8414813160911,20.0
