zip,lat,lng,city,state_id,state_name,zcta,parent_zcta,population,density,county_fips,county_name,county_weights,county_names_all,county_fips_all,imprecise,military,timezone,Coord,distance_miles,market_total_population,market_id,market_center_lat,market_center_lng,radius_miles
30004,34.14352,-84.29926,Alpharetta,GA,Georgia,True,,66538.0,443.4,13121,Fulton,"{""13121"": 68.46, ""13117"": 15.9, ""13057"": 15.64}",Fulton|Forsyth|Cherokee,13121|13117|13057,False,False,America/New_York,"(34.14352, -84.29926)",10.257645429769028,1680384.0,1458_0_yes,34.17638211408845,-84.47422374025943,20.0
30005,34.08582,-84.22158,Alpharetta,GA,Georgia,True,,40213.0,983.3,13121,Fulton,"{""13121"": 70.51, ""13117"": 29.49}",Fulton|Forsyth,13121|13117,False,False,America/New_York,"(34.08582, -84.22158)",15.745979147916069,1680384.0,1458_0_yes,34.17638211408845,-84.47422374025943,20.0
30008,33.8966,-84.58847,Marietta,GA,Georgia,True,,34709.0,1404.5,13067,Cobb,"{""13067"": 100}",Cobb,13067,False,False,America/New_York,"(33.8966, -84.58847)",20.40785033632786,1680384.0,1458_0_yes,34.17638211408845,-84.47422374025943,20.0
30009,34.07711,-84.3029,Alpharetta,GA,Georgia,True,,18625.0,789.6,13121,Fulton,"{""13121"": 100}",Fulton,13121,False,False,America/New_York,"(34.07711, -84.3029)",11.961003904227615,1680384.0,1458_0_yes,34.17638211408845,-84.47422374025943,20.0
30022,34.02745,-84.24643,Alpharetta,GA,Georgia,True,,69135.0,1127.5,13121,Fulton,"{""13121"": 100}",Fulton,13121,False,False,America/New_York,"(34.02745, -84.24643)",16.605325244619177,1680384.0,1458_0_yes,34.17638211408845,-84.47422374025943,20.0
30028,34.28928,-84.17985,Cumming,GA,Georgia,True,,30609.0,236.5,13117,Forsyth,"{""13117"": 92.71, ""13057"": 7.29}",Forsyth|Cherokee,13117|13057,False,False,America/New_York,"(34.28928, -84.17985)",18.53683835198265,1680384.0,1458_0_yes,34.17638211408845,-84.47422374025943,20.0
30040,34.21622,-84.17978,Cumming,GA,Georgia,True,,72858.0,487.8,13117,Forsyth,"{""13117"": 97.84, ""13057"": 2.16}",Forsyth|Cherokee,13117|13057,False,False,America/New_York,"(34.21622, -84.17978)",17.050604082928164,1680384.0,1458_0_yes,34.17638211408845,-84.47422374025943,20.0
30060,33.9209,-84.543,Marietta,GA,Georgia,True,,40055.0,997.5,13067,Cobb,"{""13067"": 100}",Cobb,13067,False,False,America/New_York,"(33.9209, -84.543)",18.085911794843458,1680384.0,1458_0_yes,34.17638211408845,-84.47422374025943,20.0
30062,33.99977,-84.46899,Marietta,GA,Georgia,True,,63906.0,953.6,13067,Cobb,"{""13067"": 100}",Cobb,13067,False,False,America/New_York,"(33.99977, -84.46899)",12.206409232355439,1680384.0,1458_0_yes,34.17638211408845,-84.47422374025943,20.0
30064,33.93809,-84.61691,Marietta,GA,Georgia,True,,49849.0,626.5,13067,Cobb,"{""13067"": 100}",Cobb,13067,False,False,America/New_York,"(33.93809, -84.61691)",18.379015436857163,1680384.0,1458_0_yes,34.17638211408845,-84.47422374025943,20.0
30066,34.034,-84.50798,Marietta,GA,Georgia,True,,57953.0,823.9,13067,Cobb,"{""13067"": 100}",Cobb,13067,False,False,America/New_York,"(34.034, -84.50798)",10.025427995303923,1680384.0,1458_0_yes,34.17638211408845,-84.47422374025943,20.0
30067,33.93286,-84.46187,Marietta,GA,Georgia,True,,46482.0,1248.9,13067,Cobb,"{""13067"": 100}",Cobb,13067,False,False,America/New_York,"(33.93286, -84.46187)",16.8406300735596,1680384.0,1458_0_yes,34.17638211408845,-84.47422374025943,20.0
30068,33.96887,-84.43273,Marietta,GA,Georgia,True,,32798.0,879.2,13067,Cobb,"{""13067"": 100}",Cobb,13067,False,False,America/New_York,"(33.96887, -84.43273)",14.533058066573748,1680384.0,1458_0_yes,34.17638211408845,-84.47422374025943,20.0
30071,33.93977,-84.20561,Norcross,GA,Georgia,True,,25865.0,825.5,13135,Gwinnett,"{""13135"": 100}",Gwinnett,13135,False,False,America/New_York,"(33.93977, -84.20561)",22.442972860808624,1680384.0,1458_0_yes,34.17638211408845,-84.47422374025943,20.0
30075,34.05282,-84.38739,Roswell,GA,Georgia,True,,55945.0,726.5,13121,Fulton,"{""13121"": 84.27, ""13067"": 14.03, ""13057"": 1.7}",Fulton|Cobb|Cherokee,13121|13067|13057,False,False,America/New_York,"(34.05282, -84.38739)",9.877201118818471,1680384.0,1458_0_yes,34.17638211408845,-84.47422374025943,20.0
30076,34.02777,-84.31723,Roswell,GA,Georgia,True,,46739.0,1126.0,13121,Fulton,"{""13121"": 100}",Fulton,13121,False,False,America/New_York,"(34.02777, -84.31723)",13.6421943011264,1680384.0,1458_0_yes,34.17638211408845,-84.47422374025943,20.0
30092,33.97145,-84.23537,Peachtree Corners,GA,Georgia,True,,37025.0,1279.0,13135,Gwinnett,"{""13135"": 98.52, ""13121"": 1.48}",Gwinnett|Fulton,13135|13121,False,False,America/New_York,"(33.97145, -84.23537)",19.68134176929744,1680384.0,1458_0_yes,34.17638211408845,-84.47422374025943,20.0
30093,33.90879,-84.17839,Norcross,GA,Georgia,True,,53896.0,1733.7,13135,Gwinnett,"{""13135"": 100}",Gwinnett,13135,False,False,America/New_York,"(33.90879, -84.17839)",25.073966981634236,1680384.0,1458_0_yes,34.17638211408845,-84.47422374025943,20.0
30096,33.97691,-84.14791,Duluth,GA,Georgia,True,,68570.0,1163.9,13135,Gwinnett,"{""13135"": 100}",Gwinnett,13135,False,False,America/New_York,"(33.97691, -84.14791)",23.209759119542838,1680384.0,1458_0_yes,34.17638211408845,-84.47422374025943,20.0
30097,34.0271,-84.14702,Duluth,GA,Georgia,True,,45894.0,753.3,13121,Fulton,"{""13121"": 49.66, ""13135"": 43.03, ""13117"": 7.31}",Fulton|Gwinnett|Forsyth,13121|13135|13117,False,False,America/New_York,"(34.0271, -84.14702)",21.37353923346412,1680384.0,1458_0_yes,34.17638211408845,-84.47422374025943,20.0
30101,34.04355,-84.71244,Acworth,GA,Georgia,True,,58844.0,554.7,13067,Cobb,"{""13067"": 68.59, ""13223"": 25.3, ""13015"": 5.54, ""13057"": 0.57}",Cobb|Paulding|Bartow|Cherokee,13067|13223|13015|13057,False,False,America/New_York,"(34.04355, -84.71244)",16.429950451683137,1680384.0,1458_0_yes,34.17638211408845,-84.47422374025943,20.0
30102,34.10857,-84.64622,Acworth,GA,Georgia,True,,42232.0,518.8,13057,Cherokee,"{""13057"": 46.5, ""13015"": 43.42, ""13067"": 10.08}",Cherokee|Bartow|Cobb,13057|13015|13067,False,False,America/New_York,"(34.10857, -84.64622)",10.89454340638739,1680384.0,1458_0_yes,34.17638211408845,-84.47422374025943,20.0
30107,34.3352,-84.34744,Ball Ground,GA,Georgia,True,,14083.0,50.3,13057,Cherokee,"{""13057"": 80.47, ""13227"": 14.97, ""13117"": 4.56}",Cherokee|Pickens|Forsyth,13057|13227|13117,False,False,America/New_York,"(34.3352, -84.34744)",13.146689567361172,1680384.0,1458_0_yes,34.17638211408845,-84.47422374025943,20.0
30114,34.24433,-84.5393,Canton,GA,Georgia,True,,57013.0,231.3,13057,Cherokee,"{""13057"": 100}",Cherokee,13057,False,False,America/New_York,"(34.24433, -84.5393)",5.988909497397703,1680384.0,1458_0_yes,34.17638211408845,-84.47422374025943,20.0
30115,34.21296,-84.40138,Canton,GA,Georgia,True,,44811.0,236.4,13057,Cherokee,"{""13057"": 100}",Cherokee,13057,False,False,America/New_York,"(34.21296, -84.40138)",4.870070878655945,1680384.0,1458_0_yes,34.17638211408845,-84.47422374025943,20.0
30121,34.21073,-84.77802,Cartersville,GA,Georgia,True,,25309.0,169.4,13015,Bartow,"{""13015"": 100}",Bartow,13015,False,False,America/New_York,"(34.21073, -84.77802)",17.523454173196914,1680384.0,1458_0_yes,34.17638211408845,-84.47422374025943,20.0
30137,34.11657,-84.7657,Emerson,GA,Georgia,True,,2060.0,249.2,13015,Bartow,"{""13015"": 100}",Bartow,13015,False,False,America/New_York,"(34.11657, -84.7657)",17.171910322307017,1680384.0,1458_0_yes,34.17638211408845,-84.47422374025943,20.0
30139,34.43346,-84.70575,Fairmount,GA,Georgia,True,,4147.0,22.1,13129,Gordon,"{""13129"": 60.24, ""13227"": 21.71, ""13015"": 18.05}",Gordon|Pickens|Bartow,13129|13227|13015,False,False,America/New_York,"(34.43346, -84.70575)",22.13862436821368,1680384.0,1458_0_yes,34.17638211408845,-84.47422374025943,20.0
30143,34.46198,-84.42385,Jasper,GA,Georgia,True,,22726.0,60.4,13227,Pickens,"{""13227"": 88.1, ""13085"": 9.89, ""13057"": 2.01}",Pickens|Dawson|Cherokee,13227|13085|13057,False,False,America/New_York,"(34.46198, -84.42385)",19.941209352682076,1680384.0,1458_0_yes,34.17638211408845,-84.47422374025943,20.0
30144,34.03672,-84.59174,Kennesaw,GA,Georgia,True,,59085.0,1030.9,13067,Cobb,"{""13067"": 100}",Cobb,13067,False,False,America/New_York,"(34.03672, -84.59174)",11.760782048674683,1680384.0,1458_0_yes,34.17638211408845,-84.47422374025943,20.0
30148,34.46009,-84.2648,Marble Hill,GA,Georgia,True,,637.0,24.9,13085,Dawson,"{""13085"": 54.36, ""13227"": 45.64}",Dawson|Pickens,13085|13227,False,False,America/New_York,"(34.46009, -84.2648)",22.958111768612266,1680384.0,1458_0_yes,34.17638211408845,-84.47422374025943,20.0
30152,33.99435,-84.6474,Kennesaw,GA,Georgia,True,,44115.0,762.9,13067,Cobb,"{""13067"": 100}",Cobb,13067,False,False,America/New_York,"(33.99435, -84.6474)",16.012156214874494,1680384.0,1458_0_yes,34.17638211408845,-84.47422374025943,20.0
30171,34.36122,-84.73584,Rydal,GA,Georgia,True,,2893.0,27.1,13015,Bartow,"{""13015"": 85.86, ""13129"": 14.14}",Bartow|Gordon,13015|13129,False,False,America/New_York,"(34.36122, -84.73584)",19.653135725847076,1680384.0,1458_0_yes,34.17638211408845,-84.47422374025943,20.0
30177,34.40705,-84.37401,Tate,GA,Georgia,True,,1759.0,187.2,13227,Pickens,"{""13227"": 100}",Pickens,13227,False,False,America/New_York,"(34.40705, -84.37401)",16.933187372096693,1680384.0,1458_0_yes,34.17638211408845,-84.47422374025943,20.0
30183,34.33854,-84.59762,Waleska,GA,Georgia,True,,6772.0,41.6,13057,Cherokee,"{""13057"": 95.98, ""13227"": 3.61, ""13015"": 0.41}",Cherokee|Pickens|Bartow,13057|13227|13015,False,False,America/New_York,"(34.33854, -84.59762)",13.235840580416724,1680384.0,1458_0_yes,34.17638211408845,-84.47422374025943,20.0
30184,34.26042,-84.71603,White,GA,Georgia,True,,6535.0,33.1,13015,Bartow,"{""13015"": 89.51, ""13057"": 10.49}",Bartow|Cherokee,13015|13057,False,False,America/New_York,"(34.26042, -84.71603)",14.98581509350924,1680384.0,1458_0_yes,34.17638211408845,-84.47422374025943,20.0
30188,34.11873,-84.45526,Woodstock,GA,Georgia,True,,63869.0,564.6,13057,Cherokee,"{""13057"": 99.08, ""13067"": 0.92}",Cherokee|Cobb,13057|13067,False,False,America/New_York,"(34.11873, -84.45526)",4.128340159200776,1680384.0,1458_0_yes,34.17638211408845,-84.47422374025943,20.0
30189,34.12835,-84.57148,Woodstock,GA,Georgia,True,,39522.0,793.7,13057,Cherokee,"{""13057"": 100}",Cherokee,13057,False,False,America/New_York,"(34.12835, -84.57148)",6.475932072432254,1680384.0,1458_0_yes,34.17638211408845,-84.47422374025943,20.0
30328,33.93194,-84.38617,Atlanta,GA,Georgia,True,,38685.0,1172.1,13121,Fulton,"{""13121"": 100}",Fulton,13121,False,False,America/New_York,"(33.93194, -84.38617)",17.625473731635267,1680384.0,1458_0_yes,34.17638211408845,-84.47422374025943,20.0
30338,33.9437,-84.31801,Atlanta,GA,Georgia,True,,35680.0,1397.9,13089,DeKalb,"{""13089"": 98.19, ""13121"": 1.81}",DeKalb|Fulton,13089|13121,False,False,America/New_York,"(33.9437, -84.31801)",18.39614934498764,1680384.0,1458_0_yes,34.17638211408845,-84.47422374025943,20.0
30340,33.89808,-84.25113,Atlanta,GA,Georgia,True,,29069.0,1360.8,13089,DeKalb,"{""13089"": 80.81, ""13135"": 19.19}",DeKalb|Gwinnett,13089|13135,False,False,America/New_York,"(33.89808, -84.25113)",23.084807829193146,1680384.0,1458_0_yes,34.17638211408845,-84.47422374025943,20.0
30341,33.88711,-84.28992,Atlanta,GA,Georgia,True,,32134.0,1241.1,13089,DeKalb,"{""13089"": 100}",DeKalb,13089,False,False,America/New_York,"(33.88711, -84.28992)",22.601787672946152,1680384.0,1458_0_yes,34.17638211408845,-84.47422374025943,20.0
30346,33.92425,-84.33881,Atlanta,GA,Georgia,True,,5008.0,1915.4,13089,DeKalb,"{""13089"": 100}",DeKalb,13089,False,False,America/New_York,"(33.92425, -84.33881)",19.067607567364742,1680384.0,1458_0_yes,34.17638211408845,-84.47422374025943,20.0
30350,33.97881,-84.33366,Atlanta,GA,Georgia,True,,38785.0,1187.9,13121,Fulton,"{""13121"": 99.42, ""13089"": 0.58}",Fulton|DeKalb,13121|13089,False,False,America/New_York,"(33.97881, -84.33366)",15.844815005241134,1680384.0,1458_0_yes,34.17638211408845,-84.47422374025943,20.0
30360,33.93198,-84.27302,Atlanta,GA,Georgia,True,,16099.0,1016.9,13089,DeKalb,"{""13089"": 72.72, ""13135"": 27.28}",DeKalb|Gwinnett,13089|13135,False,False,America/New_York,"(33.93198, -84.27302)",20.44054246592956,1680384.0,1458_0_yes,34.17638211408845,-84.47422374025943,20.0
30534,34.43085,-84.1439,Dawsonville,GA,Georgia,True,,30848.0,55.9,13085,Dawson,"{""13085"": 85.36, ""13187"": 9.71, ""13117"": 3.0, ""13227"": 1.27, ""13057"": 0.66}",Dawson|Lumpkin|Forsyth|Pickens|Cherokee,13085|13187|13117|13227|13057,False,False,America/New_York,"(34.43085, -84.1439)",25.779398368611588,1680384.0,1458_0_yes,34.17638211408845,-84.47422374025943,20.0
