zip,lat,lng,city,state_id,state_name,zcta,parent_zcta,population,density,county_fips,county_name,county_weights,county_names_all,county_fips_all,imprecise,military,timezone,Coord,distance_miles,market_total_population,market_id,market_center_lat,market_center_lng,radius_miles
28016,35.31729,-81.28737,Bessemer City,NC,North Carolina,True,,14278.0,128.3,37071,Gaston,"{""37071"": 100}",Gaston,37071,False,False,America/New_York,"(35.31729, -81.28737)",26.76399253865088,256518.0,1619_0_no,35.03652982751949,-81.61386998534749,20.0
28017,35.24708,-81.67059,Boiling Springs,NC,North Carolina,True,,627.0,1409.5,37045,Cleveland,"{""37045"": 100}",Cleveland,37045,False,False,America/New_York,"(35.24708, -81.67059)",14.89642367815746,256518.0,1619_0_no,35.03652982751949,-81.61386998534749,20.0
28043,35.31301,-81.86971,Forest City,NC,North Carolina,True,,21275.0,123.9,37161,Rutherford,"{""37161"": 100}",Rutherford,37161,False,False,America/New_York,"(35.31301, -81.86971)",23.95196868034345,256518.0,1619_0_no,35.03652982751949,-81.61386998534749,20.0
28073,35.19776,-81.48126,Grover,NC,North Carolina,True,,6185.0,92.8,37045,Cleveland,"{""37045"": 100}",Cleveland,37045,False,False,America/New_York,"(35.19776, -81.48126)",13.426421606735632,256518.0,1619_0_no,35.03652982751949,-81.61386998534749,20.0
28076,35.25904,-81.79074,Henrietta,NC,North Carolina,True,,819.0,302.5,37161,Rutherford,"{""37161"": 100}",Rutherford,37161,False,False,America/New_York,"(35.25904, -81.79074)",18.335943455864783,256518.0,1619_0_no,35.03652982751949,-81.61386998534749,20.0
28086,35.24381,-81.37028,Kings Mountain,NC,North Carolina,True,,26490.0,113.0,37045,Cleveland,"{""37045"": 74.19, ""37071"": 25.81}",Cleveland|Gaston,37045|37071,False,False,America/New_York,"(35.24381, -81.37028)",19.86282852820547,256518.0,1619_0_no,35.03652982751949,-81.61386998534749,20.0
28089,35.3202,-81.66067,Lattimore,NC,North Carolina,True,,219.0,202.6,37045,Cleveland,"{""37045"": 100}",Cleveland,37045,False,False,America/New_York,"(35.3202, -81.66067)",19.77714109883888,256518.0,1619_0_no,35.03652982751949,-81.61386998534749,20.0
28114,35.23,-81.74814,Mooresboro,NC,North Carolina,True,,7194.0,42.3,37045,Cleveland,"{""37045"": 54.43, ""37161"": 45.57}",Cleveland|Rutherford,37045|37161,False,False,America/New_York,"(35.23, -81.74814)",15.370529986082436,256518.0,1619_0_no,35.03652982751949,-81.61386998534749,20.0
28152,35.24188,-81.59289,Shelby,NC,North Carolina,True,,23681.0,115.0,37045,Cleveland,"{""37045"": 100}",Cleveland,37045,False,False,America/New_York,"(35.24188, -81.59289)",14.237777996438933,256518.0,1619_0_no,35.03652982751949,-81.61386998534749,20.0
29302,34.89399,-81.84151,Spartanburg,SC,South Carolina,True,,16727.0,127.3,45083,Spartanburg,"{""45083"": 100}",Spartanburg,45083,False,False,America/New_York,"(34.89399, -81.84151)",16.221331962479116,256518.0,1619_0_no,35.03652982751949,-81.61386998534749,20.0
29306,34.89338,-81.92177,Spartanburg,SC,South Carolina,True,,17388.0,344.0,45083,Spartanburg,"{""45083"": 100}",Spartanburg,45083,False,False,America/New_York,"(34.89338, -81.92177)",20.04418972174731,256518.0,1619_0_no,35.03652982751949,-81.61386998534749,20.0
29307,34.98381,-81.83146,Spartanburg,SC,South Carolina,True,,18583.0,160.4,45083,Spartanburg,"{""45083"": 89.27, ""45021"": 10.73}",Spartanburg|Cherokee,45083|45021,False,False,America/New_York,"(34.98381, -81.83146)",12.841103397422783,256518.0,1619_0_no,35.03652982751949,-81.61386998534749,20.0
29323,35.12911,-81.90902,Chesnee,SC,South Carolina,True,,14649.0,79.7,45083,Spartanburg,"{""45083"": 87.16, ""45021"": 12.84}",Spartanburg|Cherokee,45083|45021,False,False,America/New_York,"(35.12911, -81.90902)",17.87192899099037,256518.0,1619_0_no,35.03652982751949,-81.61386998534749,20.0
29324,34.98944,-81.82523,Clifton,SC,South Carolina,True,,264.0,214.4,45083,Spartanburg,"{""45083"": 100}",Spartanburg,45083,False,False,America/New_York,"(34.98944, -81.82523)",12.395288581120319,256518.0,1619_0_no,35.03652982751949,-81.61386998534749,20.0
29329,34.99262,-81.83682,Converse,SC,South Carolina,True,,214.0,269.3,45083,Spartanburg,"{""45083"": 100}",Spartanburg,45083,False,False,America/New_York,"(34.99262, -81.83682)",12.975934386233321,256518.0,1619_0_no,35.03652982751949,-81.61386998534749,20.0
29330,35.05362,-81.80463,Cowpens,SC,South Carolina,True,,9316.0,100.4,45021,Cherokee,"{""45021"": 52.45, ""45083"": 47.55}",Cherokee|Spartanburg,45021|45083,False,False,America/New_York,"(35.05362, -81.80463)",10.85510162873836,256518.0,1619_0_no,35.03652982751949,-81.61386998534749,20.0
29333,34.97092,-81.91069,Drayton,SC,South Carolina,True,,416.0,396.6,45083,Spartanburg,"{""45083"": 100}",Spartanburg,45083,False,False,America/New_York,"(34.97092, -81.91069)",17.399558278677954,256518.0,1619_0_no,35.03652982751949,-81.61386998534749,20.0
29340,34.98225,-81.59427,Gaffney,SC,South Carolina,True,,20327.0,48.0,45021,Cherokee,"{""45021"": 100}",Cherokee,45021,False,False,America/New_York,"(34.98225, -81.59427)",3.910965408055201,256518.0,1619_0_no,35.03652982751949,-81.61386998534749,20.0
29341,35.1184,-81.71321,Gaffney,SC,South Carolina,True,,21213.0,87.9,45021,Cherokee,"{""45021"": 100}",Cherokee,45021,False,False,America/New_York,"(35.1184, -81.71321)",7.971835564619471,256518.0,1619_0_no,35.03652982751949,-81.61386998534749,20.0
29346,34.94524,-81.83627,Glendale,SC,South Carolina,True,,312.0,596.1,45083,Spartanburg,"{""45083"": 100}",Spartanburg,45083,False,False,America/New_York,"(34.94524, -81.83627)",14.08057748130102,256518.0,1619_0_no,35.03652982751949,-81.61386998534749,20.0
29353,34.83064,-81.65636,Jonesville,SC,South Carolina,True,,3793.0,16.0,45087,Union,"{""45087"": 100}",Union,45087,False,False,America/New_York,"(34.83064, -81.65636)",14.427795526921052,256518.0,1619_0_no,35.03652982751949,-81.61386998534749,20.0
29364,34.78846,-81.46202,Lockhart,SC,South Carolina,True,,500.0,247.8,45087,Union,"{""45087"": 99.72, ""45023"": 0.28}",Union|Chester,45087|45023,False,False,America/New_York,"(34.78846, -81.46202)",19.178132904222373,256518.0,1619_0_no,35.03652982751949,-81.61386998534749,20.0
29368,35.08262,-81.86281,Mayo,SC,South Carolina,True,,112.0,146.3,45083,Spartanburg,"{""45083"": 100}",Spartanburg,45083,False,False,America/New_York,"(35.08262, -81.86281)",14.434896282908435,256518.0,1619_0_no,35.03652982751949,-81.61386998534749,20.0
29372,34.9059,-81.70878,Pacolet,SC,South Carolina,True,,4709.0,42.7,45021,Cherokee,"{""45021"": 42.37, ""45083"": 31.87, ""45087"": 25.76}",Cherokee|Spartanburg|Union,45021|45083|45087,False,False,America/New_York,"(34.9059, -81.70878)",10.504198583647367,256518.0,1619_0_no,35.03652982751949,-81.61386998534749,20.0
29373,34.92442,-81.74276,Pacolet Mills,SC,South Carolina,True,,355.0,433.7,45083,Spartanburg,"{""45083"": 100}",Spartanburg,45083,False,False,America/New_York,"(34.92442, -81.74276)",10.641545843463785,256518.0,1619_0_no,35.03652982751949,-81.61386998534749,20.0
29374,34.7861,-81.84854,Pauline,SC,South Carolina,True,,3209.0,25.4,45083,Spartanburg,"{""45083"": 90.26, ""45087"": 9.74}",Spartanburg|Union,45083|45087,False,False,America/New_York,"(34.7861, -81.84854)",21.821658229521592,256518.0,1619_0_no,35.03652982751949,-81.61386998534749,20.0
29376,34.81564,-81.94921,Roebuck,SC,South Carolina,True,,7760.0,77.7,45083,Spartanburg,"{""45083"": 100}",Spartanburg,45083,False,False,America/New_York,"(34.81564, -81.94921)",24.36807622954433,256518.0,1619_0_no,35.03652982751949,-81.61386998534749,20.0
29702,35.11674,-81.47884,Blacksburg,SC,South Carolina,True,,10209.0,42.2,45021,Cherokee,"{""45021"": 85.58, ""45091"": 14.42}",Cherokee|York,45021|45091,False,False,America/New_York,"(35.11674, -81.47884)",9.434561244819738,256518.0,1619_0_no,35.03652982751949,-81.61386998534749,20.0
29717,34.95119,-81.44304,Hickory Grove,SC,South Carolina,True,,1662.0,17.2,45091,York,"{""45091"": 100}",York,45091,False,False,America/New_York,"(34.95119, -81.44304)",11.325383046441296,256518.0,1619_0_no,35.03652982751949,-81.61386998534749,20.0
29742,34.86939,-81.38155,Sharon,SC,South Carolina,True,,2594.0,12.4,45091,York,"{""45091"": 83.94, ""45023"": 16.06}",York|Chester,45091|45023,False,False,America/New_York,"(34.86939, -81.38155)",17.50579789249372,256518.0,1619_0_no,35.03652982751949,-81.61386998534749,20.0
29743,35.02865,-81.40772,Smyrna,SC,South Carolina,True,,1438.0,14.9,45091,York,"{""45091"": 84.54, ""45021"": 15.46}",York|Cherokee,45091|45021,False,False,America/New_York,"(35.02865, -81.40772)",11.675729813024095,256518.0,1619_0_no,35.03652982751949,-81.61386998534749,20.0
