zip,lat,lng,city,state_id,state_name,zcta,parent_zcta,population,density,county_fips,county_name,county_weights,county_names_all,county_fips_all,imprecise,military,timezone,Coord,distance_miles,market_total_population,market_id,market_center_lat,market_center_lng,radius_miles
27048,36.47611,-79.91295,Stoneville,NC,North Carolina,True,,8367.0,38.8,37157,Rockingham,"{""37157"": 98.59, ""51089"": 1.41}",Rockingham|Henry,37157|51089,False,False,America/New_York,"(36.47611, -79.91295)",28.1656905107786,615736.0,1782_0_no,36.18718664943336,-79.5559802465908,20.0
27201,36.03258,-79.48418,Alamance,NC,North Carolina,True,,82.0,144.9,37001,Alamance,"{""37001"": 100}",Alamance,37001,False,False,America/New_York,"(36.03258, -79.48418)",11.409408076543883,615736.0,1782_0_no,36.18718664943336,-79.5559802465908,20.0
27212,36.46207,-79.27976,Blanch,NC,North Carolina,True,,1923.0,14.4,37033,Caswell,"{""37033"": 100}",Caswell,37033,False,False,America/New_York,"(36.46207, -79.27976)",24.436627834690654,615736.0,1782_0_no,36.18718664943336,-79.5559802465908,20.0
27214,36.21407,-79.68283,Browns Summit,NC,North Carolina,True,,12421.0,93.5,37081,Guilford,"{""37081"": 89.07, ""37157"": 10.93}",Guilford|Rockingham,37081|37157,False,False,America/New_York,"(36.21407, -79.68283)",7.312378894737383,615736.0,1782_0_no,36.18718664943336,-79.5559802465908,20.0
27215,36.03055,-79.48729,Burlington,NC,North Carolina,True,,43187.0,264.4,37001,Alamance,"{""37001"": 88.5, ""37081"": 11.5}",Alamance|Guilford,37001|37081,False,False,America/New_York,"(36.03055, -79.48729)",11.481717924901357,615736.0,1782_0_no,36.18718664943336,-79.5559802465908,20.0
27217,36.19221,-79.38404,Burlington,NC,North Carolina,True,,38587.0,120.9,37001,Alamance,"{""37001"": 82.77, ""37033"": 17.23}",Alamance|Caswell,37001|37033,False,False,America/New_York,"(36.19221, -79.38404)",9.594179869334338,615736.0,1782_0_no,36.18718664943336,-79.5559802465908,20.0
27244,36.21402,-79.48747,Elon,NC,North Carolina,True,,16697.0,119.9,37001,Alamance,"{""37001"": 47.03, ""37033"": 41.59, ""37081"": 11.38}",Alamance|Caswell|Guilford,37001|37033|37081,False,False,America/New_York,"(36.21402, -79.48747)",4.245968003802738,615736.0,1782_0_no,36.18718664943336,-79.5559802465908,20.0
27249,36.16014,-79.58134,Gibsonville,NC,North Carolina,True,,12825.0,82.8,37081,Guilford,"{""37081"": 79.77, ""37001"": 8.89, ""37157"": 8.28, ""37033"": 3.06}",Guilford|Alamance|Rockingham|Caswell,37081|37001|37157|37033,False,False,America/New_York,"(36.16014, -79.58134)",2.343673958309878,615736.0,1782_0_no,36.18718664943336,-79.5559802465908,20.0
27253,35.96239,-79.34581,Graham,NC,North Carolina,True,,31046.0,146.3,37001,Alamance,"{""37001"": 100}",Alamance,37001,False,False,America/New_York,"(35.96239, -79.34581)",19.46782472422572,615736.0,1782_0_no,36.18718664943336,-79.5559802465908,20.0
27258,36.03401,-79.32623,Haw River,NC,North Carolina,True,,7292.0,150.0,37001,Alamance,"{""37001"": 100}",Alamance,37001,False,False,America/New_York,"(36.03401, -79.32623)",16.627614815630157,615736.0,1782_0_no,36.18718664943336,-79.5559802465908,20.0
27283,35.95293,-79.63621,Julian,NC,North Carolina,True,,3007.0,45.1,37081,Guilford,"{""37081"": 98.54, ""37151"": 1.46}",Guilford|Randolph,37081|37151,False,False,America/New_York,"(35.95293, -79.63621)",16.79433811116541,615736.0,1782_0_no,36.18718664943336,-79.5559802465908,20.0
27301,36.11512,-79.66755,McLeansville,NC,North Carolina,True,,8797.0,102.0,37081,Guilford,"{""37081"": 100}",Guilford,37081,False,False,America/New_York,"(36.11512, -79.66755)",7.971098281176062,615736.0,1782_0_no,36.18718664943336,-79.5559802465908,20.0
27302,36.13749,-79.2647,Mebane,NC,North Carolina,True,,31693.0,106.7,37001,Alamance,"{""37001"": 41.03, ""37135"": 35.97, ""37033"": 23.0}",Alamance|Orange|Caswell,37001|37135|37033,False,False,America/New_York,"(36.13749, -79.2647)",16.607176196431997,615736.0,1782_0_no,36.18718664943336,-79.5559802465908,20.0
27313,35.92892,-79.75142,Pleasant Garden,NC,North Carolina,True,,6663.0,92.1,37081,Guilford,"{""37081"": 69.83, ""37151"": 30.17}",Guilford|Randolph,37081|37151,False,False,America/New_York,"(35.92892, -79.75142)",20.918857036540437,615736.0,1782_0_no,36.18718664943336,-79.5559802465908,20.0
27320,36.3434,-79.6599,Reidsville,NC,North Carolina,True,,38318.0,60.4,37157,Rockingham,"{""37157"": 87.72, ""37033"": 12.03, ""37081"": 0.25}",Rockingham|Caswell|Guilford,37157|37033|37081,False,False,America/New_York,"(36.3434, -79.6599)",12.247910240295159,615736.0,1782_0_no,36.18718664943336,-79.5559802465908,20.0
27326,36.45542,-79.55867,Ruffin,NC,North Carolina,True,,3253.0,19.3,37157,Rockingham,"{""37157"": 68.8, ""37033"": 31.2}",Rockingham|Caswell,37157|37033,False,False,America/New_York,"(36.45542, -79.55867)",18.53376415091637,615736.0,1782_0_no,36.18718664943336,-79.5559802465908,20.0
27340,35.94557,-79.31141,Saxapahaw,NC,North Carolina,True,,15.0,16.3,37001,Alamance,"{""37001"": 100}",Alamance,37001,False,False,America/New_York,"(35.94557, -79.31141)",21.570172281296596,615736.0,1782_0_no,36.18718664943336,-79.5559802465908,20.0
27349,35.89845,-79.41202,Snow Camp,NC,North Carolina,True,,5265.0,31.9,37001,Alamance,"{""37001"": 91.34, ""37037"": 8.66}",Alamance|Chatham,37001|37037,False,False,America/New_York,"(35.89845, -79.41202)",21.509974105024433,615736.0,1782_0_no,36.18718664943336,-79.5559802465908,20.0
27358,36.22723,-79.88124,Summerfield,NC,North Carolina,True,,15852.0,116.0,37081,Guilford,"{""37081"": 70.99, ""37157"": 29.01}",Guilford|Rockingham,37081|37157,False,False,America/New_York,"(36.22723, -79.88124)",18.343243594276824,615736.0,1782_0_no,36.18718664943336,-79.5559802465908,20.0
27377,36.03728,-79.60221,Whitsett,NC,North Carolina,True,,8884.0,133.2,37081,Guilford,"{""37081"": 100}",Guilford,37081,False,False,America/New_York,"(36.03728, -79.60221)",10.674167697875214,615736.0,1782_0_no,36.18718664943336,-79.5559802465908,20.0
27379,36.37653,-79.34653,Yanceyville,NC,North Carolina,True,,4898.0,21.3,37033,Caswell,"{""37033"": 100}",Caswell,37033,False,False,America/New_York,"(36.37653, -79.34653)",17.52824636480879,615736.0,1782_0_no,36.18718664943336,-79.5559802465908,20.0
27401,36.06995,-79.76724,Greensboro,NC,North Carolina,True,,23519.0,1567.5,37081,Guilford,"{""37081"": 100}",Guilford,37081,False,False,America/New_York,"(36.06995, -79.76724)",14.304213397876078,615736.0,1782_0_no,36.18718664943336,-79.5559802465908,20.0
27403,36.06406,-79.82538,Greensboro,NC,North Carolina,True,,23410.0,1568.4,37081,Guilford,"{""37081"": 100}",Guilford,37081,False,False,America/New_York,"(36.06406, -79.82538)",17.274792662978225,615736.0,1782_0_no,36.18718664943336,-79.5559802465908,20.0
27405,36.11373,-79.73463,Greensboro,NC,North Carolina,True,,51160.0,629.6,37081,Guilford,"{""37081"": 100}",Guilford,37081,False,False,America/New_York,"(36.11373, -79.73463)",11.184858639795182,615736.0,1782_0_no,36.18718664943336,-79.5559802465908,20.0
27406,35.9982,-79.76686,Greensboro,NC,North Carolina,True,,62757.0,349.3,37081,Guilford,"{""37081"": 100}",Guilford,37081,False,False,America/New_York,"(35.9982, -79.76686)",17.582012823779774,615736.0,1782_0_no,36.18718664943336,-79.5559802465908,20.0
27407,36.01124,-79.87588,Greensboro,NC,North Carolina,True,,53237.0,698.1,37081,Guilford,"{""37081"": 100}",Guilford,37081,False,False,America/New_York,"(36.01124, -79.87588)",21.604053267067407,615736.0,1782_0_no,36.18718664943336,-79.5559802465908,20.0
27408,36.10321,-79.81411,Greensboro,NC,North Carolina,True,,17063.0,857.0,37081,Guilford,"{""37081"": 100}",Guilford,37081,False,False,America/New_York,"(36.10321, -79.81411)",15.527098424442812,615736.0,1782_0_no,36.18718664943336,-79.5559802465908,20.0
27410,36.11826,-79.89223,Greensboro,NC,North Carolina,True,,57466.0,696.2,37081,Guilford,"{""37081"": 100}",Guilford,37081,False,False,America/New_York,"(36.11826, -79.89223)",19.35419961772106,615736.0,1782_0_no,36.18718664943336,-79.5559802465908,20.0
27455,36.18283,-79.80794,Greensboro,NC,North Carolina,True,,28052.0,377.1,37081,Guilford,"{""37081"": 100}",Guilford,37081,False,False,America/New_York,"(36.18283, -79.80794)",14.05408887839596,615736.0,1782_0_no,36.18718664943336,-79.5559802465908,20.0
