zip,lat,lng,city,state_id,state_name,zcta,parent_zcta,population,density,county_fips,county_name,county_weights,county_names_all,county_fips_all,imprecise,military,timezone,Coord,distance_miles,market_total_population,market_id,market_center_lat,market_center_lng,radius_miles
24244,36.71075,-82.79785,Duffield,VA,Virginia,True,,6085.0,13.9,51169,Scott,"{""51169"": 82.7, ""51105"": 17.3}",Scott|Lee,51169|51105,False,False,America/New_York,"(36.71075, -82.79785)",19.72777402136491,329338.0,1791_0_yes,36.48480384016817,-82.58041934353523,20.0
24250,36.75752,-82.58705,Fort Blackmore,VA,Virginia,True,,1217.0,8.2,51169,Scott,"{""51169"": 100}",Scott,51169,False,False,America/New_York,"(36.75752, -82.58705)",18.84647913711189,329338.0,1791_0_yes,36.48480384016817,-82.58041934353523,20.0
24251,36.65807,-82.60582,Gate City,VA,Virginia,True,,7647.0,25.2,51169,Scott,"{""51169"": 100}",Scott,51169,False,False,America/New_York,"(36.65807, -82.60582)",12.054238853379662,329338.0,1791_0_yes,36.48480384016817,-82.58041934353523,20.0
24258,36.6517,-82.41199,Hiltons,VA,Virginia,True,,1495.0,14.6,51169,Scott,"{""51169"": 93.26, ""51191"": 6.74}",Scott|Washington,51169|51191,False,False,America/New_York,"(36.6517, -82.41199)",14.843551320429988,329338.0,1791_0_yes,36.48480384016817,-82.58041934353523,20.0
24270,36.72846,-82.24693,Mendota,VA,Virginia,True,,468.0,9.4,51191,Washington,"{""51191"": 100}",Washington,51191,False,False,America/New_York,"(36.72846, -82.24693)",25.011013043407246,329338.0,1791_0_yes,36.48480384016817,-82.58041934353523,20.0
24271,36.74712,-82.41714,Nickelsville,VA,Virginia,True,,2495.0,15.1,51169,Scott,"{""51169"": 99.21, ""51167"": 0.79}",Scott|Russell,51169|51167,False,False,America/New_York,"(36.74712, -82.41714)",20.260454914959688,329338.0,1791_0_yes,36.48480384016817,-82.58041934353523,20.0
24290,36.61186,-82.56688,Weber City,VA,Virginia,True,,2127.0,163.7,51169,Scott,"{""51169"": 100}",Scott,51169,False,False,America/New_York,"(36.61186, -82.56688)",8.810853501839992,329338.0,1791_0_yes,36.48480384016817,-82.58041934353523,20.0
37601,36.32838,-82.31974,Johnson City,TN,Tennessee,True,,35963.0,291.0,47179,Washington,"{""47179"": 53.43, ""47019"": 44.08, ""47171"": 2.49}",Washington|Carter|Unicoi,47179|47019|47171,False,False,America/New_York,"(36.32838, -82.31974)",18.081490520158663,329338.0,1791_0_yes,36.48480384016817,-82.58041934353523,20.0
37604,36.29923,-82.38302,Johnson City,TN,Tennessee,True,,36203.0,423.3,47179,Washington,"{""47179"": 94.35, ""47019"": 5.65}",Washington|Carter,47179|47019,False,False,America/New_York,"(36.29923, -82.38302)",16.88021288597921,329338.0,1791_0_yes,36.48480384016817,-82.58041934353523,20.0
37614,36.30097,-82.36741,Johnson City,TN,Tennessee,True,,1909.0,1494.0,47179,Washington,"{""47179"": 100}",Washington,47179,False,False,America/New_York,"(36.30097, -82.36741)",17.36916362069843,329338.0,1791_0_yes,36.48480384016817,-82.58041934353523,20.0
37615,36.39771,-82.45246,Johnson City,TN,Tennessee,True,,22064.0,226.6,47179,Washington,"{""47179"": 100}",Washington,47179,False,False,America/New_York,"(36.39771, -82.45246)",9.316540636043285,329338.0,1791_0_yes,36.48480384016817,-82.58041934353523,20.0
37616,36.22619,-82.7498,Afton,TN,Tennessee,True,,5101.0,44.4,47059,Greene,"{""47059"": 100}",Greene,47059,False,False,America/New_York,"(36.22619, -82.7498)",20.201894858092256,329338.0,1791_0_yes,36.48480384016817,-82.58041934353523,20.0
37617,36.53155,-82.37248,Blountville,TN,Tennessee,True,,14596.0,96.5,47163,Sullivan,"{""47163"": 100}",Sullivan,47163,False,False,America/New_York,"(36.53155, -82.37248)",11.991156182482102,329338.0,1791_0_yes,36.48480384016817,-82.58041934353523,20.0
37641,36.20015,-82.66306,Chuckey,TN,Tennessee,True,,9491.0,39.1,47059,Greene,"{""47059"": 82.38, ""47179"": 17.62}",Greene|Washington,47059|47179,False,False,America/New_York,"(36.20015, -82.66306)",20.1983165186731,329338.0,1791_0_yes,36.48480384016817,-82.58041934353523,20.0
37642,36.53261,-82.7267,Church Hill,TN,Tennessee,True,,14658.0,100.7,47073,Hawkins,"{""47073"": 99.53, ""51169"": 0.47}",Hawkins|Scott,47073|51169,False,False,America/New_York,"(36.53261, -82.7267)",8.769536113996944,329338.0,1791_0_yes,36.48480384016817,-82.58041934353523,20.0
37645,36.56275,-82.66243,Mount Carmel,TN,Tennessee,True,,5080.0,313.8,47073,Hawkins,"{""47073"": 100}",Hawkins,47073,False,False,America/New_York,"(36.56275, -82.66243)",7.052612512691709,329338.0,1791_0_yes,36.48480384016817,-82.58041934353523,20.0
37656,36.39997,-82.63075,Fall Branch,TN,Tennessee,True,,3423.0,45.4,47179,Washington,"{""47179"": 62.88, ""47059"": 28.82, ""47163"": 8.3}",Washington|Greene|Sullivan,47179|47059|47163,False,False,America/New_York,"(36.39997, -82.63075)",6.494824236097946,329338.0,1791_0_yes,36.48480384016817,-82.58041934353523,20.0
37659,36.28074,-82.4938,Jonesborough,TN,Tennessee,True,,27813.0,84.6,47179,Washington,"{""47179"": 99.31, ""47163"": 0.69}",Washington|Sullivan,47179|47163,False,False,America/New_York,"(36.28074, -82.4938)",14.900005470161481,329338.0,1791_0_yes,36.48480384016817,-82.58041934353523,20.0
37660,36.52938,-82.57339,Kingsport,TN,Tennessee,True,,39638.0,232.9,47163,Sullivan,"{""47163"": 90.54, ""47073"": 9.46}",Sullivan|Hawkins,47163|47073,False,False,America/New_York,"(36.52938, -82.57339)",3.104561375267627,329338.0,1791_0_yes,36.48480384016817,-82.58041934353523,20.0
37663,36.46466,-82.48525,Kingsport,TN,Tennessee,True,,13672.0,205.0,47163,Sullivan,"{""47163"": 95.26, ""47179"": 4.74}",Sullivan|Washington,47163|47179,False,False,America/New_York,"(36.46466, -82.48525)",5.467656097393238,329338.0,1791_0_yes,36.48480384016817,-82.58041934353523,20.0
37664,36.51163,-82.50729,Kingsport,TN,Tennessee,True,,28040.0,319.1,47163,Sullivan,"{""47163"": 100}",Sullivan,47163,False,False,America/New_York,"(36.51163, -82.50729)",4.464707227099529,329338.0,1791_0_yes,36.48480384016817,-82.58041934353523,20.0
37665,36.57951,-82.57304,Kingsport,TN,Tennessee,True,,5202.0,663.5,47163,Sullivan,"{""47163"": 100}",Sullivan,47163,False,False,America/New_York,"(36.57951, -82.57304)",6.556384920537613,329338.0,1791_0_yes,36.48480384016817,-82.58041934353523,20.0
37681,36.25465,-82.62672,Limestone,TN,Tennessee,True,,6446.0,38.2,47179,Washington,"{""47179"": 62.73, ""47059"": 37.27}",Washington|Greene,47179|47059,False,False,America/New_York,"(36.25465, -82.62672)",16.109394699954613,329338.0,1791_0_yes,36.48480384016817,-82.58041934353523,20.0
37682,36.30035,-82.29169,Milligan College,TN,Tennessee,True,,577.0,2185.0,47019,Carter,"{""47019"": 100}",Carter,47019,False,False,America/New_York,"(36.30035, -82.29169)",20.501251235143666,329338.0,1791_0_yes,36.48480384016817,-82.58041934353523,20.0
37686,36.44175,-82.34639,Piney Flats,TN,Tennessee,True,,8470.0,111.0,47163,Sullivan,"{""47163"": 99.61, ""47179"": 0.39}",Sullivan|Washington,47163|47179,False,False,America/New_York,"(36.44175, -82.34639)",13.340327515507024,329338.0,1791_0_yes,36.48480384016817,-82.58041934353523,20.0
37690,36.25124,-82.55895,Telford,TN,Tennessee,True,,4599.0,70.3,47179,Washington,"{""47179"": 100}",Washington,47179,False,False,America/New_York,"(36.25124, -82.55895)",16.18186888972374,329338.0,1791_0_yes,36.48480384016817,-82.58041934353523,20.0
37694,36.3849,-82.27588,Watauga,TN,Tennessee,True,,2264.0,69.2,47019,Carter,"{""47019"": 79.42, ""47163"": 17.62, ""47179"": 2.96}",Carter|Sullivan|Washington,47019|47163|47179,False,False,America/New_York,"(36.3849, -82.27588)",18.28190147734894,329338.0,1791_0_yes,36.48480384016817,-82.58041934353523,20.0
37745,36.2784,-82.82631,Greeneville,TN,Tennessee,True,,18233.0,57.7,47059,Greene,"{""47059"": 96.62, ""47073"": 3.38}",Greene|Hawkins,47059|47073,False,False,America/New_York,"(36.2784, -82.82631)",19.760191978383357,329338.0,1791_0_yes,36.48480384016817,-82.58041934353523,20.0
37873,36.52446,-82.84754,Surgoinsville,TN,Tennessee,True,,4362.0,26.9,47073,Hawkins,"{""47073"": 100}",Hawkins,47073,False,False,America/New_York,"(36.52446, -82.84754)",15.086219634025712,329338.0,1791_0_yes,36.48480384016817,-82.58041934353523,20.0
