zip,lat,lng,city,state_id,state_name,zcta,parent_zcta,population,density,county_fips,county_name,county_weights,county_names_all,county_fips_all,imprecise,military,timezone,Coord,distance_miles,market_total_population,market_id,market_center_lat,market_center_lng,radius_miles
37010,36.5675,-87.10894,Adams,TN,Tennessee,True,,5096.0,24.9,47147,Robertson,"{""47147"": 61.24, ""47125"": 38.76}",Robertson|Montgomery,47147|47125,False,False,America/Chicago,"(36.5675, -87.10894)",13.018642766341475,432927.0,1797_0_yes,36.49778191813455,-86.89108783355238,20.0
37015,36.28798,-87.08113,Ashland City,TN,Tennessee,True,,17835.0,44.2,47021,Cheatham,"{""47021"": 92.85, ""47037"": 5.7, ""47125"": 1.45}",Cheatham|Davidson|Montgomery,47021|47037|47125,False,False,America/Chicago,"(36.28798, -87.08113)",17.940218641700266,432927.0,1797_0_yes,36.49778191813455,-86.89108783355238,20.0
37032,36.52518,-87.01647,Cedar Hill,TN,Tennessee,True,,5227.0,25.5,47147,Robertson,"{""47147"": 98.42, ""47021"": 1.47, ""47125"": 0.11}",Robertson|Cheatham|Montgomery,47147|47021|47125,False,False,America/Chicago,"(36.52518, -87.01647)",7.215591592697451,432927.0,1797_0_yes,36.49778191813455,-86.89108783355238,20.0
37035,36.3849,-87.12602,Chapmansboro,TN,Tennessee,True,,3709.0,48.7,47021,Cheatham,"{""47021"": 100}",Cheatham,47021,False,False,America/Chicago,"(36.3849, -87.12602)",15.210177422765128,432927.0,1797_0_yes,36.49778191813455,-86.89108783355238,20.0
37043,36.49842,-87.23197,Clarksville,TN,Tennessee,True,,49669.0,176.8,47125,Montgomery,"{""47125"": 98.31, ""47021"": 1.69}",Montgomery|Cheatham,47125|47021,False,False,America/Chicago,"(36.49842, -87.23197)",18.933516801211837,432927.0,1797_0_yes,36.49778191813455,-86.89108783355238,20.0
37048,36.4904,-86.59112,Cottontown,TN,Tennessee,True,,6229.0,51.8,47165,Sumner,"{""47165"": 95.75, ""47147"": 4.25}",Sumner|Robertson,47165|47147,False,False,America/Chicago,"(36.4904, -86.59112)",16.669648396675765,432927.0,1797_0_yes,36.49778191813455,-86.89108783355238,20.0
37049,36.55985,-86.67887,Cross Plains,TN,Tennessee,True,,4035.0,58.2,47147,Robertson,"{""47147"": 100}",Robertson,47147,False,False,America/Chicago,"(36.55985, -86.67887)",12.538628874423711,432927.0,1797_0_yes,36.49778191813455,-86.89108783355238,20.0
37072,36.35686,-86.74494,Goodlettsville,TN,Tennessee,True,,31134.0,155.0,47037,Davidson,"{""47037"": 50.71, ""47165"": 34.45, ""47147"": 14.84}",Davidson|Sumner|Robertson,47037|47165|47147,False,False,America/Chicago,"(36.35686, -86.74494)",12.681394875322667,432927.0,1797_0_yes,36.49778191813455,-86.89108783355238,20.0
37073,36.42834,-86.81414,Greenbrier,TN,Tennessee,True,,14569.0,109.8,47147,Robertson,"{""47147"": 100}",Robertson,47147,False,False,America/Chicago,"(36.42834, -86.81414)",6.426755774632008,432927.0,1797_0_yes,36.49778191813455,-86.89108783355238,20.0
37075,36.34085,-86.60845,Hendersonville,TN,Tennessee,True,,68336.0,446.9,47165,Sumner,"{""47165"": 100}",Sumner,47165,False,False,America/Chicago,"(36.34085, -86.60845)",19.09218082111929,432927.0,1797_0_yes,36.49778191813455,-86.89108783355238,20.0
37080,36.32901,-86.91633,Joelton,TN,Tennessee,True,,7537.0,59.2,47037,Davidson,"{""47037"": 59.47, ""47021"": 39.8, ""47147"": 0.73}",Davidson|Cheatham|Robertson,47037|47021|47147,False,False,America/Chicago,"(36.32901, -86.91633)",11.745191985686926,432927.0,1797_0_yes,36.49778191813455,-86.89108783355238,20.0
37115,36.25444,-86.69636,Madison,TN,Tennessee,True,,39573.0,712.1,47037,Davidson,"{""47037"": 100}",Davidson,47037,False,False,America/Chicago,"(36.25444, -86.69636)",20.00086996762513,432927.0,1797_0_yes,36.49778191813455,-86.89108783355238,20.0
37138,36.24652,-86.61938,Old Hickory,TN,Tennessee,True,,23789.0,512.4,47037,Davidson,"{""47037"": 69.19, ""47189"": 30.81}",Davidson|Wilson,47037|47189,False,False,America/Chicago,"(36.24652, -86.61938)",23.0190519650509,432927.0,1797_0_yes,36.49778191813455,-86.89108783355238,20.0
37141,36.6145,-86.69894,Orlinda,TN,Tennessee,True,,1476.0,28.1,47147,Robertson,"{""47147"": 100}",Robertson,47147,False,False,America/Chicago,"(36.6145, -86.69894)",13.370275840187205,432927.0,1797_0_yes,36.49778191813455,-86.89108783355238,20.0
37146,36.4047,-87.03123,Pleasant View,TN,Tennessee,True,,7396.0,93.3,47147,Robertson,"{""47147"": 53.58, ""47021"": 46.42}",Robertson|Cheatham,47147|47021,False,False,America/Chicago,"(36.4047, -87.03123)",10.100690153519793,432927.0,1797_0_yes,36.49778191813455,-86.89108783355238,20.0
37172,36.53661,-86.86005,Springfield,TN,Tennessee,True,,30261.0,65.0,47147,Robertson,"{""47147"": 100}",Robertson,47147,False,False,America/Chicago,"(36.53661, -86.86005)",3.1886778519979893,432927.0,1797_0_yes,36.49778191813455,-86.89108783355238,20.0
37188,36.48048,-86.68101,White House,TN,Tennessee,True,,16034.0,201.4,47147,Robertson,"{""47147"": 73.04, ""47165"": 26.96}",Robertson|Sumner,47147|47165,False,False,America/Chicago,"(36.48048, -86.68101)",11.730685903120998,432927.0,1797_0_yes,36.49778191813455,-86.89108783355238,20.0
37189,36.27875,-86.82983,Whites Creek,TN,Tennessee,True,,4453.0,68.1,47037,Davidson,"{""47037"": 100}",Davidson,47037,False,False,America/Chicago,"(36.27875, -86.82983)",15.512479535904356,432927.0,1797_0_yes,36.49778191813455,-86.89108783355238,20.0
37207,36.23278,-86.77765,Nashville,TN,Tennessee,True,,39151.0,781.4,47037,Davidson,"{""47037"": 100}",Davidson,47037,False,False,America/Chicago,"(36.23278, -86.77765)",19.36713328119816,432927.0,1797_0_yes,36.49778191813455,-86.89108783355238,20.0
37216,36.21589,-86.72676,Nashville,TN,Tennessee,True,,18081.0,1037.5,47037,Davidson,"{""47037"": 100}",Davidson,47037,False,False,America/Chicago,"(36.21589, -86.72676)",21.516449528937226,432927.0,1797_0_yes,36.49778191813455,-86.89108783355238,20.0
37218,36.20814,-86.89158,Nashville,TN,Tennessee,True,,15582.0,154.1,47037,Davidson,"{""47037"": 100}",Davidson,47037,False,False,America/Chicago,"(36.20814, -86.89158)",20.012369145422312,432927.0,1797_0_yes,36.49778191813455,-86.89108783355238,20.0
42134,36.72626,-86.56433,Franklin,KY,Kentucky,True,,17637.0,32.0,21213,Simpson,"{""21213"": 93.28, ""21003"": 6.72}",Simpson|Allen,21213|21003,False,False,America/Chicago,"(36.72626, -86.56433)",24.033774205757908,432927.0,1797_0_yes,36.49778191813455,-86.89108783355238,20.0
42202,36.68732,-86.85916,Adairville,KY,Kentucky,True,,2101.0,12.5,21141,Logan,"{""21141"": 97.86, ""21213"": 2.14}",Logan|Simpson,21141|21213,False,False,America/Chicago,"(36.68732, -86.85916)",13.215066149562663,432927.0,1797_0_yes,36.49778191813455,-86.89108783355238,20.0
42204,36.69509,-87.08096,Allensville,KY,Kentucky,True,,626.0,5.7,21219,Todd,"{""21219"": 71.17, ""21141"": 28.83}",Todd|Logan,21219|21141,False,False,America/Chicago,"(36.69509, -87.08096)",17.22745489933364,432927.0,1797_0_yes,36.49778191813455,-86.89108783355238,20.0
42234,36.70656,-87.17598,Guthrie,KY,Kentucky,True,,2561.0,20.0,21219,Todd,"{""21219"": 100}",Todd,21219,False,False,America/Chicago,"(36.70656, -87.17598)",21.396252610282122,432927.0,1797_0_yes,36.49778191813455,-86.89108783355238,20.0
42265,36.739,-87.00141,Olmstead,KY,Kentucky,True,,830.0,5.9,21141,Logan,"{""21141"": 87.8, ""21219"": 12.2}",Logan|Todd,21141|21219,False,False,America/Chicago,"(36.739, -87.00141)",17.7540217458209,432927.0,1797_0_yes,36.49778191813455,-86.89108783355238,20.0
