zip,lat,lng,city,state_id,state_name,zcta,parent_zcta,population,density,county_fips,county_name,county_weights,county_names_all,county_fips_all,imprecise,military,timezone,Coord,distance_miles,market_total_population,market_id,market_center_lat,market_center_lng,radius_miles
73901,36.75458,-101.07517,Adams,OK,Oklahoma,True,,306.0,234.2,40139,Texas,"{""40139"": 100}",Texas,40139,False,False,America/Chicago,"(36.75458, -101.07517)",18.125801590720997,15984.0,1817_0_yes,36.54108635695384,-101.26518387425804,20.0
73942,36.74452,-101.49555,Guymon,OK,Oklahoma,True,,12980.0,8.3,40139,Texas,"{""40139"": 100}",Texas,40139,False,False,America/Chicago,"(36.74452, -101.49555)",18.991353907749453,15984.0,1817_0_yes,36.54108635695384,-101.26518387425804,20.0
73944,36.58511,-101.10339,Hardesty,OK,Oklahoma,True,,463.0,0.9,40139,Texas,"{""40139"": 100}",Texas,40139,False,False,America/Chicago,"(36.58511, -101.10339)",9.48012840176658,15984.0,1817_0_yes,36.54108635695384,-101.26518387425804,20.0
79033,36.30684,-100.97661,Farnsworth,TX,Texas,True,,49.0,5.7,48357,Ochiltree,"{""48357"": 100}",Ochiltree,48357,False,False,America/Chicago,"(36.30684, -100.97661)",22.789080327567696,15984.0,1817_0_yes,36.54108635695384,-101.26518387425804,20.0
79040,36.30113,-101.57841,Gruver,TX,Texas,True,,2085.0,1.3,48195,Hansford,"{""48195"": 62.99, ""48421"": 37.01}",Hansford|Sherman,48195|48421,False,False,America/Chicago,"(36.30113, -101.57841)",24.044665835182215,15984.0,1817_0_yes,36.54108635695384,-101.26518387425804,20.0
79093,36.26637,-101.02997,Waka,TX,Texas,True,,101.0,1.8,48357,Ochiltree,"{""48357"": 100}",Ochiltree,48357,False,False,America/Chicago,"(36.26637, -101.02997)",23.051570430493474,15984.0,1817_0_yes,36.54108635695384,-101.26518387425804,20.0
