zip,lat,lng,city,state_id,state_name,zcta,parent_zcta,population,density,county_fips,county_name,county_weights,county_names_all,county_fips_all,imprecise,military,timezone,Coord,distance_miles,market_total_population,market_id,market_center_lat,market_center_lng,radius_miles
86507,36.41985,-109.28019,Lukachukai,AZ,Arizona,True,,2429.0,4.3,4001,Apache,"{""04001"": 100}",Apache,04001,False,False,America/Denver,"(36.41985, -109.28019)",11.620922227469363,18451.0,1828_0_yes,36.56493281731856,-109.17435522070578,20.0
86544,36.58162,-109.13818,Red Valley,AZ,Arizona,True,,1452.0,2.1,4001,Apache,"{""04001"": 100}",Apache,04001,False,False,America/Denver,"(36.58162, -109.13818)",2.3148768292035786,18451.0,1828_0_yes,36.56493281731856,-109.17435522070578,20.0
86547,36.52759,-109.46019,Round Rock,AZ,Arizona,True,,1242.0,2.6,4001,Apache,"{""04001"": 100}",Apache,04001,False,False,America/Denver,"(36.52759, -109.46019)",16.074537412923494,18451.0,1828_0_yes,36.56493281731856,-109.17435522070578,20.0
87420,36.72142,-108.84406,Shiprock,NM,New Mexico,True,,11933.0,8.3,35045,San Juan,"{""35045"": 100}",San Juan,35045,False,False,America/Denver,"(36.72142, -108.84406)",21.264924089003888,18451.0,1828_0_yes,36.56493281731856,-109.17435522070578,20.0
87461,36.43717,-108.91099,Sanostee,NM,New Mexico,True,,1395.0,2.2,35045,San Juan,"{""35045"": 100}",San Juan,35045,False,False,America/Denver,"(36.43717, -108.91099)",17.084707642518648,18451.0,1828_0_yes,36.56493281731856,-109.17435522070578,20.0
