zip,lat,lng,city,state_id,state_name,zcta,parent_zcta,population,density,county_fips,county_name,county_weights,county_names_all,county_fips_all,imprecise,military,timezone,Coord,distance_miles,market_total_population,market_id,market_center_lat,market_center_lng,radius_miles
42001,37.03317,-88.7135,Paducah,KY,Kentucky,True,,29952.0,155.8,21145,McCracken,"{""21145"": 100}",McCracken,21145,False,False,America/Chicago,"(37.03317, -88.7135)",4.7704054011879204,105802.0,1882_0_yes,37.0820508813249,-88.77460091230401,20.0
42003,37.00653,-88.58472,Paducah,KY,Kentucky,True,,28141.0,157.4,21145,McCracken,"{""21145"": 99.17, ""21083"": 0.83}",McCracken|Graves,21145|21083,False,False,America/Chicago,"(37.00653, -88.58472)",11.699658163664646,105802.0,1882_0_yes,37.0820508813249,-88.77460091230401,20.0
42021,36.80129,-88.9957,Arlington,KY,Kentucky,True,,1495.0,10.2,21039,Carlisle,"{""21039"": 90.26, ""21105"": 9.74}",Carlisle|Hickman,21039|21105,False,False,America/Chicago,"(36.80129, -88.9957)",22.92131428711041,105802.0,1882_0_yes,37.0820508813249,-88.77460091230401,20.0
42022,37.14593,-88.94553,Bandana,KY,Kentucky,True,,131.0,102.9,21007,Ballard,"{""21007"": 100}",Ballard,21007,False,False,America/Chicago,"(37.14593, -88.94553)",10.400709121441924,105802.0,1882_0_yes,37.0820508813249,-88.77460091230401,20.0
42023,36.87623,-88.98742,Bardwell,KY,Kentucky,True,,2267.0,9.2,21039,Carlisle,"{""21039"": 100}",Carlisle,21039,False,False,America/Chicago,"(36.87623, -88.98742)",18.444973010076296,105802.0,1882_0_yes,37.0820508813249,-88.77460091230401,20.0
42024,37.0742,-89.05026,Barlow,KY,Kentucky,True,,1059.0,8.8,21007,Ballard,"{""21007"": 100}",Ballard,21007,False,False,America/Chicago,"(37.0742, -89.05026)",15.20502482568309,105802.0,1882_0_yes,37.0820508813249,-88.77460091230401,20.0
42027,36.91585,-88.63018,Boaz,KY,Kentucky,True,,1477.0,12.4,21083,Graves,"{""21083"": 85.7, ""21145"": 14.3}",Graves|McCracken,21083|21145,False,False,America/Chicago,"(36.91585, -88.63018)",13.97777313302838,105802.0,1882_0_yes,37.0820508813249,-88.77460091230401,20.0
42035,36.90392,-88.83674,Cunningham,KY,Kentucky,True,,992.0,14.3,21039,Carlisle,"{""21039"": 77.81, ""21083"": 22.19}",Carlisle|Graves,21039|21083,False,False,America/Chicago,"(36.90392, -88.83674)",12.776463810111395,105802.0,1882_0_yes,37.0820508813249,-88.77460091230401,20.0
42051,36.85629,-88.64522,Hickory,KY,Kentucky,True,,3106.0,22.7,21083,Graves,"{""21083"": 100}",Graves,21083,False,False,America/Chicago,"(36.85629, -88.64522)",17.155954153975337,105802.0,1882_0_yes,37.0820508813249,-88.77460091230401,20.0
42053,37.1033,-88.87606,Kevil,KY,Kentucky,True,,5193.0,16.7,21007,Ballard,"{""21007"": 50.84, ""21145"": 49.16}",Ballard|McCracken,21007|21145,False,False,America/Chicago,"(37.1033, -88.87606)",5.781258543885241,105802.0,1882_0_yes,37.0820508813249,-88.77460091230401,20.0
42056,37.11088,-88.98452,La Center,KY,Kentucky,True,,1384.0,10.0,21007,Ballard,"{""21007"": 100}",Ballard,21007,False,False,America/Chicago,"(37.11088, -88.98452)",11.738946731134709,105802.0,1882_0_yes,37.0820508813249,-88.77460091230401,20.0
42058,37.05329,-88.4714,Ledbetter,KY,Kentucky,True,,2358.0,57.2,21139,Livingston,"{""21139"": 100}",Livingston,21139,False,False,America/Chicago,"(37.05329, -88.4714)",16.833559969637548,105802.0,1882_0_yes,37.0820508813249,-88.77460091230401,20.0
42061,36.88262,-88.76959,Lowes,KY,Kentucky,True,,80.0,88.2,21083,Graves,"{""21083"": 100}",Graves,21083,False,False,America/Chicago,"(36.88262, -88.76959)",13.782136690872068,105802.0,1882_0_yes,37.0820508813249,-88.77460091230401,20.0
42069,36.92328,-88.75828,Melber,KY,Kentucky,True,,507.0,8.0,21083,Graves,"{""21083"": 79.16, ""21145"": 20.84}",Graves|McCracken,21083|21145,False,False,America/Chicago,"(36.92328, -88.75828)",11.006925956948322,105802.0,1882_0_yes,37.0820508813249,-88.77460091230401,20.0
42082,36.91618,-88.50092,Symsonia,KY,Kentucky,True,,1579.0,22.1,21083,Graves,"{""21083"": 55.2, ""21157"": 30.46, ""21145"": 14.34}",Graves|Marshall|McCracken,21083|21157|21145,False,False,America/Chicago,"(36.91618, -88.50092)",18.95825071150101,105802.0,1882_0_yes,37.0820508813249,-88.77460091230401,20.0
42086,37.0828,-88.76838,West Paducah,KY,Kentucky,True,,4385.0,54.2,21145,McCracken,"{""21145"": 100}",McCracken,21145,False,False,America/Chicago,"(37.0828, -88.76838)",0.34678470528841404,105802.0,1882_0_yes,37.0820508813249,-88.77460091230401,20.0
42087,36.97328,-89.00323,Wickliffe,KY,Kentucky,True,,2636.0,14.9,21007,Ballard,"{""21007"": 100}",Ballard,21007,False,False,America/Chicago,"(36.97328, -89.00323)",14.680747231941831,105802.0,1882_0_yes,37.0820508813249,-88.77460091230401,20.0
62908,37.30827,-88.86603,Belknap,IL,Illinois,True,,619.0,4.8,17127,Massac,"{""17127"": 64.81, ""17087"": 35.19}",Massac|Johnson,17127|17087,False,False,America/Chicago,"(37.30827, -88.86603)",16.420320650609934,105802.0,1882_0_yes,37.0820508813249,-88.77460091230401,20.0
62910,37.1562,-88.53075,Brookport,IL,Illinois,True,,2224.0,8.0,17127,Massac,"{""17127"": 54.85, ""17151"": 44.87, ""21145"": 0.15, ""21139"": 0.13}",Massac|Pope|McCracken|Livingston,17127|17151|21145|21139,False,False,America/Chicago,"(37.1562, -88.53075)",14.37839297320806,105802.0,1882_0_yes,37.0820508813249,-88.77460091230401,20.0
62923,37.33709,-89.03671,Cypress,IL,Illinois,True,,469.0,7.8,17087,Johnson,"{""17087"": 59.62, ""17181"": 21.52, ""17153"": 18.86}",Johnson|Union|Pulaski,17087|17181|17153,False,False,America/Chicago,"(37.33709, -89.03671)",22.771687303626152,105802.0,1882_0_yes,37.0820508813249,-88.77460091230401,20.0
62926,37.3692,-89.13589,Dongola,IL,Illinois,True,,2152.0,10.7,17181,Union,"{""17181"": 77.84, ""17153"": 22.16}",Union|Pulaski,17181|17153,False,False,America/Chicago,"(37.3692, -89.13589)",28.084051378778966,105802.0,1882_0_yes,37.0820508813249,-88.77460091230401,20.0
62941,37.24142,-88.97186,Grand Chain,IL,Illinois,True,,674.0,8.6,17153,Pulaski,"{""17153"": 73.4, ""17127"": 26.48, ""21007"": 0.12}",Pulaski|Massac|Ballard,17153|17127|21007,False,False,America/Chicago,"(37.24142, -88.97186)",15.466905839985957,105802.0,1882_0_yes,37.0820508813249,-88.77460091230401,20.0
62943,37.35586,-88.74669,Grantsburg,IL,Illinois,True,,304.0,3.1,17087,Johnson,"{""17087"": 60.49, ""17127"": 24.51, ""17151"": 15.0}",Johnson|Massac|Pope,17087|17127|17151,False,False,America/Chicago,"(37.35586, -88.74669)",18.980634880179196,105802.0,1882_0_yes,37.0820508813249,-88.77460091230401,20.0
62953,37.20684,-88.84533,Joppa,IL,Illinois,True,,263.0,188.8,17127,Massac,"{""17127"": 100}",Massac,17127,False,False,America/Chicago,"(37.20684, -88.84533)",9.461243893855245,105802.0,1882_0_yes,37.0820508813249,-88.77460091230401,20.0
62956,37.27805,-88.93127,Karnak,IL,Illinois,True,,1071.0,15.3,17127,Massac,"{""17127"": 51.65, ""17153"": 48.35}",Massac|Pulaski,17127|17153,False,False,America/Chicago,"(37.27805, -88.93127)",16.055382074514682,105802.0,1882_0_yes,37.0820508813249,-88.77460091230401,20.0
62960,37.22515,-88.71097,Metropolis,IL,Illinois,True,,10641.0,36.4,17127,Massac,"{""17127"": 98.34, ""17151"": 1.66}",Massac|Pope,17127|17151,False,False,America/Chicago,"(37.22515, -88.71097)",10.48977636700642,105802.0,1882_0_yes,37.0820508813249,-88.77460091230401,20.0
62970,37.21362,-89.10119,Olmsted,IL,Illinois,True,,643.0,8.0,17153,Pulaski,"{""17153"": 100}",Pulaski,17153,False,False,America/Chicago,"(37.21362, -89.10119)",20.152971613512943,105802.0,1882_0_yes,37.0820508813249,-88.77460091230401,20.0
