zip,lat,lng,city,state_id,state_name,zcta,parent_zcta,population,density,county_fips,county_name,county_weights,county_names_all,county_fips_all,imprecise,military,timezone,Coord,distance_miles,market_total_population,market_id,market_center_lat,market_center_lng,radius_miles
84729,37.35858,-112.61527,Glendale,UT,Utah,True,,427.0,2.1,49025,Kane,"{""49025"": 100}",Kane,49025,False,False,America/Denver,"(37.35858, -112.61527)",14.471020398052572,4503.0,1915_0_yes,37.15506787057348,-112.6774392970522,20.0
84755,37.22652,-112.78532,Mount Carmel,UT,Utah,True,,47.0,0.3,49025,Kane,"{""49025"": 100}",Kane,49025,False,False,America/Denver,"(37.22652, -112.78532)",7.722160982724675,4503.0,1915_0_yes,37.15506787057348,-112.6774392970522,20.0
84758,37.27041,-112.68529,Orderville,UT,Utah,True,,461.0,1.3,49025,Kane,"{""49025"": 100}",Kane,49025,False,False,America/Denver,"(37.27041, -112.68529)",7.981081763842739,4503.0,1915_0_yes,37.15506787057348,-112.6774392970522,20.0
84767,37.20152,-112.9858,Springdale,UT,Utah,True,,647.0,1.1,49053,Washington,"{""49053"": 100}",Washington,49053,False,False,America/Denver,"(37.20152, -112.9858)",17.27624125758907,4503.0,1915_0_yes,37.15506787057348,-112.6774392970522,20.0
84784,37.01858,-112.96941,Hildale,UT,Utah,True,,2921.0,266.5,49053,Washington,"{""49053"": 100}",Washington,49053,False,False,America/Denver,"(37.01858, -112.96941)",18.65223606385761,4503.0,1915_0_yes,37.15506787057348,-112.6774392970522,20.0
