zip,lat,lng,city,state_id,state_name,zcta,parent_zcta,population,density,county_fips,county_name,county_weights,county_names_all,county_fips_all,imprecise,military,timezone,Coord,distance_miles,market_total_population,market_id,market_center_lat,market_center_lng,radius_miles
24217,37.1014,-82.17783,Bee,VA,Virginia,True,,237.0,3.5,51051,Dickenson,"{""51051"": 77.43, ""51027"": 22.57}",Dickenson|Buchanan,51051|51027,False,False,America/New_York,"(37.1014, -82.17783)",24.957145074661483,114772.0,1950_0_no,37.35270915025502,-82.50367583296772,20.0
24220,37.11957,-82.22641,Birchleaf,VA,Virginia,True,,1199.0,20.6,51051,Dickenson,"{""51051"": 100}",Dickenson,51051,False,False,America/New_York,"(37.11957, -82.22641)",22.1833877150393,114772.0,1950_0_no,37.35270915025502,-82.50367583296772,20.0
24226,37.14223,-82.33384,Clinchco,VA,Virginia,True,,1298.0,19.2,51051,Dickenson,"{""51051"": 100}",Dickenson,51051,False,False,America/New_York,"(37.14223, -82.33384)",17.28425205933869,114772.0,1950_0_no,37.35270915025502,-82.50367583296772,20.0
24228,37.17047,-82.44963,Clintwood,VA,Virginia,True,,6224.0,26.0,51051,Dickenson,"{""51051"": 100}",Dickenson,51051,False,False,America/New_York,"(37.17047, -82.44963)",12.937510784889172,114772.0,1950_0_no,37.35270915025502,-82.50367583296772,20.0
24239,37.1136,-82.14577,Davenport,VA,Virginia,True,,206.0,30.4,51027,Buchanan,"{""51027"": 100}",Buchanan,51027,False,False,America/New_York,"(37.1136, -82.14577)",25.701777676631828,114772.0,1950_0_no,37.35270915025502,-82.50367583296772,20.0
24256,37.22344,-82.28503,Haysi,VA,Virginia,True,,3585.0,25.3,51051,Dickenson,"{""51051"": 82.42, ""51027"": 17.58}",Dickenson|Buchanan,51051|51027,False,False,America/New_York,"(37.22344, -82.28503)",14.974417787984724,114772.0,1950_0_no,37.35270915025502,-82.50367583296772,20.0
24269,37.0803,-82.37894,McClure,VA,Virginia,True,,424.0,21.3,51051,Dickenson,"{""51051"": 100}",Dickenson,51051,False,False,America/New_York,"(37.0803, -82.37894)",20.03398865241269,114772.0,1950_0_no,37.35270915025502,-82.50367583296772,20.0
24279,37.10383,-82.61909,Pound,VA,Virginia,True,,5400.0,26.3,51195,Wise,"{""51195"": 100}",Wise,51195,False,False,America/New_York,"(37.10383, -82.61909)",18.330699158594143,114772.0,1950_0_no,37.35270915025502,-82.50367583296772,20.0
24603,37.35607,-82.1914,Big Rock,VA,Virginia,True,,743.0,14.4,51027,Buchanan,"{""51027"": 100}",Buchanan,51027,False,False,America/New_York,"(37.35607, -82.1914)",17.152443521123292,114772.0,1950_0_no,37.35270915025502,-82.50367583296772,20.0
24607,37.29498,-82.26533,Breaks,VA,Virginia,True,,271.0,7.3,51027,Buchanan,"{""51027"": 62.39, ""51051"": 37.61}",Buchanan|Dickenson,51027|51051,False,False,America/New_York,"(37.29498, -82.26533)",13.689767952980889,114772.0,1950_0_no,37.35270915025502,-82.50367583296772,20.0
25688,37.63952,-82.15832,North Matewan,WV,West Virginia,True,,264.0,29.2,54059,Mingo,"{""54059"": 100}",Mingo,54059,False,False,America/New_York,"(37.63952, -82.15832)",27.406481153250347,114772.0,1950_0_no,37.35270915025502,-82.50367583296772,20.0
41501,37.50805,-82.5154,Pikeville,KY,Kentucky,True,,22017.0,44.2,21195,Pike,"{""21195"": 100}",Pike,21195,False,False,America/New_York,"(37.50805, -82.5154)",10.752289559669737,114772.0,1950_0_no,37.35270915025502,-82.50367583296772,20.0
41512,37.25251,-82.47772,Ashcamp,KY,Kentucky,True,,796.0,24.7,21195,Pike,"{""21195"": 100}",Pike,21195,False,False,America/New_York,"(37.25251, -82.47772)",7.068545739061085,114772.0,1950_0_no,37.35270915025502,-82.50367583296772,20.0
41513,37.35282,-82.34329,Belcher,KY,Kentucky,True,,415.0,22.6,21195,Pike,"{""21195"": 100}",Pike,21195,False,False,America/New_York,"(37.35282, -82.34329)",8.80893763252454,114772.0,1950_0_no,37.35270915025502,-82.50367583296772,20.0
41517,37.18919,-82.60026,Burdine,KY,Kentucky,True,,119.0,1235.2,21133,Letcher,"{""21133"": 100}",Letcher,21133,False,False,America/New_York,"(37.18919, -82.60026)",12.483926837556105,114772.0,1950_0_no,37.35270915025502,-82.50367583296772,20.0
41519,37.58359,-82.32334,Canada,KY,Kentucky,True,,1015.0,34.7,21195,Pike,"{""21195"": 100}",Pike,21195,False,False,America/New_York,"(37.58359, -82.32334)",18.769056363891263,114772.0,1950_0_no,37.35270915025502,-82.50367583296772,20.0
41522,37.31644,-82.40088,Elkhorn City,KY,Kentucky,True,,5014.0,27.6,21195,Pike,"{""21195"": 100}",Pike,21195,False,False,America/New_York,"(37.31644, -82.40088)",6.1783026712447136,114772.0,1950_0_no,37.35270915025502,-82.50367583296772,20.0
41524,37.43345,-82.23444,Fedscreek,KY,Kentucky,True,,167.0,3.7,21195,Pike,"{""21195"": 100}",Pike,21195,False,False,America/New_York,"(37.43345, -82.23444)",15.79721333324298,114772.0,1950_0_no,37.35270915025502,-82.50367583296772,20.0
41526,37.43372,-82.51256,Fords Branch,KY,Kentucky,True,,135.0,1641.8,21195,Pike,"{""21195"": 100}",Pike,21195,False,False,America/New_York,"(37.43372, -82.51256)",5.618522055585912,114772.0,1950_0_no,37.35270915025502,-82.50367583296772,20.0
41527,37.63187,-82.29378,Forest Hills,KY,Kentucky,True,,627.0,61.5,21195,Pike,"{""21195"": 100}",Pike,21195,False,False,America/New_York,"(37.63187, -82.29378)",22.459694859970394,114772.0,1950_0_no,37.35270915025502,-82.50367583296772,20.0
41531,37.59509,-82.23131,Hardy,KY,Kentucky,True,,938.0,35.4,21195,Pike,"{""21195"": 100}",Pike,21195,False,False,America/New_York,"(37.59509, -82.23131)",22.439141546841185,114772.0,1950_0_no,37.35270915025502,-82.50367583296772,20.0
41534,37.27748,-82.49644,Hellier,KY,Kentucky,True,,237.0,18.7,21195,Pike,"{""21195"": 100}",Pike,21195,False,False,America/New_York,"(37.27748, -82.49644)",5.2130250979117685,114772.0,1950_0_no,37.35270915025502,-82.50367583296772,20.0
41535,37.59368,-82.28422,Huddy,KY,Kentucky,True,,704.0,100.6,21195,Pike,"{""21195"": 100}",Pike,21195,False,False,America/New_York,"(37.59368, -82.28422)",20.543122291250583,114772.0,1950_0_no,37.35270915025502,-82.50367583296772,20.0
41537,37.22221,-82.61619,Jenkins,KY,Kentucky,True,,4508.0,31.8,21133,Letcher,"{""21133"": 50.86, ""21195"": 49.14}",Letcher|Pike,21133|21195,False,False,America/New_York,"(37.22221, -82.61619)",10.93408614279642,114772.0,1950_0_no,37.35270915025502,-82.50367583296772,20.0
41539,37.50265,-82.32231,Kimper,KY,Kentucky,True,,1443.0,13.1,21195,Pike,"{""21195"": 100}",Pike,21195,False,False,America/New_York,"(37.50265, -82.32231)",14.365090686024004,114772.0,1950_0_no,37.35270915025502,-82.50367583296772,20.0
41540,37.39013,-82.32318,Lick Creek,KY,Kentucky,True,,115.0,3.1,21195,Pike,"{""21195"": 100}",Pike,21195,False,False,America/New_York,"(37.39013, -82.32318)",10.242679839285117,114772.0,1950_0_no,37.35270915025502,-82.50367583296772,20.0
41543,37.54837,-82.28226,McAndrews,KY,Kentucky,True,,357.0,34.5,21195,Pike,"{""21195"": 100}",Pike,21195,False,False,America/New_York,"(37.54837, -82.28226)",18.173109126985008,114772.0,1950_0_no,37.35270915025502,-82.50367583296772,20.0
41544,37.59602,-82.17368,McCarr,KY,Kentucky,True,,685.0,26.3,21195,Pike,"{""21195"": 100}",Pike,21195,False,False,America/New_York,"(37.59602, -82.17368)",24.699117980588525,114772.0,1950_0_no,37.35270915025502,-82.50367583296772,20.0
41548,37.37847,-82.25372,Mouthcard,KY,Kentucky,True,,1225.0,30.6,21195,Pike,"{""21195"": 100}",Pike,21195,False,False,America/New_York,"(37.37847, -82.25372)",13.840996236024115,114772.0,1950_0_no,37.35270915025502,-82.50367583296772,20.0
41553,37.48057,-82.16025,Phelps,KY,Kentucky,True,,1321.0,13.2,21195,Pike,"{""21195"": 100}",Pike,21195,False,False,America/New_York,"(37.48057, -82.16025)",20.813902649250632,114772.0,1950_0_no,37.35270915025502,-82.50367583296772,20.0
41554,37.43919,-82.32446,Phyllis,KY,Kentucky,True,,1005.0,22.2,21195,Pike,"{""21195"": 100}",Pike,21195,False,False,America/New_York,"(37.43919, -82.32446)",11.50997784624094,114772.0,1950_0_no,37.35270915025502,-82.50367583296772,20.0
41555,37.53816,-82.2589,Pinsonfork,KY,Kentucky,True,,800.0,36.3,21195,Pike,"{""21195"": 100}",Pike,21195,False,False,America/New_York,"(37.53816, -82.2589)",18.560067817209717,114772.0,1950_0_no,37.35270915025502,-82.50367583296772,20.0
41557,37.48189,-82.41548,Raccoon,KY,Kentucky,True,,1774.0,27.3,21195,Pike,"{""21195"": 100}",Pike,21195,False,False,America/New_York,"(37.48189, -82.41548)",10.153298871463031,114772.0,1950_0_no,37.35270915025502,-82.50367583296772,20.0
41558,37.53953,-82.20819,Ransom,KY,Kentucky,True,,887.0,22.6,21195,Pike,"{""21195"": 100}",Pike,21195,False,False,America/New_York,"(37.53953, -82.20819)",20.72066212630147,114772.0,1950_0_no,37.35270915025502,-82.50367583296772,20.0
41559,37.37997,-82.39017,Regina,KY,Kentucky,True,,173.0,12.8,21195,Pike,"{""21195"": 100}",Pike,21195,False,False,America/New_York,"(37.37997, -82.39017)",6.511375461875232,114772.0,1950_0_no,37.35270915025502,-82.50367583296772,20.0
41560,37.39423,-82.57875,Robinson Creek,KY,Kentucky,True,,167.0,10.6,21195,Pike,"{""21195"": 100}",Pike,21195,False,False,America/New_York,"(37.39423, -82.57875)",5.0222076198509775,114772.0,1950_0_no,37.35270915025502,-82.50367583296772,20.0
41562,37.3991,-82.47052,Shelbiana,KY,Kentucky,True,,2622.0,60.0,21195,Pike,"{""21195"": 100}",Pike,21195,False,False,America/New_York,"(37.3991, -82.47052)",3.6862003010601367,114772.0,1950_0_no,37.35270915025502,-82.50367583296772,20.0
41563,37.22628,-82.53694,Shelby Gap,KY,Kentucky,True,,356.0,19.2,21195,Pike,"{""21195"": 100}",Pike,21195,False,False,America/New_York,"(37.22628, -82.53694)",8.924745553079145,114772.0,1950_0_no,37.35270915025502,-82.50367583296772,20.0
41564,37.60476,-82.3667,Sidney,KY,Kentucky,True,,732.0,17.9,21195,Pike,"{""21195"": 100}",Pike,21195,False,False,America/New_York,"(37.60476, -82.3667)",18.965548435575233,114772.0,1950_0_no,37.35270915025502,-82.50367583296772,20.0
41566,37.40836,-82.1922,Steele,KY,Kentucky,True,,743.0,29.8,21195,Pike,"{""21195"": 100}",Pike,21195,False,False,America/New_York,"(37.40836, -82.1922)",17.527923105889727,114772.0,1950_0_no,37.35270915025502,-82.50367583296772,20.0
41567,37.56897,-82.28621,Stone,KY,Kentucky,True,,90.0,8.4,21195,Pike,"{""21195"": 100}",Pike,21195,False,False,America/New_York,"(37.56897, -82.28621)",19.118476147061138,114772.0,1950_0_no,37.35270915025502,-82.50367583296772,20.0
41571,37.62651,-82.44437,Varney,KY,Kentucky,True,,481.0,8.8,21195,Pike,"{""21195"": 100}",Pike,21195,False,False,America/New_York,"(37.62651, -82.44437)",19.195198537882288,114772.0,1950_0_no,37.35270915025502,-82.50367583296772,20.0
41572,37.31342,-82.64368,Virgie,KY,Kentucky,True,,3368.0,28.6,21195,Pike,"{""21195"": 100}",Pike,21195,False,False,America/New_York,"(37.31342, -82.64368)",8.156510989164891,114772.0,1950_0_no,37.35270915025502,-82.50367583296772,20.0
41601,37.60969,-82.72037,Allen,KY,Kentucky,True,,421.0,27.9,21071,Floyd,"{""21071"": 100}",Floyd,21071,False,False,America/New_York,"(37.60969, -82.72037)",21.364135405829515,114772.0,1950_0_no,37.35270915025502,-82.50367583296772,20.0
41603,37.55934,-82.68704,Banner,KY,Kentucky,True,,1584.0,43.6,21071,Floyd,"{""21071"": 100}",Floyd,21071,False,False,America/New_York,"(37.55934, -82.68704)",17.463480109179944,114772.0,1950_0_no,37.35270915025502,-82.50367583296772,20.0
41604,37.38986,-82.66782,Beaver,KY,Kentucky,True,,477.0,24.4,21071,Floyd,"{""21071"": 100}",Floyd,21071,False,False,America/New_York,"(37.38986, -82.66782)",9.371519339205536,114772.0,1950_0_no,37.35270915025502,-82.50367583296772,20.0
41605,37.55498,-82.63009,Betsy Layne,KY,Kentucky,True,,615.0,72.9,21071,Floyd,"{""21071"": 72.77, ""21195"": 27.23}",Floyd|Pike,21071|21195,False,False,America/New_York,"(37.55498, -82.63009)",15.601074204039719,114772.0,1950_0_no,37.35270915025502,-82.50367583296772,20.0
41606,37.34594,-82.7375,Bevinsville,KY,Kentucky,True,,872.0,34.4,21071,Floyd,"{""21071"": 100}",Floyd,21071,False,False,America/New_York,"(37.34594, -82.7375)",12.851516951101242,114772.0,1950_0_no,37.35270915025502,-82.50367583296772,20.0
41607,37.62216,-82.8438,Blue River,KY,Kentucky,True,,412.0,28.1,21071,Floyd,"{""21071"": 100}",Floyd,21071,False,False,America/New_York,"(37.62216, -82.8438)",26.349942652227224,114772.0,1950_0_no,37.35270915025502,-82.50367583296772,20.0
41612,37.35451,-82.72233,Bypro,KY,Kentucky,True,,81.0,80.9,21071,Floyd,"{""21071"": 100}",Floyd,21071,False,False,America/New_York,"(37.35451, -82.72233)",12.009737130978987,114772.0,1950_0_no,37.35270915025502,-82.50367583296772,20.0
41615,37.54211,-82.68337,Dana,KY,Kentucky,True,,438.0,30.7,21071,Floyd,"{""21071"": 100}",Floyd,21071,False,False,America/New_York,"(37.54211, -82.68337)",16.383283037162826,114772.0,1950_0_no,37.35270915025502,-82.50367583296772,20.0
41619,37.48328,-82.74187,Drift,KY,Kentucky,True,,194.0,10.9,21071,Floyd,"{""21071"": 100}",Floyd,21071,False,False,America/New_York,"(37.48328, -82.74187)",15.882105181611387,114772.0,1950_0_no,37.35270915025502,-82.50367583296772,20.0
41621,37.6269,-82.72663,Dwale,KY,Kentucky,True,,192.0,93.6,21071,Floyd,"{""21071"": 100}",Floyd,21071,False,False,America/New_York,"(37.6269, -82.72663)",22.545641809831245,114772.0,1950_0_no,37.35270915025502,-82.50367583296772,20.0
41622,37.51377,-82.80925,Eastern,KY,Kentucky,True,,83.0,8.0,21071,Floyd,"{""21071"": 100}",Floyd,21071,False,False,America/New_York,"(37.51377, -82.80925)",20.122320759158637,114772.0,1950_0_no,37.35270915025502,-82.50367583296772,20.0
41630,37.46416,-82.84992,Garrett,KY,Kentucky,True,,1148.0,28.6,21071,Floyd,"{""21071"": 54.1, ""21119"": 45.9}",Floyd|Knott,21071|21119,False,False,America/New_York,"(37.46416, -82.84992)",20.503744096334497,114772.0,1950_0_no,37.35270915025502,-82.50367583296772,20.0
41631,37.46801,-82.65365,Grethel,KY,Kentucky,True,,1311.0,53.9,21071,Floyd,"{""21071"": 100}",Floyd,21071,False,False,America/New_York,"(37.46801, -82.65365)",11.454739277018831,114772.0,1950_0_no,37.35270915025502,-82.50367583296772,20.0
41635,37.48009,-82.62831,Harold,KY,Kentucky,True,,2612.0,46.4,21071,Floyd,"{""21071"": 100}",Floyd,21071,False,False,America/New_York,"(37.48009, -82.62831)",11.14629032032422,114772.0,1950_0_no,37.35270915025502,-82.50367583296772,20.0
41636,37.39772,-82.73087,Hi Hat,KY,Kentucky,True,,858.0,39.1,21071,Floyd,"{""21071"": 100}",Floyd,21071,False,False,America/New_York,"(37.39772, -82.73087)",12.856358334821152,114772.0,1950_0_no,37.35270915025502,-82.50367583296772,20.0
41642,37.59569,-82.64457,Ivel,KY,Kentucky,True,,740.0,33.1,21071,Floyd,"{""21071"": 100}",Floyd,21071,False,False,America/New_York,"(37.59569, -82.64457)",18.48075063291965,114772.0,1950_0_no,37.35270915025502,-82.50367583296772,20.0
41643,37.43778,-82.84307,Lackey,KY,Kentucky,True,,111.0,10.4,21119,Knott,"{""21119"": 100}",Knott,21119,False,False,America/New_York,"(37.43778, -82.84307)",19.535354617148748,114772.0,1950_0_no,37.35270915025502,-82.50367583296772,20.0
41645,37.52872,-82.79294,Langley,KY,Kentucky,True,,768.0,25.8,21071,Floyd,"{""21071"": 100}",Floyd,21071,False,False,America/New_York,"(37.52872, -82.79294)",19.992766664879493,114772.0,1950_0_no,37.35270915025502,-82.50367583296772,20.0
41647,37.43056,-82.71737,McDowell,KY,Kentucky,True,,1866.0,38.6,21071,Floyd,"{""21071"": 100}",Floyd,21071,False,False,America/New_York,"(37.43056, -82.71737)",12.905167892808302,114772.0,1950_0_no,37.35270915025502,-82.50367583296772,20.0
41649,37.57139,-82.78337,Martin,KY,Kentucky,True,,2187.0,35.2,21071,Floyd,"{""21071"": 100}",Floyd,21071,False,False,America/New_York,"(37.57139, -82.78337)",21.531123818113503,114772.0,1950_0_no,37.35270915025502,-82.50367583296772,20.0
41650,37.34722,-82.68166,Melvin,KY,Kentucky,True,,480.0,33.7,21071,Floyd,"{""21071"": 100}",Floyd,21071,False,False,America/New_York,"(37.34722, -82.68166)",9.783213065710841,114772.0,1950_0_no,37.35270915025502,-82.50367583296772,20.0
41655,37.50496,-82.72465,Printer,KY,Kentucky,True,,1266.0,33.9,21071,Floyd,"{""21071"": 100}",Floyd,21071,False,False,America/New_York,"(37.50496, -82.72465)",16.051789441196018,114772.0,1950_0_no,37.35270915025502,-82.50367583296772,20.0
41659,37.58415,-82.60064,Stanville,KY,Kentucky,True,,452.0,16.5,21195,Pike,"{""21195"": 74.29, ""21071"": 25.71}",Pike|Floyd,21195|21071,False,False,America/New_York,"(37.58415, -82.60064)",16.851938304797745,114772.0,1950_0_no,37.35270915025502,-82.50367583296772,20.0
41660,37.41341,-82.63846,Teaberry,KY,Kentucky,True,,502.0,28.3,21071,Floyd,"{""21071"": 100}",Floyd,21071,False,False,America/New_York,"(37.41341, -82.63846)",8.505712096441355,114772.0,1950_0_no,37.35270915025502,-82.50367583296772,20.0
41663,37.56844,-82.65966,Tram,KY,Kentucky,True,,384.0,99.6,21071,Floyd,"{""21071"": 100}",Floyd,21071,False,False,America/New_York,"(37.56844, -82.65966)",17.186092641024356,114772.0,1950_0_no,37.35270915025502,-82.50367583296772,20.0
41666,37.4396,-82.80621,Wayland,KY,Kentucky,True,,738.0,30.2,21071,Floyd,"{""21071"": 100}",Floyd,21071,False,False,America/New_York,"(37.4396, -82.80621)",17.658473833319466,114772.0,1950_0_no,37.35270915025502,-82.50367583296772,20.0
41667,37.31138,-82.69881,Weeksbury,KY,Kentucky,True,,468.0,30.8,21071,Floyd,"{""21071"": 100}",Floyd,21071,False,False,America/New_York,"(37.31138, -82.69881)",11.09418722276291,114772.0,1950_0_no,37.35270915025502,-82.50367583296772,20.0
41669,37.33375,-82.71469,Wheelwright,KY,Kentucky,True,,905.0,126.7,21071,Floyd,"{""21071"": 100}",Floyd,21071,False,False,America/New_York,"(37.33375, -82.71469)",11.664871511867533,114772.0,1950_0_no,37.35270915025502,-82.50367583296772,20.0
41810,37.18492,-82.67278,Cromona,KY,Kentucky,True,,365.0,55.3,21133,Letcher,"{""21133"": 100}",Letcher,21133,False,False,America/New_York,"(37.18492, -82.67278)",14.861225468117947,114772.0,1950_0_no,37.35270915025502,-82.50367583296772,20.0
41812,37.2473,-82.74445,Deane,KY,Kentucky,True,,245.0,15.6,21133,Letcher,"{""21133"": 100}",Letcher,21133,False,False,America/New_York,"(37.2473, -82.74445)",15.105182364537914,114772.0,1950_0_no,37.35270915025502,-82.50367583296772,20.0
41815,37.15821,-82.79799,Ermine,KY,Kentucky,True,,714.0,38.4,21133,Letcher,"{""21133"": 100}",Letcher,21133,False,False,America/New_York,"(37.15821, -82.79799)",21.037374283927257,114772.0,1950_0_no,37.35270915025502,-82.50367583296772,20.0
41825,37.23323,-82.70854,Jackhorn,KY,Kentucky,True,,403.0,30.0,21133,Letcher,"{""21133"": 100}",Letcher,21133,False,False,America/New_York,"(37.23323, -82.70854)",13.962592679232452,114772.0,1950_0_no,37.35270915025502,-82.50367583296772,20.0
41828,37.2971,-82.78444,Kite,KY,Kentucky,True,,837.0,15.4,21119,Knott,"{""21119"": 100}",Knott,21119,False,False,America/New_York,"(37.2971, -82.78444)",15.897530681121383,114772.0,1950_0_no,37.35270915025502,-82.50367583296772,20.0
41835,37.21196,-82.67114,McRoberts,KY,Kentucky,True,,792.0,48.2,21133,Letcher,"{""21133"": 100}",Letcher,21133,False,False,America/New_York,"(37.21196, -82.67114)",13.391369474760085,114772.0,1950_0_no,37.35270915025502,-82.50367583296772,20.0
41837,37.1215,-82.75231,Mayking,KY,Kentucky,True,,1216.0,51.6,21133,Letcher,"{""21133"": 100}",Letcher,21133,False,False,America/New_York,"(37.1215, -82.75231)",21.029905515194596,114772.0,1950_0_no,37.35270915025502,-82.50367583296772,20.0
41838,37.19677,-82.75144,Millstone,KY,Kentucky,True,,811.0,36.5,21133,Letcher,"{""21133"": 100}",Letcher,21133,False,False,America/New_York,"(37.19677, -82.75144)",17.368087210426584,114772.0,1950_0_no,37.35270915025502,-82.50367583296772,20.0
41840,37.19962,-82.71813,Neon,KY,Kentucky,True,,788.0,61.3,21133,Letcher,"{""21133"": 100}",Letcher,21133,False,False,America/New_York,"(37.19962, -82.71813)",15.839808702424142,114772.0,1950_0_no,37.35270915025502,-82.50367583296772,20.0
41843,37.27495,-82.85938,Pine Top,KY,Kentucky,True,,411.0,13.3,21119,Knott,"{""21119"": 100}",Knott,21119,False,False,America/New_York,"(37.27495, -82.85938)",20.2715244402673,114772.0,1950_0_no,37.35270915025502,-82.50367583296772,20.0
41844,37.32916,-82.8643,Pippa Passes,KY,Kentucky,True,,1513.0,38.9,21119,Knott,"{""21119"": 100}",Knott,21119,False,False,America/New_York,"(37.32916, -82.8643)",19.876522876656654,114772.0,1950_0_no,37.35270915025502,-82.50367583296772,20.0
41849,37.1744,-82.73251,Seco,KY,Kentucky,True,,125.0,49.9,21133,Letcher,"{""21133"": 100}",Letcher,21133,False,False,America/New_York,"(37.1744, -82.73251)",17.610236212445173,114772.0,1950_0_no,37.35270915025502,-82.50367583296772,20.0
41855,37.18874,-82.78496,Thornton,KY,Kentucky,True,,841.0,43.6,21133,Letcher,"{""21133"": 100}",Letcher,21133,False,False,America/New_York,"(37.18874, -82.78496)",19.17147746602179,114772.0,1950_0_no,37.35270915025502,-82.50367583296772,20.0
41858,37.1454,-82.84697,Whitesburg,KY,Kentucky,True,,7270.0,32.2,21133,Letcher,"{""21133"": 100}",Letcher,21133,False,False,America/New_York,"(37.1454, -82.84697)",23.699267837748405,114772.0,1950_0_no,37.35270915025502,-82.50367583296772,20.0
41859,37.39922,-82.77606,Dema,KY,Kentucky,True,,302.0,16.4,21119,Knott,"{""21119"": 100}",Knott,21119,False,False,America/New_York,"(37.39922, -82.77606)",15.296998479134073,114772.0,1950_0_no,37.35270915025502,-82.50367583296772,20.0
41861,37.39002,-82.8264,Raven,KY,Kentucky,True,,187.0,7.3,21119,Knott,"{""21119"": 100}",Knott,21119,False,False,America/New_York,"(37.39002, -82.8264)",17.907238248493144,114772.0,1950_0_no,37.35270915025502,-82.50367583296772,20.0
41862,37.34971,-82.78929,Topmost,KY,Kentucky,True,,900.0,25.4,21119,Knott,"{""21119"": 100}",Knott,21119,False,False,America/New_York,"(37.34971, -82.78929)",15.68858887831306,114772.0,1950_0_no,37.35270915025502,-82.50367583296772,20.0
