zip,lat,lng,city,state_id,state_name,zcta,parent_zcta,population,density,county_fips,county_name,county_weights,county_names_all,county_fips_all,imprecise,military,timezone,Coord,distance_miles,market_total_population,market_id,market_center_lat,market_center_lng,radius_miles
66701,37.82862,-94.75999,Fort Scott,KS,Kansas,True,,11967.0,16.2,20011,Bourbon,"{""20011"": 97.78, ""20037"": 2.22}",Bourbon|Crawford,20011|20037,False,False,America/Chicago,"(37.82862, -94.75999)",19.40828991804617,58834.0,1972_0_yes,37.68004935345616,-95.06150796788376,20.0
66712,37.5636,-94.71657,Arma,KS,Kansas,True,,1763.0,30.6,20037,Crawford,"{""20037"": 100}",Crawford,20037,False,False,America/Chicago,"(37.5636, -94.71657)",20.520201527712285,58834.0,1972_0_yes,37.68004935345616,-95.06150796788376,20.0
66716,37.93923,-95.04001,Bronson,KS,Kansas,True,,435.0,2.0,20011,Bourbon,"{""20011"": 83.33, ""20001"": 16.67}",Bourbon|Allen,20011|20001,False,False,America/Chicago,"(37.93923, -95.04001)",17.946086851670234,58834.0,1972_0_yes,37.68004935345616,-95.06150796788376,20.0
66732,37.80097,-95.1947,Elsmore,KS,Kansas,True,,271.0,2.5,20001,Allen,"{""20001"": 100}",Allen,20001,False,False,America/Chicago,"(37.80097, -95.1947)",11.079874208613415,58834.0,1972_0_yes,37.68004935345616,-95.06150796788376,20.0
66733,37.59014,-95.25282,Erie,KS,Kansas,True,,2292.0,6.4,20133,Neosho,"{""20133"": 100}",Neosho,20133,False,False,America/Chicago,"(37.59014, -95.25282)",12.172376954825081,58834.0,1972_0_yes,37.68004935345616,-95.06150796788376,20.0
66734,37.61534,-94.82172,Farlington,KS,Kansas,True,,165.0,2.0,20037,Crawford,"{""20037"": 100}",Crawford,20037,False,False,America/Chicago,"(37.61534, -94.82172)",13.859038299333392,58834.0,1972_0_yes,37.68004935345616,-95.06150796788376,20.0
66735,37.52091,-94.71313,Franklin,KS,Kansas,True,,617.0,51.8,20037,Crawford,"{""20037"": 100}",Crawford,20037,False,False,America/Chicago,"(37.52091, -94.71313)",22.013503926261503,58834.0,1972_0_yes,37.68004935345616,-95.06150796788376,20.0
66740,37.4621,-95.36641,Galesburg,KS,Kansas,True,,317.0,3.3,20133,Neosho,"{""20133"": 100}",Neosho,20133,False,False,America/Chicago,"(37.4621, -95.36641)",22.48494104115809,58834.0,1972_0_yes,37.68004935345616,-95.06150796788376,20.0
66743,37.50551,-94.88786,Girard,KS,Kansas,True,,4420.0,11.8,20037,Crawford,"{""20037"": 100}",Crawford,20037,False,False,America/Chicago,"(37.50551, -94.88786)",15.356115919999251,58834.0,1972_0_yes,37.68004935345616,-95.06150796788376,20.0
66746,37.6708,-94.95317,Hepler,KS,Kansas,True,,196.0,1.4,20037,Crawford,"{""20037"": 57.07, ""20011"": 42.93}",Crawford|Bourbon,20037|20011,False,False,America/Chicago,"(37.6708, -94.95317)",5.9589867688868905,58834.0,1972_0_yes,37.68004935345616,-95.06150796788376,20.0
66749,37.93597,-95.41069,Iola,KS,Kansas,True,,7272.0,25.7,20001,Allen,"{""20001"": 100}",Allen,20001,False,False,America/Chicago,"(37.93597, -95.41069)",26.000029933897256,58834.0,1972_0_yes,37.68004935345616,-95.06150796788376,20.0
66751,37.93421,-95.28466,La Harpe,KS,Kansas,True,,612.0,4.8,20001,Allen,"{""20001"": 100}",Allen,20001,False,False,America/Chicago,"(37.93421, -95.28466)",21.372312608151688,58834.0,1972_0_yes,37.68004935345616,-95.06150796788376,20.0
66755,37.91211,-95.16727,Moran,KS,Kansas,True,,854.0,2.6,20001,Allen,"{""20001"": 93.63, ""20011"": 6.37}",Allen|Bourbon,20001|20011,False,False,America/Chicago,"(37.91211, -95.16727)",17.041935546736706,58834.0,1972_0_yes,37.68004935345616,-95.06150796788376,20.0
66762,37.39443,-94.71092,Pittsburg,KS,Kansas,True,,24498.0,70.6,20037,Crawford,"{""20037"": 82.73, ""20021"": 17.27}",Crawford|Cherokee,20037|20021,False,False,America/Chicago,"(37.39443, -94.71092)",27.53896215296479,58834.0,1972_0_yes,37.68004935345616,-95.06150796788376,20.0
66769,37.85317,-94.89379,Redfield,KS,Kansas,True,,595.0,4.6,20011,Bourbon,"{""20011"": 100}",Bourbon,20011,False,False,America/Chicago,"(37.85317, -94.89379)",15.066324748397097,58834.0,1972_0_yes,37.68004935345616,-95.06150796788376,20.0
66771,37.49211,-95.14883,Saint Paul,KS,Kansas,True,,1056.0,6.6,20133,Neosho,"{""20133"": 100}",Neosho,20133,False,False,America/Chicago,"(37.49211, -95.14883)",13.83757698881522,58834.0,1972_0_yes,37.68004935345616,-95.06150796788376,20.0
66772,37.74559,-95.18813,Savonburg,KS,Kansas,True,,155.0,1.2,20001,Allen,"{""20001"": 67.43, ""20011"": 17.3, ""20133"": 15.27}",Allen|Bourbon|Neosho,20001|20011|20133,False,False,America/Chicago,"(37.74559, -95.18813)",8.2708606406158,58834.0,1972_0_yes,37.68004935345616,-95.06150796788376,20.0
66775,37.69957,-95.14855,Stark,KS,Kansas,True,,162.0,3.0,20133,Neosho,"{""20133"": 100}",Neosho,20133,False,False,America/Chicago,"(37.69957, -95.14855)",4.9465267735085225,58834.0,1972_0_yes,37.68004935345616,-95.06150796788376,20.0
66779,37.83751,-94.97867,Uniontown,KS,Kansas,True,,674.0,3.5,20011,Bourbon,"{""20011"": 100}",Bourbon,20011,False,False,America/Chicago,"(37.83751, -94.97867)",11.783003706713291,58834.0,1972_0_yes,37.68004935345616,-95.06150796788376,20.0
66780,37.60895,-95.05881,Walnut,KS,Kansas,True,,513.0,1.9,20037,Crawford,"{""20037"": 62.91, ""20133"": 27.24, ""20011"": 9.85}",Crawford|Neosho|Bourbon,20037|20133|20011,False,False,America/Chicago,"(37.60895, -95.05881)",4.914714411710587,58834.0,1972_0_yes,37.68004935345616,-95.06150796788376,20.0
