zip,lat,lng,city,state_id,state_name,zcta,parent_zcta,population,density,county_fips,county_name,county_weights,county_names_all,county_fips_all,imprecise,military,timezone,Coord,distance_miles,market_total_population,market_id,market_center_lat,market_center_lng,radius_miles
67008,37.47796,-96.76983,Atlanta,KS,Kansas,True,,547.0,1.9,20035,Cowley,"{""20035"": 56.47, ""20015"": 43.53}",Cowley|Butler,20035|20015,False,False,America/Chicago,"(37.47796, -96.76983)",19.731410830422874,24608.0,1974_0_yes,37.68456521901372,-96.52105732727804,20.0
67012,37.66175,-96.54701,Beaumont,KS,Kansas,True,,29.0,0.6,20015,Butler,"{""20015"": 100}",Butler,20015,False,False,America/Chicago,"(37.66175, -96.54701)",2.12117885833614,24608.0,1974_0_yes,37.68456521901372,-96.52105732727804,20.0
67042,37.84868,-96.79809,El Dorado,KS,Kansas,True,,17457.0,26.1,20015,Butler,"{""20015"": 100}",Butler,20015,False,False,America/Chicago,"(37.84868, -96.79809)",18.9085722900577,24608.0,1974_0_yes,37.68456521901372,-96.52105732727804,20.0
67045,37.85131,-96.33863,Eureka,KS,Kansas,True,,3279.0,2.8,20073,Greenwood,"{""20073"": 99.25, ""20015"": 0.75}",Greenwood|Butler,20073|20015,False,False,America/Chicago,"(37.85131, -96.33863)",15.231900941976455,24608.0,1974_0_yes,37.68456521901372,-96.52105732727804,20.0
67072,37.5445,-96.61632,Latham,KS,Kansas,True,,356.0,1.2,20015,Butler,"{""20015"": 90.57, ""20035"": 9.43}",Butler|Cowley,20015|20035,False,False,America/Chicago,"(37.5445, -96.61632)",10.992717838497683,24608.0,1974_0_yes,37.68456521901372,-96.52105732727804,20.0
67074,37.67038,-96.72945,Leon,KS,Kansas,True,,1148.0,2.6,20015,Butler,"{""20015"": 100}",Butler,20015,False,False,America/Chicago,"(37.67038, -96.72945)",11.438009169547822,24608.0,1974_0_yes,37.68456521901372,-96.52105732727804,20.0
67122,37.62015,-96.42392,Piedmont,KS,Kansas,True,,125.0,0.4,20073,Greenwood,"{""20073"": 57.85, ""20049"": 42.15}",Greenwood|Elk,20073|20049,False,False,America/Chicago,"(37.62015, -96.42392)",6.931402646533757,24608.0,1974_0_yes,37.68456521901372,-96.52105732727804,20.0
67132,37.8504,-96.58385,Rosalia,KS,Kansas,True,,405.0,1.8,20015,Butler,"{""20015"": 100}",Butler,20015,False,False,America/Chicago,"(37.8504, -96.58385)",11.960363962865538,24608.0,1974_0_yes,37.68456521901372,-96.52105732727804,20.0
67137,37.63145,-96.22196,Severy,KS,Kansas,True,,386.0,1.9,20073,Greenwood,"{""20073"": 71.45, ""20049"": 28.55}",Greenwood|Elk,20073|20049,False,False,America/Chicago,"(37.63145, -96.22196)",16.76696309401164,24608.0,1974_0_yes,37.68456521901372,-96.52105732727804,20.0
67349,37.48811,-96.28066,Howard,KS,Kansas,True,,876.0,1.4,20049,Elk,"{""20049"": 100}",Elk,20049,False,False,America/Chicago,"(37.48811, -96.28066)",18.907437946744327,24608.0,1974_0_yes,37.68456521901372,-96.52105732727804,20.0
