zip,lat,lng,city,state_id,state_name,zcta,parent_zcta,population,density,county_fips,county_name,county_weights,county_names_all,county_fips_all,imprecise,military,timezone,Coord,distance_miles,market_total_population,market_id,market_center_lat,market_center_lng,radius_miles
84720,37.55477,-113.25665,Cedar City,UT,Utah,True,,22132.0,25.0,49021,Iron,"{""49021"": 69.02, ""49053"": 30.98}",Iron|Washington,49021|49053,False,False,America/Denver,"(37.55477, -113.25665)",12.922832518071123,50365.0,1997_0_yes,37.736550280179536,-113.31224414978288,20.0
84721,37.77021,-113.13308,Cedar City,UT,Utah,True,,25286.0,52.2,49021,Iron,"{""49021"": 100}",Iron,49021,False,False,America/Denver,"(37.77021, -113.13308)",10.060059924097896,50365.0,1997_0_yes,37.736550280179536,-113.31224414978288,20.0
84722,37.48553,-113.57582,Central,UT,Utah,True,,940.0,3.6,49053,Washington,"{""49053"": 100}",Washington,49053,False,False,America/Denver,"(37.48553, -113.57582)",22.55953807109945,50365.0,1997_0_yes,37.736550280179536,-113.31224414978288,20.0
84742,37.52102,-113.14592,Kanarraville,UT,Utah,True,,308.0,2.1,49021,Iron,"{""49021"": 100}",Iron,49021,False,False,America/Denver,"(37.52102, -113.14592)",17.452750513272886,50365.0,1997_0_yes,37.736550280179536,-113.31224414978288,20.0
84756,37.74249,-113.54772,Newcastle,UT,Utah,True,,326.0,1.8,49021,Iron,"{""49021"": 100}",Iron,49021,False,False,America/Denver,"(37.74249, -113.54772)",12.87274802545163,50365.0,1997_0_yes,37.736550280179536,-113.31224414978288,20.0
84757,37.45227,-113.25166,New Harmony,UT,Utah,True,,1373.0,9.9,49053,Washington,"{""49053"": 96.69, ""49021"": 3.31}",Washington|Iron,49053|49021,False,False,America/Denver,"(37.45227, -113.25166)",19.919960944861938,50365.0,1997_0_yes,37.736550280179536,-113.31224414978288,20.0
