zip,lat,lng,city,state_id,state_name,zcta,parent_zcta,population,density,county_fips,county_name,county_weights,county_names_all,county_fips_all,imprecise,military,timezone,Coord,distance_miles,market_total_population,market_id,market_center_lat,market_center_lng,radius_miles
62002,38.93988,-90.12829,Alton,IL,Illinois,True,,30937.0,289.4,17119,Madison,"{""17119"": 92.98, ""17117"": 7.02}",Madison|Macoupin,17119|17117,False,False,America/Chicago,"(38.93988, -90.12829)",8.158149324948315,1482469.0,2127_0_yes,38.821882267854406,-90.13374751362596,20.0
62009,39.09351,-89.79856,Benld,IL,Illinois,True,,1874.0,251.7,17117,Macoupin,"{""17117"": 100}",Macoupin,17117,False,False,America/Chicago,"(39.09351, -89.79856)",26.01045068327225,1482469.0,2127_0_yes,38.821882267854406,-90.13374751362596,20.0
62010,38.91944,-90.04789,Bethalto,IL,Illinois,True,,11123.0,202.2,17119,Madison,"{""17119"": 100}",Madison,17119,False,False,America/Chicago,"(38.91944, -90.04789)",8.171109548892868,1482469.0,2127_0_yes,38.821882267854406,-90.13374751362596,20.0
62012,39.04225,-90.15027,Brighton,IL,Illinois,True,,6605.0,42.3,17083,Jersey,"{""17083"": 49.91, ""17117"": 44.71, ""17119"": 5.38}",Jersey|Macoupin|Madison,17083|17117|17119,False,False,America/Chicago,"(39.04225, -90.15027)",15.251834859112458,1482469.0,2127_0_yes,38.821882267854406,-90.13374751362596,20.0
62014,39.04313,-89.94999,Bunker Hill,IL,Illinois,True,,3918.0,25.2,17117,Macoupin,"{""17117"": 100}",Macoupin,17117,False,False,America/Chicago,"(39.04313, -89.94999)",18.19966371218001,1482469.0,2127_0_yes,38.821882267854406,-90.13374751362596,20.0
62018,38.90847,-90.08574,Cottage Hills,IL,Illinois,True,,2896.0,336.5,17119,Madison,"{""17119"": 100}",Madison,17119,False,False,America/Chicago,"(38.90847, -90.08574)",6.516314077017229,1482469.0,2127_0_yes,38.821882267854406,-90.13374751362596,20.0
62021,38.97797,-89.981,Dorsey,IL,Illinois,True,,832.0,15.8,17119,Madison,"{""17119"": 97.68, ""17117"": 2.32}",Madison|Macoupin,17119|17117,False,False,America/Chicago,"(38.97797, -89.981)",13.556152774020992,1482469.0,2127_0_yes,38.821882267854406,-90.13374751362596,20.0
62022,39.00139,-90.32972,Dow,IL,Illinois,True,,974.0,18.4,17083,Jersey,"{""17083"": 100}",Jersey,17083,False,False,America/Chicago,"(39.00139, -90.32972)",16.273800448126455,1482469.0,2127_0_yes,38.821882267854406,-90.13374751362596,20.0
62023,39.10794,-89.78278,Eagarville,IL,Illinois,True,,106.0,52.3,17117,Macoupin,"{""17117"": 100}",Macoupin,17117,False,False,America/Chicago,"(39.10794, -89.78278)",27.315630796855828,1482469.0,2127_0_yes,38.821882267854406,-90.13374751362596,20.0
62024,38.88343,-90.08879,East Alton,IL,Illinois,True,,9731.0,701.3,17119,Madison,"{""17119"": 100}",Madison,17119,False,False,America/Chicago,"(38.88343, -90.08879)",4.89243205787128,1482469.0,2127_0_yes,38.821882267854406,-90.13374751362596,20.0
62025,38.83004,-89.93298,Edwardsville,IL,Illinois,True,,35691.0,122.8,17119,Madison,"{""17119"": 100}",Madison,17119,False,False,America/Chicago,"(38.83004, -89.93298)",10.821500472853486,1482469.0,2127_0_yes,38.821882267854406,-90.13374751362596,20.0
62028,38.95932,-90.35353,Elsah,IL,Illinois,True,,1133.0,73.1,17083,Jersey,"{""17083"": 100}",Jersey,17083,False,False,America/Chicago,"(38.95932, -90.35353)",15.16170698456101,1482469.0,2127_0_yes,38.821882267854406,-90.13374751362596,20.0
62034,38.75639,-89.96897,Glen Carbon,IL,Illinois,True,,13388.0,377.4,17119,Madison,"{""17119"": 100}",Madison,17119,False,False,America/Chicago,"(38.75639, -89.96897)",9.961267202123254,1482469.0,2127_0_yes,38.821882267854406,-90.13374751362596,20.0
62035,38.96375,-90.23917,Godfrey,IL,Illinois,True,,16460.0,145.2,17119,Madison,"{""17119"": 68.24, ""17083"": 31.76}",Madison|Jersey,17119|17083,False,False,America/Chicago,"(38.96375, -90.23917)",11.323540020958587,1482469.0,2127_0_yes,38.821882267854406,-90.13374751362596,20.0
62037,39.00826,-90.4664,Grafton,IL,Illinois,True,,1822.0,12.3,17083,Jersey,"{""17083"": 100}",Jersey,17083,False,False,America/Chicago,"(39.00826, -90.4664)",22.03735137969822,1482469.0,2127_0_yes,38.821882267854406,-90.13374751362596,20.0
62040,38.71592,-90.10078,Granite City,IL,Illinois,True,,42487.0,411.3,17119,Madison,"{""17119"": 100}",Madison,17119,False,False,America/Chicago,"(38.71592, -90.10078)",7.5336225743326315,1482469.0,2127_0_yes,38.821882267854406,-90.13374751362596,20.0
62046,38.88935,-89.84397,Hamel,IL,Illinois,True,,748.0,271.7,17119,Madison,"{""17119"": 100}",Madison,17119,False,False,America/Chicago,"(38.88935, -89.84397)",16.27344149449398,1482469.0,2127_0_yes,38.821882267854406,-90.13374751362596,20.0
62048,38.77004,-90.13895,Hartford,IL,Illinois,True,,1769.0,39.7,17119,Madison,"{""17119"": 100}",Madison,17119,False,False,America/Chicago,"(38.77004, -90.13895)",3.592898663234326,1482469.0,2127_0_yes,38.821882267854406,-90.13374751362596,20.0
62052,39.11179,-90.32004,Jerseyville,IL,Illinois,True,,12599.0,34.0,17083,Jersey,"{""17083"": 98.81, ""17061"": 1.19}",Jersey|Greene,17083|17061,False,False,America/Chicago,"(39.11179, -90.32004)",22.391621974508624,1482469.0,2127_0_yes,38.821882267854406,-90.13374751362596,20.0
62058,38.96793,-89.76491,Livingston,IL,Illinois,True,,780.0,283.4,17119,Madison,"{""17119"": 100}",Madison,17119,False,False,America/Chicago,"(38.96793, -89.76491)",22.25371316728774,1482469.0,2127_0_yes,38.821882267854406,-90.13374751362596,20.0
62059,38.65434,-90.17097,Lovejoy,IL,Illinois,True,,416.0,244.5,17163,St. Clair,"{""17163"": 100}",St. Clair,17163,False,False,America/Chicago,"(38.65434, -90.17097)",11.748601396945729,1482469.0,2127_0_yes,38.821882267854406,-90.13374751362596,20.0
62060,38.67664,-90.14686,Madison,IL,Illinois,True,,3881.0,424.2,17119,Madison,"{""17119"": 95.76, ""17163"": 4.24}",Madison|St. Clair,17119|17163,False,False,America/Chicago,"(38.67664, -90.14686)",10.060128516490842,1482469.0,2127_0_yes,38.821882267854406,-90.13374751362596,20.0
62061,38.79077,-89.77624,Marine,IL,Illinois,True,,1718.0,28.6,17119,Madison,"{""17119"": 100}",Madison,17119,False,False,America/Chicago,"(38.79077, -89.77624)",19.368689878005128,1482469.0,2127_0_yes,38.821882267854406,-90.13374751362596,20.0
62062,38.72719,-89.96253,Maryville,IL,Illinois,True,,8107.0,495.9,17119,Madison,"{""17119"": 100}",Madison,17119,False,False,America/Chicago,"(38.72719, -89.96253)",11.307825738875101,1482469.0,2127_0_yes,38.821882267854406,-90.13374751362596,20.0
62067,38.92961,-89.98837,Moro,IL,Illinois,True,,2200.0,48.9,17119,Madison,"{""17119"": 100}",Madison,17119,False,False,America/Chicago,"(38.92961, -89.98837)",10.795930092915253,1482469.0,2127_0_yes,38.821882267854406,-90.13374751362596,20.0
62084,38.84082,-90.06365,Roxana,IL,Illinois,True,,1592.0,133.2,17119,Madison,"{""17119"": 100}",Madison,17119,False,False,America/Chicago,"(38.84082, -90.06365)",3.993342763306148,1482469.0,2127_0_yes,38.821882267854406,-90.13374751362596,20.0
62085,39.07839,-89.80308,Sawyerville,IL,Illinois,True,,165.0,71.1,17117,Macoupin,"{""17117"": 100}",Macoupin,17117,False,False,America/Chicago,"(39.07839, -89.80308)",25.09585000078794,1482469.0,2127_0_yes,38.821882267854406,-90.13374751362596,20.0
62087,38.81754,-90.06767,South Roxana,IL,Illinois,True,,2304.0,253.5,17119,Madison,"{""17119"": 100}",Madison,17119,False,False,America/Chicago,"(38.81754, -90.06767)",3.5697298397701505,1482469.0,2127_0_yes,38.821882267854406,-90.13374751362596,20.0
62088,39.01318,-89.79764,Staunton,IL,Illinois,True,,6376.0,56.1,17117,Macoupin,"{""17117"": 63.58, ""17119"": 36.42}",Macoupin|Madison,17117|17119,False,False,America/Chicago,"(39.01318, -89.79764)",22.386843276317567,1482469.0,2127_0_yes,38.821882267854406,-90.13374751362596,20.0
62090,38.66925,-90.17044,Venice,IL,Illinois,True,,1217.0,314.0,17119,Madison,"{""17119"": 100}",Madison,17119,False,False,America/Chicago,"(38.66925, -90.17044)",10.7296494344105,1482469.0,2127_0_yes,38.821882267854406,-90.13374751362596,20.0
62093,39.06858,-89.84573,Wilsonville,IL,Illinois,True,,292.0,50.7,17117,Macoupin,"{""17117"": 100}",Macoupin,17117,False,False,America/Chicago,"(39.06858, -89.84573)",23.023525223273214,1482469.0,2127_0_yes,38.821882267854406,-90.13374751362596,20.0
62095,38.86307,-90.07545,Wood River,IL,Illinois,True,,10415.0,565.9,17119,Madison,"{""17119"": 100}",Madison,17119,False,False,America/Chicago,"(38.86307, -90.07545)",4.235695721377673,1482469.0,2127_0_yes,38.821882267854406,-90.13374751362596,20.0
62097,38.93719,-89.85507,Worden,IL,Illinois,True,,2883.0,27.0,17119,Madison,"{""17119"": 100}",Madison,17119,False,False,America/Chicago,"(38.93719, -89.85507)",16.974966613292302,1482469.0,2127_0_yes,38.821882267854406,-90.13374751362596,20.0
62201,38.63567,-90.14162,East Saint Louis,IL,Illinois,True,,6542.0,209.8,17163,St. Clair,"{""17163"": 96.15, ""17119"": 3.85}",St. Clair|Madison,17163|17119,False,False,America/Chicago,"(38.63567, -90.14162)",12.87303779131303,1482469.0,2127_0_yes,38.821882267854406,-90.13374751362596,20.0
62203,38.60223,-90.07534,East Saint Louis,IL,Illinois,True,,8393.0,573.6,17163,St. Clair,"{""17163"": 100}",St. Clair,17163,False,False,America/Chicago,"(38.60223, -90.07534)",15.499768512859992,1482469.0,2127_0_yes,38.821882267854406,-90.13374751362596,20.0
62204,38.63033,-90.09642,East Saint Louis,IL,Illinois,True,,8215.0,686.8,17163,St. Clair,"{""17163"": 100}",St. Clair,17163,False,False,America/Chicago,"(38.63033, -90.09642)",13.38706972518321,1482469.0,2127_0_yes,38.821882267854406,-90.13374751362596,20.0
62205,38.60259,-90.11469,East Saint Louis,IL,Illinois,True,,7016.0,426.1,17163,St. Clair,"{""17163"": 100}",St. Clair,17163,False,False,America/Chicago,"(38.60259, -90.11469)",15.186449047057158,1482469.0,2127_0_yes,38.821882267854406,-90.13374751362596,20.0
62206,38.56796,-90.16981,East Saint Louis,IL,Illinois,True,,15157.0,402.5,17163,St. Clair,"{""17163"": 100}",St. Clair,17163,False,False,America/Chicago,"(38.56796, -90.16981)",17.65181032873664,1482469.0,2127_0_yes,38.821882267854406,-90.13374751362596,20.0
62207,38.58327,-90.12544,East Saint Louis,IL,Illinois,True,,9561.0,595.3,17163,St. Clair,"{""17163"": 100}",St. Clair,17163,False,False,America/Chicago,"(38.58327, -90.12544)",16.49262170541134,1482469.0,2127_0_yes,38.821882267854406,-90.13374751362596,20.0
62208,38.59641,-90.00528,Fairview Heights,IL,Illinois,True,,16517.0,476.2,17163,St. Clair,"{""17163"": 100}",St. Clair,17163,False,False,America/Chicago,"(38.59641, -90.00528)",17.04902915923248,1482469.0,2127_0_yes,38.821882267854406,-90.13374751362596,20.0
62223,38.53491,-90.06027,Belleville,IL,Illinois,True,,16642.0,250.3,17163,St. Clair,"{""17163"": 100}",St. Clair,17163,False,False,America/Chicago,"(38.53491, -90.06027)",20.220114748866294,1482469.0,2127_0_yes,38.821882267854406,-90.13374751362596,20.0
62225,38.54065,-89.85503,Scott Air Force Base,IL,Illinois,True,,5323.0,391.6,17163,St. Clair,"{""17163"": 100}",St. Clair,17163,False,False,America/Chicago,"(38.54065, -89.85503)",24.56762685403402,1482469.0,2127_0_yes,38.821882267854406,-90.13374751362596,20.0
62226,38.53634,-90.00057,Belleville,IL,Illinois,True,,28575.0,795.2,17163,St. Clair,"{""17163"": 100}",St. Clair,17163,False,False,America/Chicago,"(38.53634, -90.00057)",20.996133364287534,1482469.0,2127_0_yes,38.821882267854406,-90.13374751362596,20.0
62232,38.63266,-90.00509,Caseyville,IL,Illinois,True,,6442.0,193.9,17163,St. Clair,"{""17163"": 100}",St. Clair,17163,False,False,America/Chicago,"(38.63266, -90.00509)",14.799410727837017,1482469.0,2127_0_yes,38.821882267854406,-90.13374751362596,20.0
62234,38.68214,-89.9815,Collinsville,IL,Illinois,True,,32579.0,337.6,17119,Madison,"{""17119"": 83.58, ""17163"": 16.42}",Madison|St. Clair,17119|17163,False,False,America/Chicago,"(38.68214, -89.9815)",12.66978064549847,1482469.0,2127_0_yes,38.821882267854406,-90.13374751362596,20.0
62254,38.6098,-89.81901,Lebanon,IL,Illinois,True,,5896.0,55.7,17163,St. Clair,"{""17163"": 98.27, ""17119"": 1.73}",St. Clair|Madison,17163|17119,False,False,America/Chicago,"(38.6098, -89.81901)",22.419334692205922,1482469.0,2127_0_yes,38.821882267854406,-90.13374751362596,20.0
62269,38.59844,-89.91294,O'Fallon,IL,Illinois,True,,31755.0,411.0,17163,St. Clair,"{""17163"": 100}",St. Clair,17163,False,False,America/Chicago,"(38.59844, -89.91294)",19.495336491424286,1482469.0,2127_0_yes,38.821882267854406,-90.13374751362596,20.0
62281,38.70405,-89.78288,Saint Jacob,IL,Illinois,True,,2718.0,31.5,17119,Madison,"{""17119"": 100}",Madison,17119,False,False,America/Chicago,"(38.70405, -89.78288)",20.58169965293224,1482469.0,2127_0_yes,38.821882267854406,-90.13374751362596,20.0
62294,38.70374,-89.87242,Troy,IL,Illinois,True,,14036.0,183.8,17119,Madison,"{""17119"": 97.2, ""17163"": 2.8}",Madison|St. Clair,17119|17163,False,False,America/Chicago,"(38.70374, -89.87242)",16.27428049301105,1482469.0,2127_0_yes,38.821882267854406,-90.13374751362596,20.0
63031,38.81392,-90.35224,Florissant,MO,Missouri,True,,49110.0,1259.1,29189,St. Louis,"{""29189"": 100}",St. Louis,29189,False,False,America/Chicago,"(38.81392, -90.35224)",11.775091755146361,1482469.0,2127_0_yes,38.821882267854406,-90.13374751362596,20.0
63033,38.7958,-90.27786,Florissant,MO,Missouri,True,,41377.0,1313.1,29189,St. Louis,"{""29189"": 100}",St. Louis,29189,False,False,America/Chicago,"(38.7958, -90.27786)",7.965608625486469,1482469.0,2127_0_yes,38.821882267854406,-90.13374751362596,20.0
63034,38.84795,-90.28692,Florissant,MO,Missouri,True,,18075.0,372.6,29189,St. Louis,"{""29189"": 100}",St. Louis,29189,False,False,America/Chicago,"(38.84795, -90.28692)",8.438312724338292,1482469.0,2127_0_yes,38.821882267854406,-90.13374751362596,20.0
63042,38.78133,-90.37909,Hazelwood,MO,Missouri,True,,18310.0,682.7,29189,St. Louis,"{""29189"": 100}",St. Louis,29189,False,False,America/Chicago,"(38.78133, -90.37909)",13.504547743516406,1482469.0,2127_0_yes,38.821882267854406,-90.13374751362596,20.0
63043,38.72962,-90.45659,Maryland Heights,MO,Missouri,True,,22133.0,681.1,29189,St. Louis,"{""29189"": 100}",St. Louis,29189,False,False,America/Chicago,"(38.72962, -90.45659)",18.521621218449873,1482469.0,2127_0_yes,38.821882267854406,-90.13374751362596,20.0
63044,38.77455,-90.42825,Bridgeton,MO,Missouri,True,,10482.0,242.3,29189,St. Louis,"{""29189"": 100}",St. Louis,29189,False,False,America/Chicago,"(38.77455, -90.42825)",16.19219646953443,1482469.0,2127_0_yes,38.821882267854406,-90.13374751362596,20.0
63074,38.72637,-90.38895,Saint Ann,MO,Missouri,True,,15279.0,1506.0,29189,St. Louis,"{""29189"": 100}",St. Louis,29189,False,False,America/Chicago,"(38.72637, -90.38895)",15.248855207426448,1482469.0,2127_0_yes,38.821882267854406,-90.13374751362596,20.0
63088,38.54862,-90.50111,Valley Park,MO,Missouri,True,,8659.0,695.6,29189,St. Louis,"{""29189"": 100}",St. Louis,29189,False,False,America/Chicago,"(38.54862, -90.50111)",27.368581150428767,1482469.0,2127_0_yes,38.821882267854406,-90.13374751362596,20.0
63101,38.63127,-90.19275,Saint Louis,MO,Missouri,True,,3528.0,3762.9,29510,St. Louis,"{""29510"": 100}",St. Louis,29510,False,False,America/Chicago,"(38.63127, -90.19275)",13.548620798228074,1482469.0,2127_0_yes,38.821882267854406,-90.13374751362596,20.0
63102,38.63453,-90.18627,Saint Louis,MO,Missouri,True,,2381.0,649.2,29510,St. Louis,"{""29510"": 100}",St. Louis,29510,False,False,America/Chicago,"(38.63453, -90.18627)",13.250765793707714,1482469.0,2127_0_yes,38.821882267854406,-90.13374751362596,20.0
63103,38.62986,-90.217,Saint Louis,MO,Missouri,True,,9204.0,1617.5,29510,St. Louis,"{""29510"": 100}",St. Louis,29510,False,False,America/Chicago,"(38.62986, -90.217)",14.00585912542648,1482469.0,2127_0_yes,38.821882267854406,-90.13374751362596,20.0
63104,38.61078,-90.21276,Saint Louis,MO,Missouri,True,,20150.0,2312.8,29510,St. Louis,"{""29510"": 100}",St. Louis,29510,False,False,America/Chicago,"(38.61078, -90.21276)",15.195029298322012,1482469.0,2127_0_yes,38.821882267854406,-90.13374751362596,20.0
63105,38.64427,-90.32812,Saint Louis,MO,Missouri,True,,18698.0,2871.2,29189,St. Louis,"{""29189"": 95.71, ""29510"": 4.29}",St. Louis|St. Louis,29189|29510,False,False,America/Chicago,"(38.64427, -90.32812)",16.13533234135557,1482469.0,2127_0_yes,38.821882267854406,-90.13374751362596,20.0
63106,38.64445,-90.20795,Saint Louis,MO,Missouri,True,,9967.0,1726.5,29510,St. Louis,"{""29510"": 100}",St. Louis,29510,False,False,America/Chicago,"(38.64445, -90.20795)",12.895254212686098,1482469.0,2127_0_yes,38.821882267854406,-90.13374751362596,20.0
63107,38.66373,-90.21201,Saint Louis,MO,Missouri,True,,9272.0,1527.2,29510,St. Louis,"{""29510"": 100}",St. Louis,29510,False,False,America/Chicago,"(38.66373, -90.21201)",11.712962884028222,1482469.0,2127_0_yes,38.821882267854406,-90.13374751362596,20.0
63108,38.64485,-90.25337,Saint Louis,MO,Missouri,True,,20442.0,3520.0,29510,St. Louis,"{""29510"": 100}",St. Louis,29510,False,False,America/Chicago,"(38.64485, -90.25337)",13.82693852605179,1482469.0,2127_0_yes,38.821882267854406,-90.13374751362596,20.0
63109,38.58483,-90.29563,Saint Louis,MO,Missouri,True,,26768.0,2922.6,29510,St. Louis,"{""29510"": 100}",St. Louis,29510,False,False,America/Chicago,"(38.58483, -90.29563)",18.559462455452575,1482469.0,2127_0_yes,38.821882267854406,-90.13374751362596,20.0
63110,38.62538,-90.26645,Saint Louis,MO,Missouri,True,,17239.0,1013.2,29510,St. Louis,"{""29510"": 100}",St. Louis,29510,False,False,America/Chicago,"(38.62538, -90.26645)",15.346166399978461,1482469.0,2127_0_yes,38.821882267854406,-90.13374751362596,20.0
63111,38.55845,-90.24993,Saint Louis,MO,Missouri,True,,20608.0,2477.9,29510,St. Louis,"{""29510"": 100}",St. Louis,29510,False,False,America/Chicago,"(38.55845, -90.24993)",19.249710657124623,1482469.0,2127_0_yes,38.821882267854406,-90.13374751362596,20.0
63112,38.66,-90.28331,Saint Louis,MO,Missouri,True,,17531.0,2131.5,29510,St. Louis,"{""29510"": 100}",St. Louis,29510,False,False,America/Chicago,"(38.66, -90.28331)",13.78660839494314,1482469.0,2127_0_yes,38.821882267854406,-90.13374751362596,20.0
63113,38.65797,-90.2475,Saint Louis,MO,Missouri,True,,11502.0,1721.5,29510,St. Louis,"{""29510"": 100}",St. Louis,29510,False,False,America/Chicago,"(38.65797, -90.2475)",12.878015038426806,1482469.0,2127_0_yes,38.821882267854406,-90.13374751362596,20.0
63114,38.70218,-90.36224,Saint Louis,MO,Missouri,True,,34862.0,1523.7,29189,St. Louis,"{""29189"": 100}",St. Louis,29189,False,False,America/Chicago,"(38.70218, -90.36224)",14.830531027274906,1482469.0,2127_0_yes,38.821882267854406,-90.13374751362596,20.0
63115,38.68211,-90.23994,Saint Louis,MO,Missouri,True,,16504.0,1485.1,29510,St. Louis,"{""29510"": 100}",St. Louis,29510,False,False,America/Chicago,"(38.68211, -90.23994)",11.225223254593926,1482469.0,2127_0_yes,38.821882267854406,-90.13374751362596,20.0
63116,38.57999,-90.26501,Saint Louis,MO,Missouri,True,,43980.0,3143.9,29510,St. Louis,"{""29510"": 100}",St. Louis,29510,False,False,America/Chicago,"(38.57999, -90.26501)",18.150113119770268,1482469.0,2127_0_yes,38.821882267854406,-90.13374751362596,20.0
63117,38.63077,-90.33037,Saint Louis,MO,Missouri,True,,9290.0,1515.8,29189,St. Louis,"{""29189"": 94.4, ""29510"": 5.6}",St. Louis|St. Louis,29189|29510,False,False,America/Chicago,"(38.63077, -90.33037)",16.93189772687748,1482469.0,2127_0_yes,38.821882267854406,-90.13374751362596,20.0
63118,38.59237,-90.22534,Saint Louis,MO,Missouri,True,,27805.0,3157.2,29510,St. Louis,"{""29510"": 100}",St. Louis,29510,False,False,America/Chicago,"(38.59237, -90.22534)",16.608950783898887,1482469.0,2127_0_yes,38.821882267854406,-90.13374751362596,20.0
63119,38.58868,-90.35104,Saint Louis,MO,Missouri,True,,33752.0,1554.8,29189,St. Louis,"{""29189"": 99.01, ""29510"": 0.99}",St. Louis|St. Louis,29189|29510,False,False,America/Chicago,"(38.58868, -90.35104)",19.922025705664055,1482469.0,2127_0_yes,38.821882267854406,-90.13374751362596,20.0
63120,38.69061,-90.26211,Saint Louis,MO,Missouri,True,,7823.0,1266.5,29510,St. Louis,"{""29510"": 93.45, ""29189"": 6.55}",St. Louis|St. Louis,29510|29189,False,False,America/Chicago,"(38.69061, -90.26211)",11.406114801616962,1482469.0,2127_0_yes,38.821882267854406,-90.13374751362596,20.0
63121,38.70739,-90.30023,Saint Louis,MO,Missouri,True,,25374.0,1446.9,29189,St. Louis,"{""29189"": 100}",St. Louis,29189,False,False,America/Chicago,"(38.70739, -90.30023)",11.959194688654982,1482469.0,2127_0_yes,38.821882267854406,-90.13374751362596,20.0
63122,38.57853,-90.42133,Saint Louis,MO,Missouri,True,,39239.0,1046.2,29189,St. Louis,"{""29189"": 100}",St. Louis,29189,False,False,America/Chicago,"(38.57853, -90.42133)",22.873182136054268,1482469.0,2127_0_yes,38.821882267854406,-90.13374751362596,20.0
63123,38.54949,-90.32739,Saint Louis,MO,Missouri,True,,50463.0,1564.5,29189,St. Louis,"{""29189"": 94.39, ""29510"": 5.61}",St. Louis|St. Louis,29189|29510,False,False,America/Chicago,"(38.54949, -90.32739)",21.524032267422786,1482469.0,2127_0_yes,38.821882267854406,-90.13374751362596,20.0
63124,38.63832,-90.38023,Saint Louis,MO,Missouri,True,,11107.0,480.3,29189,St. Louis,"{""29189"": 100}",St. Louis,29189,False,False,America/Chicago,"(38.63832, -90.38023)",18.36730539261365,1482469.0,2127_0_yes,38.821882267854406,-90.13374751362596,20.0
63126,38.5496,-90.37868,Saint Louis,MO,Missouri,True,,14949.0,1255.1,29189,St. Louis,"{""29189"": 100}",St. Louis,29189,False,False,America/Chicago,"(38.5496, -90.37868)",22.98759519855755,1482469.0,2127_0_yes,38.821882267854406,-90.13374751362596,20.0
63127,38.53544,-90.41297,Saint Louis,MO,Missouri,True,,5014.0,334.3,29189,St. Louis,"{""29189"": 100}",St. Louis,29189,False,False,America/Chicago,"(38.53544, -90.41297)",24.87013473776547,1482469.0,2127_0_yes,38.821882267854406,-90.13374751362596,20.0
63130,38.66491,-90.32495,Saint Louis,MO,Missouri,True,,29080.0,2228.4,29189,St. Louis,"{""29189"": 98.03, ""29510"": 1.97}",St. Louis|St. Louis,29189|29510,False,False,America/Chicago,"(38.66491, -90.32495)",14.95994508390906,1482469.0,2127_0_yes,38.821882267854406,-90.13374751362596,20.0
63131,38.6172,-90.44365,Saint Louis,MO,Missouri,True,,17707.0,501.6,29189,St. Louis,"{""29189"": 100}",St. Louis,29189,False,False,America/Chicago,"(38.6172, -90.44365)",21.888287985596524,1482469.0,2127_0_yes,38.821882267854406,-90.13374751362596,20.0
63132,38.67607,-90.37745,Saint Louis,MO,Missouri,True,,12551.0,931.8,29189,St. Louis,"{""29189"": 100}",St. Louis,29189,False,False,America/Chicago,"(38.67607, -90.37745)",16.551428814066504,1482469.0,2127_0_yes,38.821882267854406,-90.13374751362596,20.0
63133,38.68226,-90.30677,Saint Louis,MO,Missouri,True,,7275.0,863.0,29189,St. Louis,"{""29189"": 99.23, ""29510"": 0.77}",St. Louis|St. Louis,29189|29510,False,False,America/Chicago,"(38.68226, -90.30677)",13.415770143607613,1482469.0,2127_0_yes,38.821882267854406,-90.13374751362596,20.0
63134,38.74319,-90.34549,Saint Louis,MO,Missouri,True,,14120.0,657.7,29189,St. Louis,"{""29189"": 100}",St. Louis,29189,False,False,America/Chicago,"(38.74319, -90.34549)",12.634284942395563,1482469.0,2127_0_yes,38.821882267854406,-90.13374751362596,20.0
63135,38.75012,-90.29934,Saint Louis,MO,Missouri,True,,22143.0,1377.7,29189,St. Louis,"{""29189"": 100}",St. Louis,29189,False,False,America/Chicago,"(38.75012, -90.29934)",10.204072483143374,1482469.0,2127_0_yes,38.821882267854406,-90.13374751362596,20.0
63136,38.74418,-90.25979,Saint Louis,MO,Missouri,True,,45198.0,1599.1,29189,St. Louis,"{""29189"": 96.0, ""29510"": 4.0}",St. Louis|St. Louis,29189|29510,False,False,America/Chicago,"(38.74418, -90.25979)",8.654982790611843,1482469.0,2127_0_yes,38.821882267854406,-90.13374751362596,20.0
63137,38.74974,-90.21297,Saint Louis,MO,Missouri,True,,20250.0,1104.5,29189,St. Louis,"{""29189"": 73.09, ""29510"": 26.91}",St. Louis|St. Louis,29189|29510,False,False,America/Chicago,"(38.74974, -90.21297)",6.561323437941568,1482469.0,2127_0_yes,38.821882267854406,-90.13374751362596,20.0
63138,38.79904,-90.1822,Saint Louis,MO,Missouri,True,,18257.0,380.3,29189,St. Louis,"{""29189"": 97.9, ""29510"": 2.1}",St. Louis|St. Louis,29189|29510,False,False,America/Chicago,"(38.79904, -90.1822)",3.0489174278013924,1482469.0,2127_0_yes,38.821882267854406,-90.13374751362596,20.0
63139,38.61041,-90.29191,Saint Louis,MO,Missouri,True,,21510.0,2175.4,29510,St. Louis,"{""29510"": 100}",St. Louis,29510,False,False,America/Chicago,"(38.61041, -90.29191)",16.91727197191842,1482469.0,2127_0_yes,38.821882267854406,-90.13374751362596,20.0
63140,38.73929,-90.32399,Saint Louis,MO,Missouri,True,,337.0,247.5,29189,St. Louis,"{""29189"": 100}",St. Louis,29189,False,False,America/Chicago,"(38.73929, -90.32399)",11.728679408757902,1482469.0,2127_0_yes,38.821882267854406,-90.13374751362596,20.0
63141,38.65751,-90.45904,Saint Louis,MO,Missouri,True,,19824.0,520.9,29189,St. Louis,"{""29189"": 100}",St. Louis,29189,False,False,America/Chicago,"(38.65751, -90.45904)",20.888110116582858,1482469.0,2127_0_yes,38.821882267854406,-90.13374751362596,20.0
63143,38.61169,-90.32017,Saint Louis,MO,Missouri,True,,9089.0,1712.3,29189,St. Louis,"{""29189"": 74.36, ""29510"": 25.64}",St. Louis|St. Louis,29189|29510,False,False,America/Chicago,"(38.61169, -90.32017)",17.66118217352826,1482469.0,2127_0_yes,38.821882267854406,-90.13374751362596,20.0
63144,38.61943,-90.3482,Saint Louis,MO,Missouri,True,,8759.0,1485.4,29189,St. Louis,"{""29189"": 100}",St. Louis,29189,False,False,America/Chicago,"(38.61943, -90.3482)",18.14695796450764,1482469.0,2127_0_yes,38.821882267854406,-90.13374751362596,20.0
63146,38.70135,-90.47634,Saint Louis,MO,Missouri,True,,31148.0,775.0,29189,St. Louis,"{""29189"": 100}",St. Louis,29189,False,False,America/Chicago,"(38.70135, -90.47634)",20.249341767749936,1482469.0,2127_0_yes,38.821882267854406,-90.13374751362596,20.0
63147,38.69567,-90.21589,Saint Louis,MO,Missouri,True,,8580.0,558.0,29510,St. Louis,"{""29510"": 100}",St. Louis,29510,False,False,America/Chicago,"(38.69567, -90.21589)",9.779200813070284,1482469.0,2127_0_yes,38.821882267854406,-90.13374751362596,20.0
63301,38.86159,-90.47207,Saint Charles,MO,Missouri,True,,51923.0,237.7,29183,St. Charles,"{""29183"": 100}",St. Charles,29183,False,False,America/Chicago,"(38.86159, -90.47207)",18.412553749455807,1482469.0,2127_0_yes,38.821882267854406,-90.13374751362596,20.0
63373,38.92776,-90.39563,Portage Des Sioux,MO,Missouri,True,,565.0,11.7,29183,St. Charles,"{""29183"": 100}",St. Charles,29183,False,False,America/Chicago,"(38.92776, -90.39563)",15.87304412616335,1482469.0,2127_0_yes,38.821882267854406,-90.13374751362596,20.0
63386,38.87104,-90.22009,West Alton,MO,Missouri,True,,470.0,5.5,29183,St. Charles,"{""29183"": 100}",St. Charles,29183,False,False,America/Chicago,"(38.87104, -90.22009)",5.7553272135655344,1482469.0,2127_0_yes,38.821882267854406,-90.13374751362596,20.0
