zip,lat,lng,city,state_id,state_name,zcta,parent_zcta,population,density,county_fips,county_name,county_weights,county_names_all,county_fips_all,imprecise,military,timezone,Coord,distance_miles,market_total_population,market_id,market_center_lat,market_center_lng,radius_miles
46104,39.66041,-85.59545,Arlington,IN,Indiana,True,,898.0,13.3,18139,Rush,"{""18139"": 100}",Rush,18139,False,False,America/Indiana/Indianapolis,"(39.66041, -85.59545)",22.695408449073007,104298.0,2200_0_yes,39.38503229325877,-85.36331763695487,20.0
46133,39.58945,-85.30044,Glenwood,IN,Indiana,True,,756.0,11.2,18139,Rush,"{""18139"": 52.82, ""18041"": 47.18}",Rush|Fayette,18139|18041,False,False,America/Indiana/Indianapolis,"(39.58945, -85.30044)",14.516434410976734,104298.0,2200_0_yes,39.38503229325877,-85.36331763695487,20.0
46144,39.66586,-85.64706,Gwynneville,IN,Indiana,True,,100.0,30.4,18145,Shelby,"{""18145"": 100}",Shelby,18145,False,False,America/Indiana/Indianapolis,"(39.66586, -85.64706)",24.600034518515592,104298.0,2200_0_yes,39.38503229325877,-85.36331763695487,20.0
46146,39.57968,-85.56972,Homer,IN,Indiana,True,,257.0,89.2,18139,Rush,"{""18139"": 100}",Rush,18139,False,False,America/Indiana/Indianapolis,"(39.57968, -85.56972)",17.378870557898207,104298.0,2200_0_yes,39.38503229325877,-85.36331763695487,20.0
46150,39.54695,-85.60232,Manilla,IN,Indiana,True,,1024.0,15.3,18139,Rush,"{""18139"": 89.13, ""18145"": 10.87}",Rush|Shelby,18139|18145,False,False,America/Indiana/Indianapolis,"(39.54695, -85.60232)",16.96117584483692,104298.0,2200_0_yes,39.38503229325877,-85.36331763695487,20.0
46156,39.48451,-85.4806,Milroy,IN,Indiana,True,,1156.0,11.1,18139,Rush,"{""18139"": 99.2, ""18031"": 0.8}",Rush|Decatur,18139|18031,False,False,America/Indiana/Indianapolis,"(39.48451, -85.4806)",9.295839747699304,104298.0,2200_0_yes,39.38503229325877,-85.36331763695487,20.0
46161,39.66959,-85.69395,Morristown,IN,Indiana,True,,2288.0,25.7,18145,Shelby,"{""18145"": 85.12, ""18059"": 11.04, ""18139"": 3.84}",Shelby|Hancock|Rush,18145|18059|18139,False,False,America/Indiana/Indianapolis,"(39.66959, -85.69395)",26.401438797501264,104298.0,2200_0_yes,39.38503229325877,-85.36331763695487,20.0
46173,39.60294,-85.42677,Rushville,IN,Indiana,True,,10089.0,17.3,18139,Rush,"{""18139"": 95.18, ""18031"": 2.23, ""18047"": 1.92, ""18041"": 0.67}",Rush|Decatur|Franklin|Fayette,18139|18031|18047|18041,False,False,America/Indiana/Indianapolis,"(39.60294, -85.42677)",15.431422884038907,104298.0,2200_0_yes,39.38503229325877,-85.36331763695487,20.0
46182,39.46157,-85.67005,Waldron,IN,Indiana,True,,1522.0,16.4,18145,Shelby,"{""18145"": 82.08, ""18139"": 17.92}",Shelby|Rush,18145|18139,False,False,America/Indiana/Indianapolis,"(39.46157, -85.67005)",17.20412537056558,104298.0,2200_0_yes,39.38503229325877,-85.36331763695487,20.0
47006,39.29141,-85.21365,Batesville,IN,Indiana,True,,11900.0,43.3,18137,Ripley,"{""18137"": 54.04, ""18047"": 45.25, ""18031"": 0.71}",Ripley|Franklin|Decatur,18137|18047|18031,False,False,America/Indiana/Indianapolis,"(39.29141, -85.21365)",10.286447196997687,104298.0,2200_0_yes,39.38503229325877,-85.36331763695487,20.0
47024,39.47611,-85.19724,Laurel,IN,Indiana,True,,3612.0,21.2,18047,Franklin,"{""18047"": 99.05, ""18041"": 0.95}",Franklin|Fayette,18047|18041,False,False,America/Indiana/Indianapolis,"(39.47611, -85.19724)",10.86992349769824,104298.0,2200_0_yes,39.38503229325877,-85.36331763695487,20.0
47030,39.42686,-85.13319,Metamora,IN,Indiana,True,,2411.0,32.3,18047,Franklin,"{""18047"": 100}",Franklin,18047,False,False,America/Indiana/Indianapolis,"(39.42686, -85.13319)",12.620988872250019,104298.0,2200_0_yes,39.38503229325877,-85.36331763695487,20.0
47031,39.12872,-85.15333,Milan,IN,Indiana,True,,5218.0,31.8,18137,Ripley,"{""18137"": 89.39, ""18029"": 10.61}",Ripley|Dearborn,18137|18029,False,False,America/Indiana/Indianapolis,"(39.12872, -85.15333)",20.972283975040195,104298.0,2200_0_yes,39.38503229325877,-85.36331763695487,20.0
47034,39.20428,-85.32739,Napoleon,IN,Indiana,True,,125.0,373.9,18137,Ripley,"{""18137"": 100}",Ripley,18137,False,False,America/Indiana/Indianapolis,"(39.20428, -85.32739)",12.635687022604541,104298.0,2200_0_yes,39.38503229325877,-85.36331763695487,20.0
47036,39.38563,-85.23972,Oldenburg,IN,Indiana,True,,900.0,19.5,18047,Franklin,"{""18047"": 100}",Franklin,18047,False,False,America/Indiana/Indianapolis,"(39.38563, -85.23972)",6.600493487650842,104298.0,2200_0_yes,39.38503229325877,-85.36331763695487,20.0
47037,39.16431,-85.31908,Osgood,IN,Indiana,True,,4644.0,22.5,18137,Ripley,"{""18137"": 98.58, ""18079"": 1.42}",Ripley|Jennings,18137|18079,False,False,America/Indiana/Indianapolis,"(39.16431, -85.31908)",15.432918514556366,104298.0,2200_0_yes,39.38503229325877,-85.36331763695487,20.0
47041,39.23432,-85.0797,Sunman,IN,Indiana,True,,6532.0,32.4,18029,Dearborn,"{""18029"": 51.21, ""18137"": 46.87, ""18047"": 1.92}",Dearborn|Ripley|Franklin,18029|18137|18047,False,False,America/New_York,"(39.23432, -85.0797)",18.393637943999746,104298.0,2200_0_yes,39.38503229325877,-85.36331763695487,20.0
47240,39.32394,-85.48028,Greensburg,IN,Indiana,True,,21858.0,27.8,18031,Decatur,"{""18031"": 95.54, ""18145"": 1.77, ""18047"": 1.44, ""18137"": 0.91, ""18139"": 0.34}",Decatur|Shelby|Franklin|Ripley|Rush,18031|18145|18047|18137|18139,False,False,America/Indiana/Indianapolis,"(39.32394, -85.48028)",7.540875590006788,104298.0,2200_0_yes,39.38503229325877,-85.36331763695487,20.0
47244,39.21802,-85.70232,Hartsville,IN,Indiana,True,,646.0,14.6,18005,Bartholomew,"{""18005"": 83.53, ""18031"": 16.47}",Bartholomew|Decatur,18005|18031,False,False,America/Indiana/Indianapolis,"(39.21802, -85.70232)",21.486701072326497,104298.0,2200_0_yes,39.38503229325877,-85.36331763695487,20.0
47263,39.30864,-85.32832,New Point,IN,Indiana,True,,242.0,1071.5,18031,Decatur,"{""18031"": 100}",Decatur,18031,False,False,America/Indiana/Indianapolis,"(39.30864, -85.32832)",5.599665286822727,104298.0,2200_0_yes,39.38503229325877,-85.36331763695487,20.0
47272,39.41519,-85.61942,Saint Paul,IN,Indiana,True,,2123.0,26.6,18031,Decatur,"{""18031"": 58.82, ""18145"": 39.54, ""18139"": 1.64}",Decatur|Shelby|Rush,18031|18145|18139,False,False,America/Indiana/Indianapolis,"(39.41519, -85.61942)",13.831340367978473,104298.0,2200_0_yes,39.38503229325877,-85.36331763695487,20.0
47283,39.16978,-85.58647,Westport,IN,Indiana,True,,3462.0,20.0,18031,Decatur,"{""18031"": 81.51, ""18079"": 14.34, ""18005"": 4.15}",Decatur|Jennings|Bartholomew,18031|18079|18005,False,False,America/Indiana/Indianapolis,"(39.16978, -85.58647)",19.0693498695996,104298.0,2200_0_yes,39.38503229325877,-85.36331763695487,20.0
47331,39.63086,-85.16313,Connersville,IN,Indiana,True,,22535.0,45.4,18041,Fayette,"{""18041"": 94.48, ""18161"": 3.2, ""18047"": 1.42, ""18177"": 0.9}",Fayette|Union|Franklin|Wayne,18041|18161|18047|18177,False,False,America/Indiana/Indianapolis,"(39.63086, -85.16313)",20.059305027939047,104298.0,2200_0_yes,39.38503229325877,-85.36331763695487,20.0
