zip,lat,lng,city,state_id,state_name,zcta,parent_zcta,population,density,county_fips,county_name,county_weights,county_names_all,county_fips_all,imprecise,military,timezone,Coord,distance_miles,market_total_population,market_id,market_center_lat,market_center_lng,radius_miles
66058,39.54018,-95.51894,Muscotah,KS,Kansas,True,,244.0,2.8,20005,Atchison,"{""20005"": 100}",Atchison,20005,False,False,America/Chicago,"(39.54018, -95.51894)",18.42073748027181,52842.0,2214_0_yes,39.41863832083658,-95.82636919663148,20.0
66088,39.3416,-95.4563,Valley Falls,KS,Kansas,True,,2783.0,9.0,20087,Jefferson,"{""20087"": 97.05, ""20005"": 2.95}",Jefferson|Atchison,20087|20005,False,False,America/Chicago,"(39.3416, -95.4563)",20.468134774640177,52842.0,2214_0_yes,39.41863832083658,-95.82636919663148,20.0
66407,39.22517,-96.19218,Belvue,KS,Kansas,True,,244.0,1.7,20149,Pottawatomie,"{""20149"": 59.05, ""20197"": 40.95}",Pottawatomie|Wabaunsee,20149|20197,False,False,America/Chicago,"(39.22517, -96.19218)",23.68536930300687,52842.0,2214_0_yes,39.41863832083658,-95.82636919663148,20.0
66415,39.69193,-96.14381,Centralia,KS,Kansas,True,,829.0,3.5,20131,Nemaha,"{""20131"": 100}",Nemaha,20131,False,False,America/Chicago,"(39.69193, -96.14381)",25.34801920314381,52842.0,2214_0_yes,39.41863832083658,-95.82636919663148,20.0
66416,39.52944,-95.86353,Circleville,KS,Kansas,True,,497.0,5.5,20085,Jackson,"{""20085"": 90.73, ""20131"": 9.27}",Jackson|Nemaha,20085|20131,False,False,America/Chicago,"(39.52944, -95.86353)",7.908053337276263,52842.0,2214_0_yes,39.41863832083658,-95.82636919663148,20.0
66417,39.65524,-96.03824,Corning,KS,Kansas,True,,375.0,3.5,20131,Nemaha,"{""20131"": 100}",Nemaha,20131,False,False,America/Chicago,"(39.65524, -96.03824)",19.86709965936911,52842.0,2214_0_yes,39.41863832083658,-95.82636919663148,20.0
66418,39.28861,-95.93528,Delia,KS,Kansas,True,,494.0,2.6,20085,Jackson,"{""20085"": 100}",Jackson,20085,False,False,America/Chicago,"(39.28861, -95.93528)",10.703798008498953,52842.0,2214_0_yes,39.41863832083658,-95.82636919663148,20.0
66419,39.35643,-95.59908,Denison,KS,Kansas,True,,291.0,5.6,20085,Jackson,"{""20085"": 69.69, ""20087"": 30.31}",Jackson|Jefferson,20085|20087,False,False,America/Chicago,"(39.35643, -95.59908)",12.875901954565542,52842.0,2214_0_yes,39.41863832083658,-95.82636919663148,20.0
66422,39.33317,-96.08496,Emmett,KS,Kansas,True,,1031.0,7.1,20149,Pottawatomie,"{""20149"": 77.2, ""20085"": 22.8}",Pottawatomie|Jackson,20149|20085,False,False,America/Chicago,"(39.33317, -96.08496)",15.020648397246694,52842.0,2214_0_yes,39.41863832083658,-95.82636919663148,20.0
66428,39.67687,-95.92504,Goff,KS,Kansas,True,,232.0,1.1,20131,Nemaha,"{""20131"": 100}",Nemaha,20131,False,False,America/Chicago,"(39.67687, -95.92504)",18.60043320748377,52842.0,2214_0_yes,39.41863832083658,-95.82636919663148,20.0
66432,39.48768,-96.07348,Havensville,KS,Kansas,True,,305.0,1.7,20149,Pottawatomie,"{""20149"": 76.9, ""20085"": 11.84, ""20131"": 11.26}",Pottawatomie|Jackson|Nemaha,20149|20085|20131,False,False,America/Chicago,"(39.48768, -96.07348)",14.019894850615644,52842.0,2214_0_yes,39.41863832083658,-95.82636919663148,20.0
66436,39.4655,-95.70278,Holton,KS,Kansas,True,,6158.0,12.9,20085,Jackson,"{""20085"": 84.87, ""20005"": 13.76, ""20087"": 1.37}",Jackson|Atchison|Jefferson,20085|20005|20087,False,False,America/Chicago,"(39.4655, -95.70278)",7.346535150479085,52842.0,2214_0_yes,39.41863832083658,-95.82636919663148,20.0
66439,39.65518,-95.54327,Horton,KS,Kansas,True,,2685.0,11.9,20013,Brown,"{""20013"": 57.77, ""20005"": 38.5, ""20085"": 3.73}",Brown|Atchison|Jackson,20013|20005|20085,False,False,America/Chicago,"(39.65518, -95.54327)",22.241194134524633,52842.0,2214_0_yes,39.41863832083658,-95.82636919663148,20.0
66440,39.26326,-95.68168,Hoyt,KS,Kansas,True,,1730.0,14.0,20085,Jackson,"{""20085"": 100}",Jackson,20085,False,False,America/Chicago,"(39.26326, -95.68168)",13.22993456335643,52842.0,2214_0_yes,39.41863832083658,-95.82636919663148,20.0
66509,39.33239,-95.78097,Mayetta,KS,Kansas,True,,2758.0,8.4,20085,Jackson,"{""20085"": 100}",Jackson,20085,False,False,America/Chicago,"(39.33239, -95.78097)",6.4336126907637325,52842.0,2214_0_yes,39.41863832083658,-95.82636919663148,20.0
66512,39.20255,-95.54701,Meriden,KS,Kansas,True,,2735.0,15.8,20087,Jefferson,"{""20087"": 84.11, ""20085"": 11.12, ""20177"": 4.77}",Jefferson|Jackson|Shawnee,20087|20085|20177,False,False,America/Chicago,"(39.20255, -95.54701)",21.117433049750137,52842.0,2214_0_yes,39.41863832083658,-95.82636919663148,20.0
66516,39.62193,-95.7195,Netawaka,KS,Kansas,True,,292.0,2.3,20085,Jackson,"{""20085"": 70.37, ""20013"": 29.63}",Jackson|Brown,20085|20013,False,False,America/Chicago,"(39.62193, -95.7195)",15.157093855651924,52842.0,2214_0_yes,39.41863832083658,-95.82636919663148,20.0
66533,39.16097,-95.95045,Rossville,KS,Kansas,True,,1610.0,11.6,20177,Shawnee,"{""20177"": 96.2, ""20085"": 3.8}",Shawnee|Jackson,20177|20085,False,False,America/Chicago,"(39.16097, -95.95045)",18.99945837903253,52842.0,2214_0_yes,39.41863832083658,-95.82636919663148,20.0
66536,39.2247,-96.07396,Saint Marys,KS,Kansas,True,,4276.0,25.2,20149,Pottawatomie,"{""20149"": 74.11, ""20177"": 10.36, ""20085"": 8.26, ""20197"": 7.27}",Pottawatomie|Shawnee|Jackson|Wabaunsee,20149|20177|20085|20197,False,False,America/Chicago,"(39.2247, -96.07396)",18.833265989728222,52842.0,2214_0_yes,39.41863832083658,-95.82636919663148,20.0
66539,39.14937,-95.84707,Silver Lake,KS,Kansas,True,,2535.0,23.6,20177,Shawnee,"{""20177"": 96.39, ""20085"": 3.61}",Shawnee|Jackson,20177|20085,False,False,America/Chicago,"(39.14937, -95.84707)",18.63757759374711,52842.0,2214_0_yes,39.41863832083658,-95.82636919663148,20.0
66540,39.48484,-95.97332,Soldier,KS,Kansas,True,,567.0,2.5,20085,Jackson,"{""20085"": 86.8, ""20131"": 12.64, ""20149"": 0.56}",Jackson|Nemaha|Pottawatomie,20085|20131|20149,False,False,America/Chicago,"(39.48484, -95.97332)",9.076780318514869,52842.0,2214_0_yes,39.41863832083658,-95.82636919663148,20.0
66550,39.65537,-95.82113,Wetmore,KS,Kansas,True,,594.0,3.4,20131,Nemaha,"{""20131"": 78.75, ""20085"": 10.93, ""20013"": 10.32}",Nemaha|Jackson|Brown,20131|20085|20013,False,False,America/Chicago,"(39.65537, -95.82113)",16.358983390783447,52842.0,2214_0_yes,39.41863832083658,-95.82636919663148,20.0
66552,39.58736,-95.621,Whiting,KS,Kansas,True,,419.0,3.4,20085,Jackson,"{""20085"": 100}",Jackson,20085,False,False,America/Chicago,"(39.58736, -95.621)",15.99282874550094,52842.0,2214_0_yes,39.41863832083658,-95.82636919663148,20.0
66617,39.13876,-95.625,Topeka,KS,Kansas,True,,8880.0,79.1,20177,Shawnee,"{""20177"": 81.73, ""20087"": 17.09, ""20085"": 1.18}",Shawnee|Jefferson|Jackson,20177|20087|20085,False,False,America/Chicago,"(39.13876, -95.625)",22.134573735596025,52842.0,2214_0_yes,39.41863832083658,-95.82636919663148,20.0
66618,39.14188,-95.74997,Topeka,KS,Kansas,True,,10278.0,54.5,20177,Shawnee,"{""20177"": 100}",Shawnee,20177,False,False,America/Chicago,"(39.14188, -95.74997)",19.553850689882243,52842.0,2214_0_yes,39.41863832083658,-95.82636919663148,20.0
