zip,lat,lng,city,state_id,state_name,zcta,parent_zcta,population,density,county_fips,county_name,county_weights,county_names_all,county_fips_all,imprecise,military,timezone,Coord,distance_miles,market_total_population,market_id,market_center_lat,market_center_lng,radius_miles
67631,39.00837,-100.08569,Collyer,KS,Kansas,True,,119.0,0.3,20195,Trego,"{""20195"": 85.5, ""20065"": 13.29, ""20179"": 1.21}",Trego|Graham|Sheridan,20195|20065|20179,False,False,America/Chicago,"(39.00837, -100.08569)",9.3572809780662,8454.0,2215_0_no,39.14360914422346,-100.09493409015792,20.0
67642,39.36989,-99.8315,Hill City,KS,Kansas,True,,1940.0,3.0,20065,Graham,"{""20065"": 100}",Graham,20065,False,False,America/Chicago,"(39.36989, -99.8315)",21.049285165012535,8454.0,2215_0_no,39.14360914422346,-100.09493409015792,20.0
67650,39.37477,-100.09925,Morland,KS,Kansas,True,,206.0,0.5,20065,Graham,"{""20065"": 100}",Graham,20065,False,False,America/Chicago,"(39.37477, -100.09925)",15.973362726429327,8454.0,2215_0_no,39.14360914422346,-100.09493409015792,20.0
67656,38.98565,-99.75549,Ogallah,KS,Kansas,True,,128.0,0.4,20195,Trego,"{""20195"": 88.78, ""20065"": 11.22}",Trego|Graham,20195|20065,False,False,America/Chicago,"(38.98565, -99.75549)",21.230114673433253,8454.0,2215_0_no,39.14360914422346,-100.09493409015792,20.0
67659,39.31804,-100.00496,Penokee,KS,Kansas,True,,72.0,0.3,20065,Graham,"{""20065"": 100}",Graham,20065,False,False,America/Chicago,"(39.31804, -100.00496)",12.97842408001399,8454.0,2215_0_no,39.14360914422346,-100.09493409015792,20.0
67672,38.99882,-99.90746,Wakeeney,KS,Kansas,True,,2406.0,3.0,20195,Trego,"{""20195"": 84.32, ""20065"": 15.68}",Trego|Graham,20195|20065,False,False,America/Chicago,"(38.99882, -99.90746)",14.18487536521204,8454.0,2215_0_no,39.14360914422346,-100.09493409015792,20.0
67736,38.85492,-100.44715,Gove,KS,Kansas,True,,194.0,0.3,20063,Gove,"{""20063"": 100}",Gove,20063,False,False,America/Chicago,"(38.85492, -100.44715)",27.487268292017017,8454.0,2215_0_no,39.14360914422346,-100.09493409015792,20.0
67740,39.35576,-100.36089,Hoxie,KS,Kansas,True,,1668.0,1.5,20179,Sheridan,"{""20179"": 96.94, ""20065"": 3.06}",Sheridan|Graham,20179|20065,False,False,America/Chicago,"(39.35576, -100.36089)",20.429390535859596,8454.0,2215_0_no,39.14360914422346,-100.09493409015792,20.0
67751,39.11799,-100.35572,Park,KS,Kansas,True,,231.0,1.0,20063,Gove,"{""20063"": 54.98, ""20179"": 45.02}",Gove|Sheridan,20063|20179,False,False,America/Chicago,"(39.11799, -100.35572)",14.088787102809114,8454.0,2215_0_no,39.14360914422346,-100.09493409015792,20.0
67752,38.9924,-100.23145,Quinter,KS,Kansas,True,,1490.0,2.3,20063,Gove,"{""20063"": 84.71, ""20179"": 15.29}",Gove|Sheridan,20063|20179,False,False,America/Chicago,"(38.9924, -100.23145)",12.758586067510874,8454.0,2215_0_no,39.14360914422346,-100.09493409015792,20.0
