zip,lat,lng,city,state_id,state_name,zcta,parent_zcta,population,density,county_fips,county_name,county_weights,county_names_all,county_fips_all,imprecise,military,timezone,Coord,distance_miles,market_total_population,market_id,market_center_lat,market_center_lng,radius_miles
63539,39.9279,-92.76781,Ethel,MO,Missouri,True,,233.0,1.5,29121,Macon,"{""29121"": 100}",Macon,29121,False,False,America/Chicago,"(39.9279, -92.76781)",25.020718099549153,22114.0,2285_0_no,39.69995515016857,-93.1341388117249,20.0
63557,39.98297,-92.88045,New Boston,MO,Missouri,True,,248.0,1.1,29115,Linn,"{""29115"": 66.35, ""29121"": 21.28, ""29001"": 9.19, ""29211"": 3.18}",Linn|Macon|Adair|Sullivan,29115|29121|29001|29211,False,False,America/Chicago,"(39.98297, -92.88045)",23.738316942928297,22114.0,2285_0_no,39.69995515016857,-93.1341388117249,20.0
64623,39.47,-93.33344,Bosworth,MO,Missouri,True,,379.0,2.1,29033,Carroll,"{""29033"": 100}",Carroll,29033,False,False,America/Chicago,"(39.47, -93.33344)",19.10673026628973,22114.0,2285_0_no,39.69995515016857,-93.1341388117249,20.0
64628,39.79711,-93.05002,Brookfield,MO,Missouri,True,,5872.0,15.2,29115,Linn,"{""29115"": 86.86, ""29041"": 13.14}",Linn|Chariton,29115|29041,False,False,America/Chicago,"(39.79711, -93.05002)",8.064114857527725,22114.0,2285_0_no,39.69995515016857,-93.1341388117249,20.0
64631,39.82018,-92.88213,Bucklin,MO,Missouri,True,,584.0,2.5,29115,Linn,"{""29115"": 68.8, ""29121"": 31.2}",Linn|Macon,29115|29121,False,False,America/Chicago,"(39.82018, -92.88213)",15.75329079512252,22114.0,2285_0_no,39.69995515016857,-93.1341388117249,20.0
64635,39.93943,-93.43632,Chula,MO,Missouri,True,,451.0,2.8,29117,Livingston,"{""29117"": 74.47, ""29115"": 15.46, ""29079"": 10.07}",Livingston|Linn|Grundy,29117|29115|29079,False,False,America/Chicago,"(39.93943, -93.43632)",23.041975664804166,22114.0,2285_0_no,39.69995515016857,-93.1341388117249,20.0
64643,39.61366,-93.36883,Hale,MO,Missouri,True,,1179.0,4.2,29033,Carroll,"{""29033"": 53.93, ""29117"": 46.07}",Carroll|Livingston,29033|29117,False,False,America/Chicago,"(39.61366, -93.36883)",13.834844975512526,22114.0,2285_0_no,39.69995515016857,-93.1341388117249,20.0
64651,39.7759,-93.1797,Laclede,MO,Missouri,True,,555.0,5.4,29115,Linn,"{""29115"": 100}",Linn,29115,False,False,America/Chicago,"(39.7759, -93.1797)",5.778748561199815,22114.0,2285_0_no,39.69995515016857,-93.1341388117249,20.0
64653,39.89403,-93.20403,Linneus,MO,Missouri,True,,586.0,2.8,29115,Linn,"{""29115"": 100}",Linn,29115,False,False,America/Chicago,"(39.89403, -93.20403)",13.91311893698943,22114.0,2285_0_no,39.69995515016857,-93.1341388117249,20.0
64658,39.66124,-92.92181,Marceline,MO,Missouri,True,,3262.0,13.4,29041,Chariton,"{""29041"": 75.06, ""29115"": 22.27, ""29121"": 2.67}",Chariton|Linn|Macon,29041|29115|29121,False,False,America/Chicago,"(39.66124, -92.92181)",11.603211181149739,22114.0,2285_0_no,39.69995515016857,-93.1341388117249,20.0
64659,39.78138,-93.29224,Meadville,MO,Missouri,True,,1100.0,6.4,29115,Linn,"{""29115"": 100}",Linn,29115,False,False,America/Chicago,"(39.78138, -93.29224)",10.10975533314052,22114.0,2285_0_no,39.69995515016857,-93.1341388117249,20.0
64660,39.57226,-93.08923,Mendon,MO,Missouri,True,,455.0,2.1,29041,Chariton,"{""29041"": 100}",Chariton,29041,False,False,America/Chicago,"(39.57226, -93.08923)",9.140763565190447,22114.0,2285_0_no,39.69995515016857,-93.1341388117249,20.0
64674,39.96491,-93.15884,Purdin,MO,Missouri,True,,287.0,1.7,29115,Linn,"{""29115"": 100}",Linn,29115,False,False,America/Chicago,"(39.96491, -93.15884)",18.353490364330728,22114.0,2285_0_no,39.69995515016857,-93.1341388117249,20.0
64676,39.6471,-93.03729,Rothville,MO,Missouri,True,,164.0,3.0,29041,Chariton,"{""29041"": 100}",Chariton,29041,False,False,America/Chicago,"(39.6471, -93.03729)",6.313820836141829,22114.0,2285_0_no,39.69995515016857,-93.1341388117249,20.0
64681,39.64706,-93.21375,Sumner,MO,Missouri,True,,138.0,1.0,29041,Chariton,"{""29041"": 94.08, ""29115"": 5.92}",Chariton|Linn,29041|29115,False,False,America/Chicago,"(39.64706, -93.21375)",5.593018679565247,22114.0,2285_0_no,39.69995515016857,-93.1341388117249,20.0
64682,39.55251,-93.49132,Tina,MO,Missouri,True,,424.0,4.5,29033,Carroll,"{""29033"": 100}",Carroll,29033,False,False,America/Chicago,"(39.55251, -93.49132)",21.566065938611498,22114.0,2285_0_no,39.69995515016857,-93.1341388117249,20.0
64688,39.8139,-93.37664,Wheeling,MO,Missouri,True,,794.0,4.6,29117,Livingston,"{""29117"": 74.33, ""29115"": 25.67}",Livingston|Linn,29117|29115,False,False,America/Chicago,"(39.8139, -93.37664)",15.096262300754855,22114.0,2285_0_no,39.69995515016857,-93.1341388117249,20.0
65236,39.44596,-93.08305,Brunswick,MO,Missouri,True,,1440.0,8.0,29041,Chariton,"{""29041"": 100}",Chariton,29041,False,False,America/Chicago,"(39.44596, -93.08305)",17.7590666697004,22114.0,2285_0_no,39.69995515016857,-93.1341388117249,20.0
65261,39.47542,-92.92388,Keytesville,MO,Missouri,True,,1104.0,4.3,29041,Chariton,"{""29041"": 100}",Chariton,29041,False,False,America/Chicago,"(39.47542, -92.92388)",19.131714835967642,22114.0,2285_0_no,39.69995515016857,-93.1341388117249,20.0
65281,39.46431,-92.79099,Salisbury,MO,Missouri,True,,2729.0,5.4,29041,Chariton,"{""29041"": 98.41, ""29089"": 1.3, ""29175"": 0.29}",Chariton|Howard|Randolph,29041|29089|29175,False,False,America/Chicago,"(39.46431, -92.79099)",24.47429451806708,22114.0,2285_0_no,39.69995515016857,-93.1341388117249,20.0
65286,39.50616,-93.22059,Triplett,MO,Missouri,True,,130.0,1.2,29041,Chariton,"{""29041"": 100}",Chariton,29041,False,False,America/Chicago,"(39.50616, -93.22059)",14.158805279855725,22114.0,2285_0_no,39.69995515016857,-93.1341388117249,20.0
