zip,lat,lng,city,state_id,state_name,zcta,parent_zcta,population,density,county_fips,county_name,county_weights,county_names_all,county_fips_all,imprecise,military,timezone,Coord,distance_miles,market_total_population,market_id,market_center_lat,market_center_lng,radius_miles
95973,39.88099,-121.8516,Chico,CA,California,True,,36223.0,46.6,6007,Butte,"{""06007"": 61.67, ""06103"": 38.33}",Butte|Tehama,06007|06103,False,False,America/Los_Angeles,"(39.88099, -121.8516)",15.506780981397608,59904.0,2328_0_yes,40.08241213290389,-121.98078702040544,20.0
96021,39.91871,-122.26813,Corning,CA,California,True,,14970.0,23.2,6103,Tehama,"{""06103"": 100}",Tehama,06103,False,False,America/Los_Angeles,"(39.91871, -122.26813)",18.95341650825268,59904.0,2328_0_yes,40.08241213290389,-121.98078702040544,20.0
96035,40.04168,-122.18254,Gerber,CA,California,True,,3341.0,30.3,6103,Tehama,"{""06103"": 100}",Tehama,06103,False,False,America/Los_Angeles,"(40.04168, -122.18254)",11.03374932753608,59904.0,2328_0_yes,40.08241213290389,-121.98078702040544,20.0
96055,40.10249,-122.03213,Los Molinos,CA,California,True,,4194.0,17.0,6103,Tehama,"{""06103"": 100}",Tehama,06103,False,False,America/Los_Angeles,"(40.10249, -122.03213)",3.047840981141712,59904.0,2328_0_yes,40.08241213290389,-121.98078702040544,20.0
96075,40.35582,-121.87196,Paynes Creek,CA,California,True,,353.0,1.5,6103,Tehama,"{""06103"": 91.09, ""06089"": 8.91}",Tehama|Shasta,06103|06089,False,False,America/Los_Angeles,"(40.35582, -121.87196)",19.743936401266417,59904.0,2328_0_yes,40.08241213290389,-121.98078702040544,20.0
96090,40.00681,-122.12142,Tehama,CA,California,True,,503.0,63.5,6103,Tehama,"{""06103"": 100}",Tehama,06103,False,False,America/Los_Angeles,"(40.00681, -122.12142)",9.089527548890855,59904.0,2328_0_yes,40.08241213290389,-121.98078702040544,20.0
96092,39.97344,-121.97342,Vina,CA,California,True,,320.0,1.9,6103,Tehama,"{""06103"": 100}",Tehama,06103,False,False,America/Los_Angeles,"(39.97344, -121.97342)",7.539338998257025,59904.0,2328_0_yes,40.08241213290389,-121.98078702040544,20.0
