zip,lat,lng,city,state_id,state_name,zcta,parent_zcta,population,density,county_fips,county_name,county_weights,county_names_all,county_fips_all,imprecise,military,timezone,Coord,distance_miles,market_total_population,market_id,market_center_lat,market_center_lng,radius_miles
78520,25.96564,-97.55103,Brownsville,TX,Texas,True,,59388.0,577.1,48061,Cameron,"{""48061"": 100}",Cameron,48061,False,False,America/Chicago,"(25.96564, -97.55103)",14.607935498819183,128277.0,234_0_no,25.81169642315529,-97.71211308739151,20.0
78526,25.99587,-97.44991,Brownsville,TX,Texas,True,,50057.0,407.7,48061,Cameron,"{""48061"": 100}",Cameron,48061,False,False,America/Chicago,"(25.99587, -97.44991)",20.676071254173664,128277.0,234_0_no,25.81169642315529,-97.71211308739151,20.0
78567,26.04607,-97.73866,Los Indios,TX,Texas,True,,269.0,74.6,48061,Cameron,"{""48061"": 100}",Cameron,48061,False,False,America/Chicago,"(26.04607, -97.73866)",16.277472541980888,128277.0,234_0_no,25.81169642315529,-97.71211308739151,20.0
78575,26.03234,-97.55083,Olmito,TX,Texas,True,,12249.0,567.9,48061,Cameron,"{""48061"": 100}",Cameron,48061,False,False,America/Chicago,"(26.03234, -97.55083)",18.244443002919045,128277.0,234_0_no,25.81169642315529,-97.71211308739151,20.0
78579,26.0892,-97.94627,Progreso,TX,Texas,True,,5562.0,377.1,48215,Hidalgo,"{""48215"": 100}",Hidalgo,48215,False,False,America/Chicago,"(26.0892, -97.94627)",24.067761928610622,128277.0,234_0_no,25.81169642315529,-97.71211308739151,20.0
78592,26.06516,-97.8461,Santa Maria,TX,Texas,True,,752.0,84.0,48061,Cameron,"{""48061"": 100}",Cameron,48061,False,False,America/Chicago,"(26.06516, -97.8461)",19.390709305930585,128277.0,234_0_no,25.81169642315529,-97.71211308739151,20.0
