zip,lat,lng,city,state_id,state_name,zcta,parent_zcta,population,density,county_fips,county_name,county_weights,county_names_all,county_fips_all,imprecise,military,timezone,Coord,distance_miles,market_total_population,market_id,market_center_lat,market_center_lng,radius_miles
96011,41.05762,-121.89157,Big Bend,CA,California,True,,260.0,0.9,6089,Shasta,"{""06089"": 100}",Shasta,06089,False,False,America/Los_Angeles,"(41.05762, -121.89157)",15.8262583253525,9128.0,2478_0_no,40.95133143596777,-121.62270324929608,20.0
96013,40.97495,-121.68316,Burney,CA,California,True,,4883.0,12.3,6089,Shasta,"{""06089"": 100}",Shasta,06089,False,False,America/Los_Angeles,"(40.97495, -121.68316)",3.5514381114306848,9128.0,2478_0_no,40.95133143596777,-121.62270324929608,20.0
96016,40.90675,-121.52032,Cassel,CA,California,True,,366.0,3.3,6089,Shasta,"{""06089"": 100}",Shasta,06089,False,False,America/Los_Angeles,"(40.90675, -121.52032)",6.16867278845903,9128.0,2478_0_no,40.95133143596777,-121.62270324929608,20.0
96028,41.00761,-121.45731,Fall River Mills,CA,California,True,,1000.0,2.3,6089,Shasta,"{""06089"": 100}",Shasta,06089,False,False,America/Los_Angeles,"(41.00761, -121.45731)",9.463017101675089,9128.0,2478_0_no,40.95133143596777,-121.62270324929608,20.0
96040,40.79393,-121.47397,Hat Creek,CA,California,True,,68.0,0.5,6089,Shasta,"{""06089"": 100}",Shasta,06089,False,False,America/Los_Angeles,"(40.79393, -121.47397)",13.366321451011247,9128.0,2478_0_no,40.95133143596777,-121.62270324929608,20.0
96056,41.07178,-121.32607,Mcarthur,CA,California,True,,1730.0,3.1,6035,Lassen,"{""06035"": 53.13, ""06089"": 33.18, ""06049"": 13.69}",Lassen|Shasta|Modoc,06035|06089|06049,False,False,America/Los_Angeles,"(41.07178, -121.32607)",17.562349209781647,9128.0,2478_0_no,40.95133143596777,-121.62270324929608,20.0
96065,40.88056,-121.95433,Montgomery Creek,CA,California,True,,286.0,0.8,6089,Shasta,"{""06089"": 100}",Shasta,06089,False,False,America/Los_Angeles,"(40.88056, -121.95433)",17.992071163661276,9128.0,2478_0_no,40.95133143596777,-121.62270324929608,20.0
96071,40.68134,-121.45275,Old Station,CA,California,True,,21.0,0.3,6089,Shasta,"{""06089"": 100}",Shasta,06089,False,False,America/Los_Angeles,"(40.68134, -121.45275)",20.663312701602614,9128.0,2478_0_no,40.95133143596777,-121.62270324929608,20.0
96084,40.79395,-121.91519,Round Mountain,CA,California,True,,514.0,3.7,6089,Shasta,"{""06089"": 100}",Shasta,06089,False,False,America/Los_Angeles,"(40.79395, -121.91519)",18.75530595848206,9128.0,2478_0_no,40.95133143596777,-121.62270324929608,20.0
