zip,lat,lng,city,state_id,state_name,zcta,parent_zcta,population,density,county_fips,county_name,county_weights,county_names_all,county_fips_all,imprecise,military,timezone,Coord,distance_miles,market_total_population,market_id,market_center_lat,market_center_lng,radius_miles
69121,41.56631,-101.71983,Arthur,NE,Nebraska,True,,381.0,0.3,31005,Arthur,"{""31005"": 100}",Arthur,31005,False,False,America/Denver,"(41.56631, -101.71983)",11.24991585945861,3933.0,2529_0_no,41.46358233727453,-101.55112295868506,20.0
69144,41.317,-101.60261,Keystone,NE,Nebraska,True,,121.0,0.3,31101,Keith,"{""31101"": 88.6, ""31005"": 11.4}",Keith|Arthur,31101|31005,False,False,America/Denver,"(41.317, -101.60261)",10.473615683829326,3933.0,2529_0_no,41.46358233727453,-101.55112295868506,20.0
69146,41.34986,-101.82892,Lemoyne,NE,Nebraska,True,,252.0,0.6,31101,Keith,"{""31101"": 67.43, ""31005"": 32.57}",Keith|Arthur,31101|31005,False,False,America/Denver,"(41.34986, -101.82892)",16.400827527110852,3933.0,2529_0_no,41.46358233727453,-101.55112295868506,20.0
69155,41.18974,-101.39008,Paxton,NE,Nebraska,True,,1142.0,1.2,31101,Keith,"{""31101"": 93.13, ""31135"": 5.19, ""31117"": 1.17, ""31005"": 0.51}",Keith|Perkins|McPherson|Arthur,31101|31135|31117|31005,False,False,America/Denver,"(41.18974, -101.39008)",20.683657573343407,3933.0,2529_0_no,41.46358233727453,-101.55112295868506,20.0
69165,41.35102,-101.27268,Sutherland,NE,Nebraska,True,,2037.0,1.5,31111,Lincoln,"{""31111"": 50.32, ""31117"": 31.69, ""31005"": 17.99}",Lincoln|McPherson|Arthur,31111|31117|31005,False,False,America/Chicago,"(41.35102, -101.27268)",16.39192506087178,3933.0,2529_0_no,41.46358233727453,-101.55112295868506,20.0
