zip,lat,lng,city,state_id,state_name,zcta,parent_zcta,population,density,county_fips,county_name,county_weights,county_names_all,county_fips_all,imprecise,military,timezone,Coord,distance_miles,market_total_population,market_id,market_center_lat,market_center_lng,radius_miles
69125,41.59087,-102.85835,Broadwater,NE,Nebraska,True,,221.0,0.4,31123,Morrill,"{""31123"": 100}",Morrill,31123,False,False,America/Denver,"(41.59087, -102.85835)",14.750984549829635,4595.0,2531_0_no,41.46874430649111,-103.09226806361202,20.0
69131,41.4216,-103.00047,Dalton,NE,Nebraska,True,,698.0,1.1,31033,Cheyenne,"{""31033"": 63.03, ""31123"": 36.97}",Cheyenne|Morrill,31033|31123,False,False,America/Denver,"(41.4216, -103.00047)",5.763202493129461,4595.0,2531_0_no,41.46874430649111,-103.09226806361202,20.0
69133,41.21975,-103.47178,Dix,NE,Nebraska,True,,486.0,1.1,31105,Kimball,"{""31105"": 100}",Kimball,31105,False,False,America/Denver,"(41.21975, -103.47178)",26.144088211331013,4595.0,2531_0_no,41.46874430649111,-103.09226806361202,20.0
69141,41.30409,-102.93602,Gurley,NE,Nebraska,True,,438.0,1.6,31033,Cheyenne,"{""31033"": 100}",Cheyenne,31033,False,False,America/Denver,"(41.30409, -102.93602)",13.965314012839,4595.0,2531_0_no,41.46874430649111,-103.09226806361202,20.0
69156,41.27689,-103.34587,Potter,NE,Nebraska,True,,556.0,0.6,31033,Cheyenne,"{""31033"": 62.25, ""31007"": 23.55, ""31105"": 14.2}",Cheyenne|Banner|Kimball,31033|31007|31105,False,False,America/Denver,"(41.27689, -103.34587)",18.671275933183235,4595.0,2531_0_no,41.46874430649111,-103.09226806361202,20.0
69336,41.61845,-103.15152,Bridgeport,NE,Nebraska,True,,2167.0,2.2,31123,Morrill,"{""31123"": 97.13, ""31007"": 2.87}",Morrill|Banner,31123|31007,False,False,America/Denver,"(41.61845, -103.15152)",10.787973061611396,4595.0,2531_0_no,41.46874430649111,-103.09226806361202,20.0
69353,41.74703,-103.41898,Mcgrew,NE,Nebraska,True,,29.0,138.9,31157,Scotts Bluff,"{""31157"": 100}",Scotts Bluff,31157,False,False,America/Denver,"(41.74703, -103.41898)",25.584862575630183,4595.0,2531_0_no,41.46874430649111,-103.09226806361202,20.0
