zip,lat,lng,city,state_id,state_name,zcta,parent_zcta,population,density,county_fips,county_name,county_weights,county_names_all,county_fips_all,imprecise,military,timezone,Coord,distance_miles,market_total_population,market_id,market_center_lat,market_center_lng,radius_miles
69128,41.23252,-103.90613,Bushnell,NE,Nebraska,True,,328.0,0.3,31105,Kimball,"{""31105"": 88.79, ""31007"": 11.21}",Kimball|Banner,31105|31007,False,False,America/Denver,"(41.23252, -103.90613)",16.65163927138705,16612.0,2532_0_no,41.47132564027963,-103.86288645871127,20.0
69145,41.24913,-103.67097,Kimball,NE,Nebraska,True,,2860.0,2.7,31105,Kimball,"{""31105"": 82.05, ""31007"": 17.95}",Kimball|Banner,31105|31007,False,False,America/Denver,"(41.24913, -103.67097)",18.29609738468145,16612.0,2532_0_no,41.47132564027963,-103.86288645871127,20.0
69341,41.74154,-103.67937,Gering,NE,Nebraska,True,,10673.0,19.9,31157,Scotts Bluff,"{""31157"": 81.56, ""31007"": 18.44}",Scotts Bluff|Banner,31157|31007,False,False,America/Denver,"(41.74154, -103.67937)",20.93939733419371,16612.0,2532_0_no,41.47132564027963,-103.86288645871127,20.0
69345,41.58164,-103.7234,Harrisburg,NE,Nebraska,True,,411.0,0.4,31007,Banner,"{""31007"": 100}",Banner,31007,False,False,America/Denver,"(41.58164, -103.7234)",10.495408068077857,16612.0,2532_0_no,41.47132564027963,-103.86288645871127,20.0
82050,41.43517,-104.21477,Albin,WY,Wyoming,True,,323.0,0.9,56021,Laramie,"{""56021"": 100}",Laramie,56021,False,False,America/Denver,"(41.43517, -104.21477)",18.392801503808855,16612.0,2532_0_no,41.47132564027963,-103.86288645871127,20.0
82082,41.2632,-104.09359,Pine Bluffs,WY,Wyoming,True,,2017.0,2.4,56021,Laramie,"{""56021"": 70.63, ""31007"": 16.91, ""31105"": 10.66, ""08123"": 1.8}",Laramie|Banner|Kimball|Weld,56021|31007|31105|08123,False,False,America/Denver,"(41.2632, -104.09359)",18.705537344397325,16612.0,2532_0_no,41.47132564027963,-103.86288645871127,20.0
