zip,lat,lng,city,state_id,state_name,zcta,parent_zcta,population,density,county_fips,county_name,county_weights,county_names_all,county_fips_all,imprecise,military,timezone,Coord,distance_miles,market_total_population,market_id,market_center_lat,market_center_lng,radius_miles
53003,43.21226,-88.51957,Ashippun,WI,Wisconsin,True,,138.0,322.2,55027,Dodge,"{""55027"": 100}",Dodge,55027,False,False,America/Chicago,"(43.21226, -88.51957)",14.766321105431395,1557968.0,2739_0_no,43.15347967421281,-88.23778098995304,20.0
53005,43.0625,-88.0992,Brookfield,WI,Wisconsin,True,,20514.0,539.2,55133,Waukesha,"{""55133"": 100}",Waukesha,55133,False,False,America/Chicago,"(43.0625, -88.0992)",9.401110951955422,1557968.0,2739_0_no,43.15347967421281,-88.23778098995304,20.0
53007,43.10825,-88.07116,Butler,WI,Wisconsin,True,,1964.0,985.7,55133,Waukesha,"{""55133"": 100}",Waukesha,55133,False,False,America/Chicago,"(43.10825, -88.07116)",8.964065293311435,1557968.0,2739_0_no,43.15347967421281,-88.23778098995304,20.0
53012,43.31369,-88.03704,Cedarburg,WI,Wisconsin,True,,18532.0,211.3,55089,Ozaukee,"{""55089"": 68.64, ""55131"": 31.36}",Ozaukee|Washington,55089|55131,False,False,America/Chicago,"(43.31369, -88.03704)",14.988227244840116,1557968.0,2739_0_no,43.15347967421281,-88.23778098995304,20.0
53017,43.2044,-88.2526,Colgate,WI,Wisconsin,True,,5494.0,123.0,55131,Washington,"{""55131"": 87.55, ""55133"": 12.45}",Washington|Waukesha,55131|55133,False,False,America/Chicago,"(43.2044, -88.2526)",3.5966135313549694,1557968.0,2739_0_no,43.15347967421281,-88.23778098995304,20.0
53018,43.04809,-88.39278,Delafield,WI,Wisconsin,True,,8031.0,276.4,55133,Waukesha,"{""55133"": 100}",Waukesha,55133,False,False,America/Chicago,"(43.04809, -88.39278)",10.68495488650944,1557968.0,2739_0_no,43.15347967421281,-88.23778098995304,20.0
53022,43.23062,-88.11286,Germantown,WI,Wisconsin,True,,19665.0,274.0,55131,Washington,"{""55131"": 100}",Washington,55131,False,False,America/Chicago,"(43.23062, -88.11286)",8.246565897458938,1557968.0,2739_0_no,43.15347967421281,-88.23778098995304,20.0
53024,43.33233,-87.93299,Grafton,WI,Wisconsin,True,,17977.0,252.2,55089,Ozaukee,"{""55089"": 100}",Ozaukee,55089,False,False,America/Chicago,"(43.33233, -87.93299)",19.69866875695632,1557968.0,2739_0_no,43.15347967421281,-88.23778098995304,20.0
53027,43.31697,-88.37356,Hartford,WI,Wisconsin,True,,23361.0,99.1,55131,Washington,"{""55131"": 82.84, ""55027"": 17.16}",Washington|Dodge,55131|55027,False,False,America/Chicago,"(43.31697, -88.37356)",13.202904280928081,1557968.0,2739_0_no,43.15347967421281,-88.23778098995304,20.0
53029,43.14381,-88.34624,Hartland,WI,Wisconsin,True,,21484.0,220.6,55133,Waukesha,"{""55133"": 97.1, ""55131"": 2.9}",Waukesha|Washington,55133|55131,False,False,America/Chicago,"(43.14381, -88.34624)",5.50801366377126,1557968.0,2739_0_no,43.15347967421281,-88.23778098995304,20.0
53033,43.23716,-88.25634,Hubertus,WI,Wisconsin,True,,4924.0,119.0,55131,Washington,"{""55131"": 100}",Washington,55131,False,False,America/Chicago,"(43.23716, -88.25634)",5.856847025613885,1557968.0,2739_0_no,43.15347967421281,-88.23778098995304,20.0
53034,43.34014,-88.60746,Hustisford,WI,Wisconsin,True,,1629.0,81.5,55027,Dodge,"{""55027"": 100}",Dodge,55027,False,False,America/Chicago,"(43.34014, -88.60746)",22.63820648881975,1557968.0,2739_0_no,43.15347967421281,-88.23778098995304,20.0
53035,43.39135,-88.54355,Iron Ridge,WI,Wisconsin,True,,2206.0,25.0,55027,Dodge,"{""55027"": 100}",Dodge,55027,False,False,America/Chicago,"(43.39135, -88.54355)",22.51074490981305,1557968.0,2739_0_no,43.15347967421281,-88.23778098995304,20.0
53036,43.17141,-88.57693,Ixonia,WI,Wisconsin,True,,3009.0,40.6,55055,Jefferson,"{""55055"": 70.41, ""55027"": 24.76, ""55133"": 4.83}",Jefferson|Dodge|Waukesha,55055|55027|55133,False,False,America/Chicago,"(43.17141, -88.57693)",17.137232845632106,1557968.0,2739_0_no,43.15347967421281,-88.23778098995304,20.0
53037,43.31255,-88.16108,Jackson,WI,Wisconsin,True,,9823.0,164.2,55131,Washington,"{""55131"": 100}",Washington,55131,False,False,America/Chicago,"(43.31255, -88.16108)",11.649199251883642,1557968.0,2739_0_no,43.15347967421281,-88.23778098995304,20.0
53045,43.061,-88.15145,Brookfield,WI,Wisconsin,True,,21464.0,574.9,55133,Waukesha,"{""55133"": 100}",Waukesha,55133,False,False,America/Chicago,"(43.061, -88.15145)",7.732611798759994,1557968.0,2739_0_no,43.15347967421281,-88.23778098995304,20.0
53046,43.15215,-88.16045,Lannon,WI,Wisconsin,True,,1184.0,184.9,55133,Waukesha,"{""55133"": 100}",Waukesha,55133,False,False,America/Chicago,"(43.15215, -88.16045)",3.8990181454513264,1557968.0,2739_0_no,43.15347967421281,-88.23778098995304,20.0
53047,43.25904,-88.63002,Lebanon,WI,Wisconsin,True,,45.0,43.4,55027,Dodge,"{""55027"": 100}",Dodge,55027,False,False,America/Chicago,"(43.25904, -88.63002)",21.057277796219477,1557968.0,2739_0_no,43.15347967421281,-88.23778098995304,20.0
53051,43.14905,-88.12348,Menomonee Falls,WI,Wisconsin,True,,37668.0,436.9,55133,Waukesha,"{""55133"": 100}",Waukesha,55133,False,False,America/Chicago,"(43.14905, -88.12348)",5.769709824042129,1557968.0,2739_0_no,43.15347967421281,-88.23778098995304,20.0
53058,43.11003,-88.40624,Nashotah,WI,Wisconsin,True,,3348.0,232.8,55133,Waukesha,"{""55133"": 100}",Waukesha,55133,False,False,America/Chicago,"(43.11003, -88.40624)",9.009147657034845,1557968.0,2739_0_no,43.15347967421281,-88.23778098995304,20.0
53059,43.28954,-88.53012,Neosho,WI,Wisconsin,True,,1975.0,23.7,55027,Dodge,"{""55027"": 100}",Dodge,55027,False,False,America/Chicago,"(43.28954, -88.53012)",17.464982291479984,1557968.0,2739_0_no,43.15347967421281,-88.23778098995304,20.0
53066,43.11451,-88.49068,Oconomowoc,WI,Wisconsin,True,,35414.0,132.5,55133,Waukesha,"{""55133"": 71.13, ""55055"": 15.9, ""55027"": 12.76, ""55131"": 0.21}",Waukesha|Jefferson|Dodge|Washington,55133|55055|55027|55131,False,False,America/Chicago,"(43.11451, -88.49068)",13.032686317250814,1557968.0,2739_0_no,43.15347967421281,-88.23778098995304,20.0
53069,43.1131,-88.43094,Okauchee,WI,Wisconsin,True,,762.0,758.0,55133,Waukesha,"{""55133"": 100}",Waukesha,55133,False,False,America/Chicago,"(43.1131, -88.43094)",10.131185177570659,1557968.0,2739_0_no,43.15347967421281,-88.23778098995304,20.0
53072,43.07989,-88.26638,Pewaukee,WI,Wisconsin,True,,25850.0,334.7,55133,Waukesha,"{""55133"": 100}",Waukesha,55133,False,False,America/Chicago,"(43.07989, -88.26638)",5.285198004860295,1557968.0,2739_0_no,43.15347967421281,-88.23778098995304,20.0
53074,43.42716,-87.88265,Port Washington,WI,Wisconsin,True,,12788.0,163.2,55089,Ozaukee,"{""55089"": 100}",Ozaukee,55089,False,False,America/Chicago,"(43.42716, -87.88265)",26.010752917857165,1557968.0,2739_0_no,43.15347967421281,-88.23778098995304,20.0
53076,43.26966,-88.20905,Richfield,WI,Wisconsin,True,,3854.0,66.4,55131,Washington,"{""55131"": 100}",Washington,55131,False,False,America/Chicago,"(43.26966, -88.20905)",8.156638893366887,1557968.0,2739_0_no,43.15347967421281,-88.23778098995304,20.0
53078,43.31386,-88.45924,Rubicon,WI,Wisconsin,True,,1608.0,18.5,55027,Dodge,"{""55027"": 100}",Dodge,55027,False,False,America/Chicago,"(43.31386, -88.45924)",15.71853343558966,1557968.0,2739_0_no,43.15347967421281,-88.23778098995304,20.0
53080,43.40733,-87.98789,Saukville,WI,Wisconsin,True,,5388.0,72.8,55089,Ozaukee,"{""55089"": 100}",Ozaukee,55089,False,False,America/Chicago,"(43.40733, -87.98789)",21.578345447602313,1557968.0,2739_0_no,43.15347967421281,-88.23778098995304,20.0
53086,43.32508,-88.27124,Slinger,WI,Wisconsin,True,,8246.0,148.0,55131,Washington,"{""55131"": 100}",Washington,55131,False,False,America/Chicago,"(43.32508, -88.27124)",11.975467034475887,1557968.0,2739_0_no,43.15347967421281,-88.23778098995304,20.0
53089,43.14646,-88.23594,Sussex,WI,Wisconsin,True,,19223.0,276.3,55133,Waukesha,"{""55133"": 100}",Waukesha,55133,False,False,America/Chicago,"(43.14646, -88.23594)",0.4938116259491937,1557968.0,2739_0_no,43.15347967421281,-88.23778098995304,20.0
53092,43.22139,-87.95351,Mequon,WI,Wisconsin,True,,20625.0,392.2,55089,Ozaukee,"{""55089"": 100}",Ozaukee,55089,False,False,America/Chicago,"(43.22139, -87.95351)",15.069888956294045,1557968.0,2739_0_no,43.15347967421281,-88.23778098995304,20.0
53095,43.38838,-88.15895,West Bend,WI,Wisconsin,True,,27596.0,151.2,55131,Washington,"{""55131"": 94.06, ""55089"": 5.94}",Washington|Ozaukee,55131|55089,False,False,America/Chicago,"(43.38838, -88.15895)",16.70757310435299,1557968.0,2739_0_no,43.15347967421281,-88.23778098995304,20.0
53097,43.24574,-88.0069,Mequon,WI,Wisconsin,True,,6881.0,98.3,55089,Ozaukee,"{""55089"": 100}",Ozaukee,55089,False,False,America/Chicago,"(43.24574, -88.0069)",13.261412607261787,1557968.0,2739_0_no,43.15347967421281,-88.23778098995304,20.0
53103,42.88175,-88.21542,Big Bend,WI,Wisconsin,True,,3669.0,116.2,55133,Waukesha,"{""55133"": 100}",Waukesha,55133,False,False,America/Chicago,"(42.88175, -88.21542)",18.80868397299473,1557968.0,2739_0_no,43.15347967421281,-88.23778098995304,20.0
53110,42.94671,-87.86403,Cudahy,WI,Wisconsin,True,,18211.0,1475.6,55079,Milwaukee,"{""55079"": 100}",Milwaukee,55079,False,False,America/Chicago,"(42.94671, -87.86403)",23.668754581781684,1557968.0,2739_0_no,43.15347967421281,-88.23778098995304,20.0
53118,42.9725,-88.48859,Dousman,WI,Wisconsin,True,,6860.0,67.4,55133,Waukesha,"{""55133"": 87.37, ""55055"": 12.63}",Waukesha|Jefferson,55133|55055,False,False,America/Chicago,"(42.9725, -88.48859)",17.794892188875508,1557968.0,2739_0_no,43.15347967421281,-88.23778098995304,20.0
53119,42.88356,-88.4862,Eagle,WI,Wisconsin,True,,6055.0,58.4,55133,Waukesha,"{""55133"": 89.06, ""55127"": 8.82, ""55055"": 2.12}",Waukesha|Walworth|Jefferson,55133|55127|55055,False,False,America/Chicago,"(42.88356, -88.4862)",22.478723334254372,1557968.0,2739_0_no,43.15347967421281,-88.23778098995304,20.0
53122,43.04811,-88.08674,Elm Grove,WI,Wisconsin,True,,6156.0,727.4,55133,Waukesha,"{""55133"": 100}",Waukesha,55133,False,False,America/Chicago,"(43.04811, -88.08674)",10.538749442730902,1557968.0,2739_0_no,43.15347967421281,-88.23778098995304,20.0
53129,42.93795,-88.00003,Greendale,WI,Wisconsin,True,,14005.0,1050.0,55079,Milwaukee,"{""55079"": 100}",Milwaukee,55079,False,False,America/Chicago,"(42.93795, -88.00003)",19.128045553589722,1557968.0,2739_0_no,43.15347967421281,-88.23778098995304,20.0
53130,42.94092,-88.04909,Hales Corners,WI,Wisconsin,True,,7789.0,942.9,55079,Milwaukee,"{""55079"": 100}",Milwaukee,55079,False,False,America/Chicago,"(42.94092, -88.04909)",17.5061818736723,1557968.0,2739_0_no,43.15347967421281,-88.23778098995304,20.0
53132,42.88589,-88.01063,Franklin,WI,Wisconsin,True,,35619.0,396.2,55079,Milwaukee,"{""55079"": 100}",Milwaukee,55079,False,False,America/Chicago,"(42.88589, -88.01063)",21.760014416811917,1557968.0,2739_0_no,43.15347967421281,-88.23778098995304,20.0
53146,42.9718,-88.15885,New Berlin,WI,Wisconsin,True,,7509.0,158.4,55133,Waukesha,"{""55133"": 100}",Waukesha,55133,False,False,America/Chicago,"(42.9718, -88.15885)",13.170054637074793,1557968.0,2739_0_no,43.15347967421281,-88.23778098995304,20.0
53149,42.87436,-88.34077,Mukwonago,WI,Wisconsin,True,,19849.0,132.4,55133,Waukesha,"{""55133"": 83.99, ""55127"": 9.3, ""55101"": 6.71}",Waukesha|Walworth|Racine,55133|55127|55101,False,False,America/Chicago,"(42.87436, -88.34077)",19.974869551974354,1557968.0,2739_0_no,43.15347967421281,-88.23778098995304,20.0
53150,42.8845,-88.12824,Muskego,WI,Wisconsin,True,,25913.0,292.2,55133,Waukesha,"{""55133"": 95.32, ""55101"": 4.68}",Waukesha|Racine,55133|55101,False,False,America/Chicago,"(42.8845, -88.12824)",19.391038246761763,1557968.0,2739_0_no,43.15347967421281,-88.23778098995304,20.0
53151,42.97467,-88.09845,New Berlin,WI,Wisconsin,True,,32154.0,708.5,55133,Waukesha,"{""55133"": 100}",Waukesha,55133,False,False,America/Chicago,"(42.97467, -88.09845)",14.216273753711747,1557968.0,2739_0_no,43.15347967421281,-88.23778098995304,20.0
53153,42.94056,-88.40237,North Prairie,WI,Wisconsin,True,,2624.0,212.3,55133,Waukesha,"{""55133"": 100}",Waukesha,55133,False,False,America/Chicago,"(42.94056, -88.40237)",16.89643519902662,1557968.0,2739_0_no,43.15347967421281,-88.23778098995304,20.0
53154,42.8803,-87.90092,Oak Creek,WI,Wisconsin,True,,36321.0,492.9,55079,Milwaukee,"{""55079"": 100}",Milwaukee,55079,False,False,America/Chicago,"(42.8803, -87.90092)",25.41367823331828,1557968.0,2739_0_no,43.15347967421281,-88.23778098995304,20.0
53156,42.89069,-88.59012,Palmyra,WI,Wisconsin,True,,3364.0,42.2,55055,Jefferson,"{""55055"": 100}",Jefferson,55055,False,False,America/Chicago,"(42.89069, -88.59012)",25.425198086113696,1557968.0,2739_0_no,43.15347967421281,-88.23778098995304,20.0
53172,42.91197,-87.86266,South Milwaukee,WI,Wisconsin,True,,20857.0,1667.8,55079,Milwaukee,"{""55079"": 100}",Milwaukee,55079,False,False,America/Chicago,"(42.91197, -87.86266)",25.246248694173083,1557968.0,2739_0_no,43.15347967421281,-88.23778098995304,20.0
53178,43.02335,-88.59894,Sullivan,WI,Wisconsin,True,,2552.0,30.9,55055,Jefferson,"{""55055"": 100}",Jefferson,55055,False,False,America/Chicago,"(43.02335, -88.59894)",20.320983316234376,1557968.0,2739_0_no,43.15347967421281,-88.23778098995304,20.0
53183,43.00441,-88.3739,Wales,WI,Wisconsin,True,,2779.0,303.0,55133,Waukesha,"{""55133"": 100}",Waukesha,55133,False,False,America/Chicago,"(43.00441, -88.3739)",12.380396601959248,1557968.0,2739_0_no,43.15347967421281,-88.23778098995304,20.0
53186,43.02305,-88.20319,Waukesha,WI,Wisconsin,True,,34092.0,1045.5,55133,Waukesha,"{""55133"": 100}",Waukesha,55133,False,False,America/Chicago,"(43.02305, -88.20319)",9.179304838015588,1557968.0,2739_0_no,43.15347967421281,-88.23778098995304,20.0
53188,43.02106,-88.29265,Waukesha,WI,Wisconsin,True,,35045.0,504.6,55133,Waukesha,"{""55133"": 100}",Waukesha,55133,False,False,America/Chicago,"(43.02106, -88.29265)",9.559069249048582,1557968.0,2739_0_no,43.15347967421281,-88.23778098995304,20.0
53189,42.95216,-88.28068,Waukesha,WI,Wisconsin,True,,27399.0,221.2,55133,Waukesha,"{""55133"": 100}",Waukesha,55133,False,False,America/Chicago,"(42.95216, -88.28068)",14.077479313180493,1557968.0,2739_0_no,43.15347967421281,-88.23778098995304,20.0
53202,43.04561,-87.89893,Milwaukee,WI,Wisconsin,True,,24967.0,4539.1,55079,Milwaukee,"{""55079"": 100}",Milwaukee,55079,False,False,America/Chicago,"(43.04561, -87.89893)",18.6490048295673,1557968.0,2739_0_no,43.15347967421281,-88.23778098995304,20.0
53203,43.03828,-87.91603,Milwaukee,WI,Wisconsin,True,,1743.0,1514.3,55079,Milwaukee,"{""55079"": 100}",Milwaukee,55079,False,False,America/Chicago,"(43.03828, -87.91603)",18.079592874996717,1557968.0,2739_0_no,43.15347967421281,-88.23778098995304,20.0
53204,43.01806,-87.92552,Milwaukee,WI,Wisconsin,True,,38778.0,4641.9,55079,Milwaukee,"{""55079"": 100}",Milwaukee,55079,False,False,America/Chicago,"(43.01806, -87.92552)",18.32566002210068,1557968.0,2739_0_no,43.15347967421281,-88.23778098995304,20.0
53205,43.05359,-87.93363,Milwaukee,WI,Wisconsin,True,,9119.0,2436.3,55079,Milwaukee,"{""55079"": 100}",Milwaukee,55079,False,False,America/Chicago,"(43.05359, -87.93363)",16.824140044960654,1557968.0,2739_0_no,43.15347967421281,-88.23778098995304,20.0
53206,43.07524,-87.93349,Milwaukee,WI,Wisconsin,True,,23612.0,3437.9,55079,Milwaukee,"{""55079"": 100}",Milwaukee,55079,False,False,America/Chicago,"(43.07524, -87.93349)",16.271898022265656,1557968.0,2739_0_no,43.15347967421281,-88.23778098995304,20.0
53207,42.97148,-87.90152,Milwaukee,WI,Wisconsin,True,,37103.0,1439.4,55079,Milwaukee,"{""55079"": 100}",Milwaukee,55079,False,False,America/Chicago,"(42.97148, -87.90152)",21.12497423019561,1557968.0,2739_0_no,43.15347967421281,-88.23778098995304,20.0
53208,43.04556,-87.96556,Milwaukee,WI,Wisconsin,True,,29205.0,2669.0,55079,Milwaukee,"{""55079"": 100}",Milwaukee,55079,False,False,America/Chicago,"(43.04556, -87.96556)",15.62717213977668,1557968.0,2739_0_no,43.15347967421281,-88.23778098995304,20.0
53209,43.12871,-87.94717,Milwaukee,WI,Wisconsin,True,,48321.0,1713.2,55079,Milwaukee,"{""55079"": 100}",Milwaukee,55079,False,False,America/Chicago,"(43.12871, -87.94717)",14.75091770095478,1557968.0,2739_0_no,43.15347967421281,-88.23778098995304,20.0
53210,43.06889,-87.97381,Milwaukee,WI,Wisconsin,True,,25800.0,3897.1,55079,Milwaukee,"{""55079"": 100}",Milwaukee,55079,False,False,America/Chicago,"(43.06889, -87.97381)",14.541026784934145,1557968.0,2739_0_no,43.15347967421281,-88.23778098995304,20.0
53211,43.08308,-87.88485,Milwaukee,WI,Wisconsin,True,,34389.0,3348.7,55079,Milwaukee,"{""55079"": 100}",Milwaukee,55079,False,False,America/Chicago,"(43.08308, -87.88485)",18.45247374530191,1557968.0,2739_0_no,43.15347967421281,-88.23778098995304,20.0
53212,43.07464,-87.90845,Milwaukee,WI,Wisconsin,True,,30115.0,2855.5,55079,Milwaukee,"{""55079"": 100}",Milwaukee,55079,False,False,America/Chicago,"(43.07464, -87.90845)",17.481109880919814,1557968.0,2739_0_no,43.15347967421281,-88.23778098995304,20.0
53213,43.04889,-88.00176,Milwaukee,WI,Wisconsin,True,,27755.0,2736.9,55079,Milwaukee,"{""55079"": 100}",Milwaukee,55079,False,False,America/Chicago,"(43.04889, -88.00176)",13.928225403119711,1557968.0,2739_0_no,43.15347967421281,-88.23778098995304,20.0
53214,43.02061,-88.01634,Milwaukee,WI,Wisconsin,True,,35210.0,1903.7,55079,Milwaukee,"{""55079"": 100}",Milwaukee,55079,False,False,America/Chicago,"(43.02061, -88.01634)",14.461554464280656,1557968.0,2739_0_no,43.15347967421281,-88.23778098995304,20.0
53215,42.99931,-87.94625,Milwaukee,WI,Wisconsin,True,,61028.0,4271.7,55079,Milwaukee,"{""55079"": 100}",Milwaukee,55079,False,False,America/Chicago,"(42.99931, -87.94625)",18.164416711053406,1557968.0,2739_0_no,43.15347967421281,-88.23778098995304,20.0
53216,43.08634,-87.97636,Milwaukee,WI,Wisconsin,True,,31476.0,2636.1,55079,Milwaukee,"{""55079"": 100}",Milwaukee,55079,False,False,America/Chicago,"(43.08634, -87.97636)",13.976536784239345,1557968.0,2739_0_no,43.15347967421281,-88.23778098995304,20.0
53217,43.15767,-87.91633,Milwaukee,WI,Wisconsin,True,,28398.0,778.4,55079,Milwaukee,"{""55079"": 99.36, ""55089"": 0.64}",Milwaukee|Ozaukee,55079|55089,False,False,America/Chicago,"(43.15767, -87.91633)",16.204861396384047,1557968.0,2739_0_no,43.15347967421281,-88.23778098995304,20.0
53218,43.11469,-87.99301,Milwaukee,WI,Wisconsin,True,,42728.0,2812.8,55079,Milwaukee,"{""55079"": 100}",Milwaukee,55079,False,False,America/Chicago,"(43.11469, -87.99301)",12.629323413564384,1557968.0,2739_0_no,43.15347967421281,-88.23778098995304,20.0
53219,42.99537,-87.99171,Milwaukee,WI,Wisconsin,True,,34315.0,2626.5,55079,Milwaukee,"{""55079"": 100}",Milwaukee,55079,False,False,America/Chicago,"(42.99537, -87.99171)",16.540260115382058,1557968.0,2739_0_no,43.15347967421281,-88.23778098995304,20.0
53220,42.96515,-87.99142,Milwaukee,WI,Wisconsin,True,,27224.0,1892.9,55079,Milwaukee,"{""55079"": 100}",Milwaukee,55079,False,False,America/Chicago,"(42.96515, -87.99142)",17.999997675753512,1557968.0,2739_0_no,43.15347967421281,-88.23778098995304,20.0
53221,42.95445,-87.94374,Milwaukee,WI,Wisconsin,True,,39602.0,1697.2,55079,Milwaukee,"{""55079"": 100}",Milwaukee,55079,False,False,America/Chicago,"(42.95445, -87.94374)",20.235878716004734,1557968.0,2739_0_no,43.15347967421281,-88.23778098995304,20.0
53222,43.08205,-88.03496,Milwaukee,WI,Wisconsin,True,,26340.0,1883.2,55079,Milwaukee,"{""55079"": 100}",Milwaukee,55079,False,False,America/Chicago,"(43.08205, -88.03496)",11.35757127542891,1557968.0,2739_0_no,43.15347967421281,-88.23778098995304,20.0
53223,43.16304,-87.98996,Milwaukee,WI,Wisconsin,True,,28640.0,1122.0,55079,Milwaukee,"{""55079"": 100}",Milwaukee,55079,False,False,America/Chicago,"(43.16304, -87.98996)",12.507969179765425,1557968.0,2739_0_no,43.15347967421281,-88.23778098995304,20.0
53224,43.16357,-88.03894,Milwaukee,WI,Wisconsin,True,,22320.0,850.0,55079,Milwaukee,"{""55079"": 100}",Milwaukee,55079,False,False,America/Chicago,"(43.16357, -88.03894)",10.046034514813385,1557968.0,2739_0_no,43.15347967421281,-88.23778098995304,20.0
53225,43.11443,-88.042,Milwaukee,WI,Wisconsin,True,,26036.0,1439.4,55079,Milwaukee,"{""55079"": 98.51, ""55133"": 1.49}",Milwaukee|Waukesha,55079|55133,False,False,America/Chicago,"(43.11443, -88.042)",10.233629277561706,1557968.0,2739_0_no,43.15347967421281,-88.23778098995304,20.0
53226,43.04975,-88.04209,Milwaukee,WI,Wisconsin,True,,18985.0,1070.9,55079,Milwaukee,"{""55079"": 100}",Milwaukee,55079,False,False,America/Chicago,"(43.04975, -88.04209)",12.199479469563483,1557968.0,2739_0_no,43.15347967421281,-88.23778098995304,20.0
53227,42.99562,-88.04264,Milwaukee,WI,Wisconsin,True,,23975.0,1808.9,55079,Milwaukee,"{""55079"": 99.59, ""55133"": 0.41}",Milwaukee|Waukesha,55079|55133,False,False,America/Chicago,"(42.99562, -88.04264)",14.69569371932987,1557968.0,2739_0_no,43.15347967421281,-88.23778098995304,20.0
53228,42.96678,-88.04333,Milwaukee,WI,Wisconsin,True,,14718.0,1082.7,55079,Milwaukee,"{""55079"": 100}",Milwaukee,55079,False,False,America/Chicago,"(42.96678, -88.04333)",16.209953456604172,1557968.0,2739_0_no,43.15347967421281,-88.23778098995304,20.0
53233,43.03694,-87.93364,Milwaukee,WI,Wisconsin,True,,14850.0,3271.3,55079,Milwaukee,"{""55079"": 100}",Milwaukee,55079,False,False,America/Chicago,"(43.03694, -87.93364)",17.329256616444738,1557968.0,2739_0_no,43.15347967421281,-88.23778098995304,20.0
53235,42.97161,-87.87298,Saint Francis,WI,Wisconsin,True,,9555.0,1435.4,55079,Milwaukee,"{""55079"": 100}",Milwaukee,55079,False,False,America/Chicago,"(42.97161, -87.87298)",22.294037486360246,1557968.0,2739_0_no,43.15347967421281,-88.23778098995304,20.0
53295,43.02222,-87.97665,Milwaukee,WI,Wisconsin,True,,169.0,273.2,55079,Milwaukee,"{""55079"": 100}",Milwaukee,55079,False,False,America/Chicago,"(43.02222, -87.97665)",15.995944077547769,1557968.0,2739_0_no,43.15347967421281,-88.23778098995304,20.0
