zip,lat,lng,city,state_id,state_name,zcta,parent_zcta,population,density,county_fips,county_name,county_weights,county_names_all,county_fips_all,imprecise,military,timezone,Coord,distance_miles,market_total_population,market_id,market_center_lat,market_center_lng,radius_miles
50424,43.40366,-93.94939,Buffalo Center,IA,Iowa,True,,1419.0,3.9,19189,Winnebago,"{""19189"": 62.15, ""19109"": 37.85}",Winnebago|Kossuth,19189|19109,False,False,America/Chicago,"(43.40366, -93.94939)",4.00444077886475,26809.0,2751_0_yes,43.46161408233648,-93.95017779093357,20.0
50432,43.22394,-93.79794,Crystal Lake,IA,Iowa,True,,264.0,234.5,19081,Hancock,"{""19081"": 100}",Hancock,19081,False,False,America/Chicago,"(43.22394, -93.79794)",18.116058965038725,26809.0,2751_0_yes,43.46161408233648,-93.95017779093357,20.0
50436,43.26256,-93.66242,Forest City,IA,Iowa,True,,5617.0,16.0,19189,Winnebago,"{""19189"": 57.75, ""19081"": 42.25}",Winnebago|Hancock,19189|19081,False,False,America/Chicago,"(43.26256, -93.66242)",19.952384713659555,26809.0,2751_0_yes,43.46161408233648,-93.95017779093357,20.0
50451,43.37746,-94.09134,Lakota,IA,Iowa,True,,523.0,3.3,19109,Kossuth,"{""19109"": 100}",Kossuth,19109,False,False,America/Chicago,"(43.37746, -94.09134)",9.164890193845316,26809.0,2751_0_yes,43.46161408233648,-93.95017779093357,20.0
50453,43.3664,-93.65258,Leland,IA,Iowa,True,,627.0,5.5,19189,Winnebago,"{""19189"": 100}",Winnebago,19189,False,False,America/Chicago,"(43.3664, -93.65258)",16.320991337726777,26809.0,2751_0_yes,43.46161408233648,-93.95017779093357,20.0
50465,43.48703,-93.91056,Rake,IA,Iowa,True,,153.0,17.8,19189,Winnebago,"{""19189"": 99.1, ""27043"": 0.9}",Winnebago|Faribault,19189|27043,False,False,America/Chicago,"(43.48703, -93.91056)",2.651358909758164,26809.0,2751_0_yes,43.46161408233648,-93.95017779093357,20.0
50473,43.46402,-93.67429,Scarville,IA,Iowa,True,,213.0,2.4,19189,Winnebago,"{""19189"": 100}",Winnebago,19189,False,False,America/Chicago,"(43.46402, -93.67429)",13.836613263390781,26809.0,2751_0_yes,43.46161408233648,-93.95017779093357,20.0
50478,43.40377,-93.78448,Thompson,IA,Iowa,True,,709.0,3.6,19189,Winnebago,"{""19189"": 100}",Winnebago,19189,False,False,America/Chicago,"(43.40377, -93.78448)",9.224547583483961,26809.0,2751_0_yes,43.46161408233648,-93.95017779093357,20.0
50480,43.25097,-94.05272,Titonka,IA,Iowa,True,,840.0,5.1,19109,Kossuth,"{""19109"": 96.66, ""19081"": 2.2, ""19189"": 1.14}",Kossuth|Hancock|Winnebago,19109|19081|19189,False,False,America/Chicago,"(43.25097, -94.05272)",15.438915637727437,26809.0,2751_0_yes,43.46161408233648,-93.95017779093357,20.0
50484,43.23609,-93.91084,Woden,IA,Iowa,True,,357.0,3.2,19081,Hancock,"{""19081"": 64.65, ""19189"": 33.02, ""19109"": 2.33}",Hancock|Winnebago|Kossuth,19081|19189|19109,False,False,America/Chicago,"(43.23609, -93.91084)",15.70707985697498,26809.0,2751_0_yes,43.46161408233648,-93.95017779093357,20.0
50517,43.30099,-94.23452,Bancroft,IA,Iowa,True,,1079.0,5.5,19109,Kossuth,"{""19109"": 100}",Kossuth,19109,False,False,America/Chicago,"(43.30099, -94.23452)",18.084552555002716,26809.0,2751_0_yes,43.46161408233648,-93.95017779093357,20.0
50522,43.18562,-94.18576,Burt,IA,Iowa,True,,978.0,5.7,19109,Kossuth,"{""19109"": 100}",Kossuth,19109,False,False,America/Chicago,"(43.18562, -94.18576)",22.446842898456254,26809.0,2751_0_yes,43.46161408233648,-93.95017779093357,20.0
50556,43.45276,-94.20114,Ledyard,IA,Iowa,True,,187.0,1.9,19109,Kossuth,"{""19109"": 100}",Kossuth,19109,False,False,America/Chicago,"(43.45276, -94.20114)",12.60164192166659,26809.0,2751_0_yes,43.46161408233648,-93.95017779093357,20.0
50559,43.20912,-94.32477,Lone Rock,IA,Iowa,True,,359.0,3.9,19109,Kossuth,"{""19109"": 100}",Kossuth,19109,False,False,America/Chicago,"(43.20912, -94.32477)",25.665839031971316,26809.0,2751_0_yes,43.46161408233648,-93.95017779093357,20.0
50590,43.40647,-94.30303,Swea City,IA,Iowa,True,,845.0,4.0,19109,Kossuth,"{""19109"": 100}",Kossuth,19109,False,False,America/Chicago,"(43.40647, -94.30303)",18.109100685990217,26809.0,2751_0_yes,43.46161408233648,-93.95017779093357,20.0
56009,43.66125,-93.55904,Alden,MN,Minnesota,True,,1437.0,5.7,27047,Freeborn,"{""27047"": 98.48, ""27043"": 1.52}",Freeborn|Faribault,27047|27043,False,False,America/Chicago,"(43.66125, -93.55904)",23.953406375484718,26809.0,2751_0_yes,43.46161408233648,-93.95017779093357,20.0
56013,43.62142,-94.10734,Blue Earth,MN,Minnesota,True,,4301.0,9.8,27043,Faribault,"{""27043"": 90.04, ""27091"": 9.96}",Faribault|Martin,27043|27091,False,False,America/Chicago,"(43.62142, -94.10734)",13.559986197561296,26809.0,2751_0_yes,43.46161408233648,-93.95017779093357,20.0
56014,43.58363,-93.82568,Bricelyn,MN,Minnesota,True,,646.0,3.3,27043,Faribault,"{""27043"": 100}",Faribault,27043,False,False,America/Chicago,"(43.58363, -93.82568)",10.487007587165168,26809.0,2751_0_yes,43.46161408233648,-93.95017779093357,20.0
56027,43.51935,-94.12432,Elmore,MN,Minnesota,True,,618.0,3.8,27043,Faribault,"{""27043"": 76.92, ""19109"": 13.64, ""27091"": 9.44}",Faribault|Kossuth|Martin,27043|19109|27091,False,False,America/Chicago,"(43.51935, -94.12432)",9.597463347988246,26809.0,2751_0_yes,43.46161408233648,-93.95017779093357,20.0
56033,43.55926,-93.93118,Frost,MN,Minnesota,True,,343.0,3.9,27043,Faribault,"{""27043"": 100}",Faribault,27043,False,False,America/Chicago,"(43.55926, -93.93118)",6.813522679033245,26809.0,2751_0_yes,43.46161408233648,-93.95017779093357,20.0
56039,43.66246,-94.32287,Granada,MN,Minnesota,True,,811.0,3.4,27091,Martin,"{""27091"": 98.06, ""27043"": 1.94}",Martin|Faribault,27091|27043,False,False,America/Chicago,"(43.66246, -94.32287)",23.254113299993893,26809.0,2751_0_yes,43.46161408233648,-93.95017779093357,20.0
56051,43.53649,-93.70868,Kiester,MN,Minnesota,True,,713.0,9.4,27043,Faribault,"{""27043"": 100}",Faribault,27043,False,False,America/Chicago,"(43.53649, -93.70868)",13.162988667022608,26809.0,2751_0_yes,43.46161408233648,-93.95017779093357,20.0
56097,43.72261,-93.71593,Wells,MN,Minnesota,True,,3770.0,8.3,27043,Faribault,"{""27043"": 82.0, ""27047"": 15.27, ""27161"": 2.73}",Faribault|Freeborn|Waseca,27043|27047|27161,False,False,America/Chicago,"(43.72261, -93.71593)",21.508201676038496,26809.0,2751_0_yes,43.46161408233648,-93.95017779093357,20.0
