zip,lat,lng,city,state_id,state_name,zcta,parent_zcta,population,density,county_fips,county_name,county_weights,county_names_all,county_fips_all,imprecise,military,timezone,Coord,distance_miles,market_total_population,market_id,market_center_lat,market_center_lng,radius_miles
57313,43.31085,-98.36327,Armour,SD,South Dakota,True,,1121.0,2.4,46043,Douglas,"{""46043"": 65.91, ""46023"": 34.09}",Douglas|Charles Mix,46043|46023,False,False,America/Chicago,"(43.31085, -98.36327)",21.46545083121834,8073.0,2757_0_yes,43.47821894301124,-98.72346980158144,20.0
57328,43.43413,-98.44207,Corsica,SD,South Dakota,True,,1345.0,3.2,46043,Douglas,"{""46043"": 97.57, ""46003"": 2.43}",Douglas|Aurora,46043|46003,False,False,America/Chicago,"(43.43413, -98.44207)",14.438595295682623,8073.0,2757_0_yes,43.47821894301124,-98.72346980158144,20.0
57342,43.24561,-98.70054,Geddes,SD,South Dakota,True,,455.0,1.1,46023,Charles Mix,"{""46023"": 100}",Charles Mix,46023,False,False,America/Chicago,"(43.24561, -98.70054)",16.112969079037736,8073.0,2757_0_yes,43.47821894301124,-98.72346980158144,20.0
57344,43.45575,-98.61796,Harrison,SD,South Dakota,True,,66.0,0.7,46043,Douglas,"{""46043"": 100}",Douglas,46043,False,False,America/Chicago,"(43.45575, -98.61796)",5.513952456399647,8073.0,2757_0_yes,43.47821894301124,-98.72346980158144,20.0
57368,43.75117,-98.47593,Plankinton,SD,South Dakota,True,,1199.0,2.0,46003,Aurora,"{""46003"": 100}",Aurora,46003,False,False,America/Chicago,"(43.75117, -98.47593)",22.560981713814527,8073.0,2757_0_yes,43.47821894301124,-98.72346980158144,20.0
57369,43.42544,-98.94606,Platte,SD,South Dakota,True,,2415.0,2.1,46023,Charles Mix,"{""46023"": 75.13, ""46015"": 21.88, ""46043"": 2.07, ""46003"": 0.92}",Charles Mix|Brule|Douglas|Aurora,46023|46015|46043|46003,False,False,America/Chicago,"(43.42544, -98.94606)",11.74525492459377,8073.0,2757_0_yes,43.47821894301124,-98.72346980158144,20.0
57375,43.56222,-98.47877,Stickney,SD,South Dakota,True,,641.0,1.8,46003,Aurora,"{""46003"": 98.57, ""46035"": 1.43}",Aurora|Davison,46003|46035,False,False,America/Chicago,"(43.56222, -98.47877)",13.564309484629028,8073.0,2757_0_yes,43.47821894301124,-98.72346980158144,20.0
57383,43.7177,-98.71382,White Lake,SD,South Dakota,True,,831.0,1.3,46003,Aurora,"{""46003"": 95.49, ""46015"": 4.51}",Aurora|Brule,46003|46015,False,False,America/Chicago,"(43.7177, -98.71382)",16.55360853784662,8073.0,2757_0_yes,43.47821894301124,-98.72346980158144,20.0
