zip,lat,lng,city,state_id,state_name,zcta,parent_zcta,population,density,county_fips,county_name,county_weights,county_names_all,county_fips_all,imprecise,military,timezone,Coord,distance_miles,market_total_population,market_id,market_center_lat,market_center_lng,radius_miles
83202,42.97057,-112.34734,Pocatello,ID,Idaho,True,,22413.0,51.9,16005,Bannock,"{""16005"": 90.38, ""16011"": 9.62}",Bannock|Bingham,16005|16011,False,False,America/Boise,"(42.97057, -112.34734)",25.466493621690525,78132.0,2769_0_no,43.23571382227472,-111.9966750782014,20.0
83218,43.31803,-112.16453,Basalt,ID,Idaho,True,,358.0,305.9,16011,Bingham,"{""16011"": 100}",Bingham,16011,False,False,America/Boise,"(43.31803, -112.16453)",10.18053857055454,78132.0,2769_0_no,43.23571382227472,-111.9966750782014,20.0
83236,43.22819,-111.94894,Firth,ID,Idaho,True,,2398.0,4.3,16011,Bingham,"{""16011"": 100}",Bingham,16011,False,False,America/Boise,"(43.22819, -111.94894)",2.458596744440954,78132.0,2769_0_no,43.23571382227472,-111.9966750782014,20.0
83274,43.35049,-112.09904,Shelley,ID,Idaho,True,,9307.0,36.4,16011,Bingham,"{""16011"": 99.54, ""16019"": 0.46}",Bingham|Bonneville,16011|16019,False,False,America/Boise,"(43.35049, -112.09904)",9.454654846499603,78132.0,2769_0_no,43.23571382227472,-111.9966750782014,20.0
83404,43.42818,-112.01432,Idaho Falls,ID,Idaho,True,,24452.0,377.9,16019,Bonneville,"{""16019"": 100}",Bonneville,16019,False,False,America/Boise,"(43.42818, -112.01432)",13.32768167931348,78132.0,2769_0_no,43.23571382227472,-111.9966750782014,20.0
83406,43.43768,-111.93382,Idaho Falls,ID,Idaho,True,,19204.0,231.5,16019,Bonneville,"{""16019"": 100}",Bonneville,16019,False,False,America/Boise,"(43.43768, -111.93382)",14.307566502994913,78132.0,2769_0_no,43.23571382227472,-111.9966750782014,20.0
