zip,lat,lng,city,state_id,state_name,zcta,parent_zcta,population,density,county_fips,county_name,county_weights,county_names_all,county_fips_all,imprecise,military,timezone,Coord,distance_miles,market_total_population,market_id,market_center_lat,market_center_lng,radius_miles
83605,43.66442,-116.65171,Caldwell,ID,Idaho,True,,46961.0,736.2,16027,Canyon,"{""16027"": 100}",Canyon,16027,False,False,America/Boise,"(43.66442, -116.65171)",11.575465899687558,519571.0,2849_0_no,43.831032565367,-116.67599414792078,20.0
83607,43.7116,-116.74362,Caldwell,ID,Idaho,True,,24922.0,41.8,16027,Canyon,"{""16027"": 70.79, ""16075"": 19.63, ""16045"": 9.58}",Canyon|Payette|Gem,16027|16075|16045,False,False,America/Boise,"(43.7116, -116.74362)",8.915140666422952,519571.0,2849_0_no,43.831032565367,-116.67599414792078,20.0
83616,43.77667,-116.38977,Eagle,ID,Idaho,True,,29630.0,102.7,16001,Ada,"{""16001"": 64.65, ""16045"": 35.35}",Ada|Gem,16001|16045,False,False,America/Boise,"(43.77667, -116.38977)",14.758713260176295,519571.0,2849_0_no,43.831032565367,-116.67599414792078,20.0
83617,43.93303,-116.50368,Emmett,ID,Idaho,True,,15586.0,26.9,16045,Gem,"{""16045"": 99.9, ""16075"": 0.1}",Gem|Payette,16045|16075,False,False,America/Boise,"(43.93303, -116.50368)",11.104228615771513,519571.0,2849_0_no,43.831032565367,-116.67599414792078,20.0
83619,43.96982,-116.91204,Fruitland,ID,Idaho,True,,7544.0,92.0,16075,Payette,"{""16075"": 100}",Payette,16075,False,False,America/Boise,"(43.96982, -116.91204)",15.167496796585198,519571.0,2849_0_no,43.831032565367,-116.67599414792078,20.0
83626,43.66876,-116.82815,Greenleaf,ID,Idaho,True,,1244.0,72.8,16027,Canyon,"{""16027"": 100}",Canyon,16027,False,False,America/Boise,"(43.66876, -116.82815)",13.54178492076936,519571.0,2849_0_no,43.831032565367,-116.67599414792078,20.0
83628,43.57934,-116.96975,Homedale,ID,Idaho,True,,4460.0,27.3,16073,Owyhee,"{""16073"": 100}",Owyhee,16073,False,False,America/Boise,"(43.57934, -116.96975)",22.753095383875568,519571.0,2849_0_no,43.831032565367,-116.67599414792078,20.0
83636,43.90832,-116.66097,Letha,ID,Idaho,True,,458.0,71.0,16045,Gem,"{""16045"": 100}",Gem,16045,False,False,America/Boise,"(43.90832, -116.66097)",5.392236478716349,519571.0,2849_0_no,43.831032565367,-116.67599414792078,20.0
83642,43.57334,-116.40116,Meridian,ID,Idaho,True,,47808.0,445.1,16001,Ada,"{""16001"": 100}",Ada,16001,False,False,America/Boise,"(43.57334, -116.40116)",22.482707431687427,519571.0,2849_0_no,43.831032565367,-116.67599414792078,20.0
83644,43.74823,-116.58455,Middleton,ID,Idaho,True,,14237.0,119.9,16027,Canyon,"{""16027"": 100}",Canyon,16027,False,False,America/Boise,"(43.74823, -116.58455)",7.316687180404101,519571.0,2849_0_no,43.831032565367,-116.67599414792078,20.0
83646,43.65,-116.43247,Meridian,ID,Idaho,True,,68189.0,965.2,16001,Ada,"{""16001"": 100}",Ada,16001,False,False,America/Boise,"(43.65, -116.43247)",17.44220703772738,519571.0,2849_0_no,43.831032565367,-116.67599414792078,20.0
83651,43.58438,-116.62884,Nampa,ID,Idaho,True,,36313.0,879.5,16027,Canyon,"{""16027"": 100}",Canyon,16027,False,False,America/Boise,"(43.58438, -116.62884)",17.204035446823138,519571.0,2849_0_no,43.831032565367,-116.67599414792078,20.0
83655,43.95135,-116.79171,New Plymouth,ID,Idaho,True,,5375.0,35.5,16075,Payette,"{""16075"": 100}",Payette,16075,False,False,America/Boise,"(43.95135, -116.79171)",10.114677148572417,519571.0,2849_0_no,43.831032565367,-116.67599414792078,20.0
83656,43.7255,-116.79852,Notus,ID,Idaho,True,,588.0,883.6,16027,Canyon,"{""16027"": 100}",Canyon,16027,False,False,America/Boise,"(43.7255, -116.79852)",9.514699488146885,519571.0,2849_0_no,43.831032565367,-116.67599414792078,20.0
83660,43.80016,-116.9301,Parma,ID,Idaho,True,,6126.0,19.0,16027,Canyon,"{""16027"": 71.93, ""16075"": 28.07}",Canyon|Payette,16027|16075,False,False,America/Boise,"(43.80016, -116.9301)",12.846985838621922,519571.0,2849_0_no,43.831032565367,-116.67599414792078,20.0
83661,44.10617,-116.69337,Payette,ID,Idaho,True,,9650.0,12.6,16075,Payette,"{""16075"": 78.78, ""16087"": 21.22}",Payette|Washington,16075|16087,False,False,America/Boise,"(44.10617, -116.69337)",19.02981285072533,519571.0,2849_0_no,43.831032565367,-116.67599414792078,20.0
83669,43.71899,-116.50147,Star,ID,Idaho,True,,11281.0,197.9,16001,Ada,"{""16001"": 65.87, ""16027"": 34.13}",Ada|Canyon,16001|16027,False,False,America/Boise,"(43.71899, -116.50147)",11.650769357161536,519571.0,2849_0_no,43.831032565367,-116.67599414792078,20.0
83670,44.0189,-116.30793,Sweet,ID,Idaho,True,,711.0,4.1,16045,Gem,"{""16045"": 68.93, ""16015"": 31.07}",Gem|Boise,16045|16015,False,False,America/Boise,"(44.0189, -116.30793)",22.449584257809047,519571.0,2849_0_no,43.831032565367,-116.67599414792078,20.0
83676,43.65743,-116.91156,Wilder,ID,Idaho,True,,5504.0,52.1,16027,Canyon,"{""16027"": 100}",Canyon,16027,False,False,America/Boise,"(43.65743, -116.91156)",16.79683792500059,519571.0,2849_0_no,43.831032565367,-116.67599414792078,20.0
83687,43.60998,-116.52997,Nampa,ID,Idaho,True,,34377.0,268.6,16027,Canyon,"{""16027"": 89.66, ""16001"": 10.34}",Canyon|Ada,16027|16001,False,False,America/Boise,"(43.60998, -116.52997)",16.924605083460726,519571.0,2849_0_no,43.831032565367,-116.67599414792078,20.0
83704,43.62765,-116.28716,Boise,ID,Idaho,True,,40071.0,1767.8,16001,Ada,"{""16001"": 100}",Ada,16001,False,False,America/Boise,"(43.62765, -116.28716)",23.965749570107022,519571.0,2849_0_no,43.831032565367,-116.67599414792078,20.0
83709,43.55212,-116.28847,Boise,ID,Idaho,True,,60449.0,692.6,16001,Ada,"{""16001"": 100}",Ada,16001,False,False,America/Boise,"(43.55212, -116.28847)",27.316573014881914,519571.0,2849_0_no,43.831032565367,-116.67599414792078,20.0
83713,43.63897,-116.33464,Boise,ID,Idaho,True,,28806.0,1684.4,16001,Ada,"{""16001"": 100}",Ada,16001,False,False,America/Boise,"(43.63897, -116.33464)",21.59883416027342,519571.0,2849_0_no,43.831032565367,-116.67599414792078,20.0
97914,44.11085,-117.07383,Ontario,OR,Oregon,True,,19281.0,28.6,41045,Malheur,"{""41045"": 100}",Malheur,41045,False,False,America/Boise,"(44.11085, -117.07383)",27.661173350757565,519571.0,2849_0_no,43.831032565367,-116.67599414792078,20.0
