zip,lat,lng,city,state_id,state_name,zcta,parent_zcta,population,density,county_fips,county_name,county_weights,county_names_all,county_fips_all,imprecise,military,timezone,Coord,distance_miles,market_total_population,market_id,market_center_lat,market_center_lng,radius_miles
57341,44.08077,-99.08974,Gann Valley,SD,South Dakota,True,,172.0,0.3,46017,Buffalo,"{""46017"": 96.15, ""46015"": 3.85}",Buffalo|Brule,46017|46015,False,False,America/Chicago,"(44.08077, -99.08974)",22.531804435675944,4219.0,2900_0_no,44.34697220120357,-98.82693023223804,20.0
57362,44.47488,-99.06447,Miller,SD,South Dakota,True,,1996.0,1.7,46059,Hand,"{""46059"": 96.96, ""46017"": 3.04}",Hand|Buffalo,46059|46017,False,False,America/Chicago,"(44.47488, -99.06447)",14.681821666053535,4219.0,2900_0_no,44.34697220120357,-98.82693023223804,20.0
57373,44.52936,-98.86987,Saint Lawrence,SD,South Dakota,True,,427.0,0.8,46059,Hand,"{""46059"": 100}",Hand,46059,False,False,America/Chicago,"(44.52936, -98.86987)",12.778602659904479,4219.0,2900_0_no,44.34697220120357,-98.82693023223804,20.0
57379,44.26428,-98.53795,Virgil,SD,South Dakota,True,,82.0,0.6,46005,Beadle,"{""46005"": 100}",Beadle,46005,False,False,America/Chicago,"(44.26428, -98.53795)",15.388560555678701,4219.0,2900_0_no,44.34697220120357,-98.82693023223804,20.0
57381,44.38717,-98.73267,Wessington,SD,South Dakota,True,,424.0,0.5,46059,Hand,"{""46059"": 61.42, ""46005"": 38.58}",Hand|Beadle,46059|46005,False,False,America/Chicago,"(44.38717, -98.73267)",5.421301994312464,4219.0,2900_0_no,44.34697220120357,-98.82693023223804,20.0
57384,44.42044,-98.48477,Wolsey,SD,South Dakota,True,,1118.0,2.1,46005,Beadle,"{""46005"": 100}",Beadle,46005,False,False,America/Chicago,"(44.42044, -98.48477)",17.64162142436662,4219.0,2900_0_no,44.34697220120357,-98.82693023223804,20.0
