zip,lat,lng,city,state_id,state_name,zcta,parent_zcta,population,density,county_fips,county_name,county_weights,county_names_all,county_fips_all,imprecise,military,timezone,Coord,distance_miles,market_total_population,market_id,market_center_lat,market_center_lng,radius_miles
57339,44.11233,-99.47862,Fort Thompson,SD,South Dakota,True,,1547.0,11.0,46017,Buffalo,"{""46017"": 100}",Buffalo,46017,False,False,America/Chicago,"(44.11233, -99.47862)",18.128555892049146,5725.0,2901_0_no,44.34982533647091,-99.63426635049832,20.0
57345,44.5687,-99.45009,Highmore,SD,South Dakota,True,,1217.0,0.7,46069,Hyde,"{""46069"": 100}",Hyde,46069,False,False,America/Chicago,"(44.5687, -99.45009)",17.64070248025863,5725.0,2901_0_no,44.34982533647091,-99.63426635049832,20.0
57346,44.24818,-99.45756,Stephan,SD,South Dakota,True,,113.0,158.0,46069,Hyde,"{""46069"": 100}",Hyde,46069,False,False,America/Chicago,"(44.24818, -99.45756)",11.210673189863313,5725.0,2901_0_no,44.34982533647091,-99.63426635049832,20.0
57371,44.43146,-99.23104,Ree Heights,SD,South Dakota,True,,183.0,0.3,46059,Hand,"{""46059"": 97.48, ""46069"": 2.52}",Hand|Hyde,46059|46069,False,False,America/Chicago,"(44.43146, -99.23104)",20.692160353352584,5725.0,2901_0_no,44.34982533647091,-99.63426635049832,20.0
57522,44.51014,-99.96352,Blunt,SD,South Dakota,True,,639.0,1.4,46065,Hughes,"{""46065"": 69.15, ""46119"": 30.85}",Hughes|Sully,46065|46119,False,False,America/Chicago,"(44.51014, -99.96352)",19.662268677589065,5725.0,2901_0_no,44.34982533647091,-99.63426635049832,20.0
57536,44.41502,-99.76694,Harrold,SD,South Dakota,True,,308.0,0.3,46065,Hughes,"{""46065"": 72.59, ""46119"": 27.41}",Hughes|Sully,46065|46119,False,False,America/Chicago,"(44.41502, -99.76694)",7.950609255647925,5725.0,2901_0_no,44.34982533647091,-99.63426635049832,20.0
57540,44.46477,-99.60377,Holabird,SD,South Dakota,True,,107.0,0.2,46069,Hyde,"{""46069"": 100}",Hyde,46069,False,False,America/Chicago,"(44.46477, -99.60377)",8.083312535676926,5725.0,2901_0_no,44.34982533647091,-99.63426635049832,20.0
57548,44.08429,-99.62373,Lower Brule,SD,South Dakota,True,,1611.0,6.5,46085,Lyman,"{""46085"": 100}",Lyman,46085,False,False,America/Chicago,"(44.08429, -99.62373)",18.35416167166868,5725.0,2901_0_no,44.34982533647091,-99.63426635049832,20.0
