zip,lat,lng,city,state_id,state_name,zcta,parent_zcta,population,density,county_fips,county_name,county_weights,county_names_all,county_fips_all,imprecise,military,timezone,Coord,distance_miles,market_total_population,market_id,market_center_lat,market_center_lng,radius_miles
82801,44.83618,-106.89258,Sheridan,WY,Wyoming,True,,25124.0,18.4,56033,Sheridan,"{""56033"": 97.44, ""30003"": 2.56}",Sheridan|Big Horn,56033|30003,False,False,America/Denver,"(44.83618, -106.89258)",16.69363550434565,28850.0,2915_0_yes,44.66487115784462,-107.13248830247936,20.0
82832,44.59442,-106.75233,Banner,WY,Wyoming,True,,970.0,2.8,56033,Sheridan,"{""56033"": 79.4, ""56019"": 20.6}",Sheridan|Johnson,56033|56019,False,False,America/Denver,"(44.59442, -106.75233)",19.316214715404787,28850.0,2915_0_yes,44.66487115784462,-107.13248830247936,20.0
82833,44.61601,-107.12966,Big Horn,WY,Wyoming,True,,112.0,0.4,56033,Sheridan,"{""56033"": 100}",Sheridan,56033,False,False,America/Denver,"(44.61601, -107.12966)",3.3788466330717415,28850.0,2915_0_yes,44.66487115784462,-107.13248830247936,20.0
82838,44.93793,-107.4839,Parkman,WY,Wyoming,True,,526.0,1.4,56033,Sheridan,"{""56033"": 100}",Sheridan,56033,False,False,America/Denver,"(44.93793, -107.4839)",25.549032884168355,28850.0,2915_0_yes,44.66487115784462,-107.13248830247936,20.0
82839,44.92887,-107.15762,Ranchester,WY,Wyoming,True,,1293.0,4.5,56033,Sheridan,"{""56033"": 100}",Sheridan,56033,False,False,America/Denver,"(44.92887, -107.15762)",18.282153487852597,28850.0,2915_0_yes,44.66487115784462,-107.13248830247936,20.0
82842,44.57143,-106.93956,Story,WY,Wyoming,True,,805.0,34.5,56033,Sheridan,"{""56033"": 100}",Sheridan,56033,False,False,America/Denver,"(44.57143, -106.93956)",11.476569775539906,28850.0,2915_0_yes,44.66487115784462,-107.13248830247936,20.0
82844,44.80405,-107.19965,Wolf,WY,Wyoming,True,,20.0,0.3,56033,Sheridan,"{""56033"": 100}",Sheridan,56033,False,False,America/Denver,"(44.80405, -107.19965)",10.16565841605027,28850.0,2915_0_yes,44.66487115784462,-107.13248830247936,20.0
