zip,lat,lng,city,state_id,state_name,zcta,parent_zcta,population,density,county_fips,county_name,county_weights,county_names_all,county_fips_all,imprecise,military,timezone,Coord,distance_miles,market_total_population,market_id,market_center_lat,market_center_lng,radius_miles
04224,44.58001,-70.40058,Dixfield,ME,Maine,True,,2583.0,13.4,23017,Oxford,"{""23017"": 55.17, ""23007"": 44.83}",Oxford|Franklin,23017|23007,False,False,America/New_York,"(44.58001, -70.40058)",23.827310694867457,62855.0,2937_0_no,44.82270888021374,-70.05589344285103,20.0
04227,44.56866,-70.29471,East Dixfield,ME,Maine,True,,83.0,220.3,23017,Oxford,"{""23017"": 100}",Oxford,23017,False,False,America/New_York,"(44.56866, -70.29471)",21.11142797196366,62855.0,2937_0_no,44.82270888021374,-70.05589344285103,20.0
04234,44.61624,-70.19359,East Wilton,ME,Maine,True,,61.0,4310.0,23007,Franklin,"{""23007"": 100}",Franklin,23007,False,False,America/New_York,"(44.61624, -70.19359)",15.786350370579656,62855.0,2937_0_no,44.82270888021374,-70.05589344285103,20.0
04285,44.70625,-70.4523,Weld,ME,Maine,True,,428.0,2.8,23007,Franklin,"{""23007"": 100}",Franklin,23007,False,False,America/New_York,"(44.70625, -70.4523)",21.04543032127953,62855.0,2937_0_no,44.82270888021374,-70.05589344285103,20.0
04294,44.62346,-70.27075,Wilton,ME,Maine,True,,3943.0,28.5,23007,Franklin,"{""23007"": 100}",Franklin,23007,False,False,America/New_York,"(44.62346, -70.27075)",17.342969557762093,62855.0,2937_0_no,44.82270888021374,-70.05589344285103,20.0
04360,44.54741,-70.00299,Vienna,ME,Maine,True,,509.0,8.1,23011,Kennebec,"{""23011"": 100}",Kennebec,23011,False,False,America/New_York,"(44.54741, -70.00299)",19.19805545791231,62855.0,2937_0_no,44.82270888021374,-70.05589344285103,20.0
04911,44.78039,-69.96112,Anson,ME,Maine,True,,1873.0,11.4,23025,Somerset,"{""23025"": 100}",Somerset,23025,False,False,America/New_York,"(44.78039, -69.96112)",5.489774983489065,62855.0,2937_0_no,44.82270888021374,-70.05589344285103,20.0
04912,44.97286,-69.68045,Athens,ME,Maine,True,,813.0,5.6,23025,Somerset,"{""23025"": 100}",Somerset,23025,False,False,America/New_York,"(44.97286, -69.68045)",21.101839279978957,62855.0,2937_0_no,44.82270888021374,-70.05589344285103,20.0
04918,44.55027,-69.86651,Belgrade Lakes,ME,Maine,True,,308.0,197.3,23011,Kennebec,"{""23011"": 100}",Kennebec,23011,False,False,America/New_York,"(44.55027, -69.86651)",20.99713568476178,62855.0,2937_0_no,44.82270888021374,-70.05589344285103,20.0
04937,44.63546,-69.67635,Fairfield,ME,Maine,True,,6473.0,48.1,23025,Somerset,"{""23025"": 100}",Somerset,23025,False,False,America/New_York,"(44.63546, -69.67635)",22.682170370789933,62855.0,2937_0_no,44.82270888021374,-70.05589344285103,20.0
04938,44.65881,-70.10329,Farmington,ME,Maine,True,,9972.0,31.4,23007,Franklin,"{""23007"": 100}",Franklin,23007,False,False,America/New_York,"(44.65881, -70.10329)",11.560760076081053,62855.0,2937_0_no,44.82270888021374,-70.05589344285103,20.0
04947,45.03319,-70.2391,Kingfield,ME,Maine,True,,1601.0,4.9,23007,Franklin,"{""23007"": 100}",Franklin,23007,False,False,America/New_York,"(45.03319, -70.2391)",17.082535495439256,62855.0,2937_0_no,44.82270888021374,-70.05589344285103,20.0
04950,44.83241,-69.80556,Madison,ME,Maine,True,,4675.0,34.8,23025,Somerset,"{""23025"": 100}",Somerset,23025,False,False,America/New_York,"(44.83241, -69.80556)",12.285444709129973,62855.0,2937_0_no,44.82270888021374,-70.05589344285103,20.0
04955,44.63998,-70.00799,New Sharon,ME,Maine,True,,1403.0,12.0,23007,Franklin,"{""23007"": 100}",Franklin,23007,False,False,America/New_York,"(44.63998, -70.00799)",12.842451865889034,62855.0,2937_0_no,44.82270888021374,-70.05589344285103,20.0
04956,44.80533,-70.11215,New Vineyard,ME,Maine,True,,791.0,8.5,23007,Franklin,"{""23007"": 100}",Franklin,23007,False,False,America/New_York,"(44.80533, -70.11215)",3.0075074504628456,62855.0,2937_0_no,44.82270888021374,-70.05589344285103,20.0
04957,44.70419,-69.8471,Norridgewock,ME,Maine,True,,4153.0,20.9,23025,Somerset,"{""23025"": 100}",Somerset,23025,False,False,America/New_York,"(44.70419, -69.8471)",13.113926422199476,62855.0,2937_0_no,44.82270888021374,-70.05589344285103,20.0
04958,44.90561,-69.92494,North Anson,ME,Maine,True,,1896.0,13.3,23025,Somerset,"{""23025"": 100}",Somerset,23025,False,False,America/New_York,"(44.90561, -69.92494)",8.598632901902754,62855.0,2937_0_no,44.82270888021374,-70.05589344285103,20.0
04963,44.56621,-69.81463,Oakland,ME,Maine,True,,7311.0,55.3,23011,Kennebec,"{""23011"": 100}",Kennebec,23011,False,False,America/New_York,"(44.56621, -69.81463)",21.31908592408618,62855.0,2937_0_no,44.82270888021374,-70.05589344285103,20.0
04976,44.79873,-69.66951,Skowhegan,ME,Maine,True,,9842.0,38.2,23025,Somerset,"{""23025"": 100}",Somerset,23025,False,False,America/New_York,"(44.79873, -69.66951)",19.011882162281044,62855.0,2937_0_no,44.82270888021374,-70.05589344285103,20.0
04978,44.63466,-69.80789,Smithfield,ME,Maine,True,,862.0,16.7,23025,Somerset,"{""23025"": 100}",Somerset,23025,False,False,America/New_York,"(44.63466, -69.80789)",17.804979665375637,62855.0,2937_0_no,44.82270888021374,-70.05589344285103,20.0
04979,44.94105,-69.79731,Solon,ME,Maine,True,,849.0,8.3,23025,Somerset,"{""23025"": 100}",Somerset,23025,False,False,America/New_York,"(44.94105, -69.79731)",15.070459786815675,62855.0,2937_0_no,44.82270888021374,-70.05589344285103,20.0
04983,44.92171,-70.30599,Strong,ME,Maine,True,,1646.0,4.1,23007,Franklin,"{""23007"": 100}",Franklin,23007,False,False,America/New_York,"(44.92171, -70.30599)",14.026953603484719,62855.0,2937_0_no,44.82270888021374,-70.05589344285103,20.0
04984,44.69648,-70.28054,Temple,ME,Maine,True,,780.0,8.5,23007,Franklin,"{""23007"": 100}",Franklin,23007,False,False,America/New_York,"(44.69648, -70.28054)",14.054772927435584,62855.0,2937_0_no,44.82270888021374,-70.05589344285103,20.0
