zip,lat,lng,city,state_id,state_name,zcta,parent_zcta,population,density,county_fips,county_name,county_weights,county_names_all,county_fips_all,imprecise,military,timezone,Coord,distance_miles,market_total_population,market_id,market_center_lat,market_center_lng,radius_miles
12914,44.93289,-74.6018,Bombay,NY,New York,True,,891.0,11.4,36033,Franklin,"{""36033"": 83.54, ""36089"": 16.46}",Franklin|St. Lawrence,36033|36089,False,False,America/New_York,"(44.93289, -74.6018)",17.762371321357197,71132.0,2943_0_no,44.84011683033175,-74.94019426587793,20.0
12930,44.72349,-74.5437,Dickinson Center,NY,New York,True,,815.0,8.8,36033,Franklin,"{""36033"": 95.8, ""36089"": 4.2}",Franklin|St. Lawrence,36033|36089,False,False,America/New_York,"(44.72349, -74.5437)",21.048455256249287,71132.0,2943_0_no,44.84011683033175,-74.94019426587793,20.0
12957,44.85353,-74.57706,Moira,NY,New York,True,,1559.0,17.0,36033,Franklin,"{""36033"": 100}",Franklin,36033,False,False,America/New_York,"(44.85353, -74.57706)",17.812919129368044,71132.0,2943_0_no,44.84011683033175,-74.94019426587793,20.0
12965,44.70587,-74.684,Nicholville,NY,New York,True,,537.0,22.3,36089,St. Lawrence,"{""36089"": 100}",St. Lawrence,36089,False,False,America/New_York,"(44.70587, -74.684)",15.618768891200265,71132.0,2943_0_no,44.84011683033175,-74.94019426587793,20.0
12967,44.76864,-74.65897,North Lawrence,NY,New York,True,,1035.0,11.9,36089,St. Lawrence,"{""36089"": 97.65, ""36033"": 2.35}",St. Lawrence|Franklin,36089|36033,False,False,America/New_York,"(44.76864, -74.65897)",14.644291273146298,71132.0,2943_0_no,44.84011683033175,-74.94019426587793,20.0
13613,44.85884,-74.73879,Brasher Falls,NY,New York,True,,2698.0,12.8,36089,St. Lawrence,"{""36089"": 100}",St. Lawrence,36089,False,False,America/New_York,"(44.85884, -74.73879)",9.950159872136675,71132.0,2943_0_no,44.84011683033175,-74.94019426587793,20.0
13617,44.5789,-75.14668,Canton,NY,New York,True,,11556.0,33.7,36089,St. Lawrence,"{""36089"": 100}",St. Lawrence,36089,False,False,America/New_York,"(44.5789, -75.14668)",20.70134044693521,71132.0,2943_0_no,44.84011683033175,-74.94019426587793,20.0
13621,44.8452,-75.06596,Chase Mills,NY,New York,True,,494.0,6.7,36089,St. Lawrence,"{""36089"": 100}",St. Lawrence,36089,False,False,America/New_York,"(44.8452, -75.06596)",6.171315846932206,71132.0,2943_0_no,44.84011683033175,-74.94019426587793,20.0
13655,44.97865,-74.64781,Hogansburg,NY,New York,True,,3418.0,67.6,36033,Franklin,"{""36033"": 100}",Franklin,36033,False,False,America/New_York,"(44.97865, -74.64781)",17.213941934194487,71132.0,2943_0_no,44.84011683033175,-74.94019426587793,20.0
13658,44.73979,-75.27756,Lisbon,NY,New York,True,,2414.0,11.7,36089,St. Lawrence,"{""36089"": 100}",St. Lawrence,36089,False,False,America/New_York,"(44.73979, -75.27756)",17.936416941520857,71132.0,2943_0_no,44.84011683033175,-74.94019426587793,20.0
13660,44.77727,-75.15764,Madrid,NY,New York,True,,1641.0,10.8,36089,St. Lawrence,"{""36089"": 100}",St. Lawrence,36089,False,False,America/New_York,"(44.77727, -75.15764)",11.509581725433463,71132.0,2943_0_no,44.84011683033175,-74.94019426587793,20.0
13662,44.9378,-74.89383,Massena,NY,New York,True,,16179.0,70.0,36089,St. Lawrence,"{""36089"": 100}",St. Lawrence,36089,False,False,America/New_York,"(44.9378, -74.89383)",7.120642268274463,71132.0,2943_0_no,44.84011683033175,-74.94019426587793,20.0
13667,44.83768,-74.96149,Norfolk,NY,New York,True,,2781.0,22.9,36089,St. Lawrence,"{""36089"": 100}",St. Lawrence,36089,False,False,America/New_York,"(44.83768, -74.96149)",1.0568525238070705,71132.0,2943_0_no,44.84011683033175,-74.94019426587793,20.0
13668,44.75432,-74.98764,Norwood,NY,New York,True,,3196.0,33.6,36089,St. Lawrence,"{""36089"": 100}",St. Lawrence,36089,False,False,America/New_York,"(44.75432, -74.98764)",6.36807887665944,71132.0,2943_0_no,44.84011683033175,-74.94019426587793,20.0
13676,44.65178,-74.91377,Potsdam,NY,New York,True,,16754.0,40.5,36089,St. Lawrence,"{""36089"": 100}",St. Lawrence,36089,False,False,America/New_York,"(44.65178, -74.91377)",13.077283011640175,71132.0,2943_0_no,44.84011683033175,-74.94019426587793,20.0
13678,44.83165,-74.96775,Raymondville,NY,New York,True,,330.0,57.9,36089,St. Lawrence,"{""36089"": 100}",St. Lawrence,36089,False,False,America/New_York,"(44.83165, -74.96775)",1.4714163638202844,71132.0,2943_0_no,44.84011683033175,-74.94019426587793,20.0
13680,44.59416,-75.32814,Rensselaer Falls,NY,New York,True,,1643.0,16.5,36089,St. Lawrence,"{""36089"": 100}",St. Lawrence,36089,False,False,America/New_York,"(44.59416, -75.32814)",25.526077219035383,71132.0,2943_0_no,44.84011683033175,-74.94019426587793,20.0
13694,44.8575,-75.1645,Waddington,NY,New York,True,,1328.0,28.3,36089,St. Lawrence,"{""36089"": 100}",St. Lawrence,36089,False,False,America/New_York,"(44.8575, -75.1645)",11.053101651321441,71132.0,2943_0_no,44.84011683033175,-74.94019426587793,20.0
13696,44.70425,-74.88971,West Stockholm,NY,New York,True,,87.0,11.9,36089,St. Lawrence,"{""36089"": 100}",St. Lawrence,36089,False,False,America/New_York,"(44.70425, -74.88971)",9.70861068930791,71132.0,2943_0_no,44.84011683033175,-74.94019426587793,20.0
13697,44.74841,-74.80656,Winthrop,NY,New York,True,,1776.0,10.6,36089,St. Lawrence,"{""36089"": 100}",St. Lawrence,36089,False,False,America/New_York,"(44.74841, -74.80656)",9.114916241946359,71132.0,2943_0_no,44.84011683033175,-74.94019426587793,20.0
