zip,lat,lng,city,state_id,state_name,zcta,parent_zcta,population,density,county_fips,county_name,county_weights,county_names_all,county_fips_all,imprecise,military,timezone,Coord,distance_miles,market_total_population,market_id,market_center_lat,market_center_lng,radius_miles
59089,45.09259,-107.34476,Wyola,MT,Montana,True,,495.0,0.8,30003,Big Horn,"{""30003"": 100}",Big Horn,30003,False,False,America/Denver,"(45.09259, -107.34476)",13.39098877095955,3407.0,2983_0_no,44.95643912111827,-107.53990894635216,20.0
82836,44.83701,-107.57589,Dayton,WY,Wyoming,True,,1073.0,1.1,56033,Sheridan,"{""56033"": 100}",Sheridan,56033,False,False,America/Denver,"(44.83701, -107.57589)",8.43759534171186,3407.0,2983_0_no,44.95643912111827,-107.53990894635216,20.0
82838,44.93793,-107.4839,Parkman,WY,Wyoming,True,,526.0,1.4,56033,Sheridan,"{""56033"": 100}",Sheridan,56033,False,False,America/Denver,"(44.93793, -107.4839)",3.0227720773150604,3407.0,2983_0_no,44.95643912111827,-107.53990894635216,20.0
82839,44.92887,-107.15762,Ranchester,WY,Wyoming,True,,1293.0,4.5,56033,Sheridan,"{""56033"": 100}",Sheridan,56033,False,False,America/Denver,"(44.92887, -107.15762)",18.79272484995356,3407.0,2983_0_no,44.95643912111827,-107.53990894635216,20.0
82844,44.80405,-107.19965,Wolf,WY,Wyoming,True,,20.0,0.3,56033,Sheridan,"{""56033"": 100}",Sheridan,56033,False,False,America/Denver,"(44.80405, -107.19965)",19.707047339346413,3407.0,2983_0_no,44.95643912111827,-107.53990894635216,20.0
