zip,lat,lng,city,state_id,state_name,zcta,parent_zcta,population,density,county_fips,county_name,county_weights,county_names_all,county_fips_all,imprecise,military,timezone,Coord,distance_miles,market_total_population,market_id,market_center_lat,market_center_lng,radius_miles
59001,45.52952,-109.54022,Absarokee,MT,Montana,True,,1574.0,4.3,30095,Stillwater,"{""30095"": 94.29, ""30009"": 5.71}",Stillwater|Carbon,30095|30009,False,False,America/Denver,"(45.52952, -109.54022)",20.18449592069342,7408.0,2991_0_yes,45.25166836015754,-109.41174446880436,20.0
59007,45.15555,-109.15805,Bearcreek,MT,Montana,True,,157.0,1.9,30009,Carbon,"{""30009"": 100}",Carbon,30009,False,False,America/Denver,"(45.15555, -109.15805)",14.022800063159568,7408.0,2991_0_yes,45.25166836015754,-109.41174446880436,20.0
59008,45.07982,-109.07496,Belfry,MT,Montana,True,,519.0,1.6,30009,Carbon,"{""30009"": 100}",Carbon,30009,False,False,America/Denver,"(45.07982, -109.07496)",20.25219779351423,7408.0,2991_0_yes,45.25166836015754,-109.41174446880436,20.0
59013,45.46131,-109.08054,Boyd,MT,Montana,True,,132.0,11.8,30009,Carbon,"{""30009"": 100}",Carbon,30009,False,False,America/Denver,"(45.46131, -109.08054)",21.6423475993281,7408.0,2991_0_yes,45.25166836015754,-109.41174446880436,20.0
59028,45.32093,-109.7434,Fishtail,MT,Montana,True,,525.0,0.6,30095,Stillwater,"{""30095"": 100}",Stillwater,30095,False,False,America/Denver,"(45.32093, -109.7434)",16.817562996082536,7408.0,2991_0_yes,45.25166836015754,-109.41174446880436,20.0
59068,45.15929,-109.45626,Red Lodge,MT,Montana,True,,3178.0,2.4,30009,Carbon,"{""30009"": 100}",Carbon,30009,False,False,America/Denver,"(45.15929, -109.45626)",6.740582762009697,7408.0,2991_0_yes,45.25166836015754,-109.41174446880436,20.0
59070,45.36289,-109.17961,Roberts,MT,Montana,True,,1163.0,2.5,30009,Carbon,"{""30009"": 100}",Carbon,30009,False,False,America/Denver,"(45.36289, -109.17961)",13.64912772892478,7408.0,2991_0_yes,45.25166836015754,-109.41174446880436,20.0
59071,45.26582,-109.57003,Roscoe,MT,Montana,True,,160.0,0.7,30009,Carbon,"{""30009"": 100}",Carbon,30009,False,False,America/Denver,"(45.26582, -109.57003)",7.760109845635752,7408.0,2991_0_yes,45.25166836015754,-109.41174446880436,20.0
