zip,lat,lng,city,state_id,state_name,zcta,parent_zcta,population,density,county_fips,county_name,county_weights,county_names_all,county_fips_all,imprecise,military,timezone,Coord,distance_miles,market_total_population,market_id,market_center_lat,market_center_lng,radius_miles
59018,45.85791,-110.62326,Clyde Park,MT,Montana,True,,475.0,1.0,30067,Park,"{""30067"": 100}",Park,30067,False,False,America/Denver,"(45.85791, -110.62326)",13.7854391699073,111590.0,3065_0_yes,45.83573644928142,-110.90791256345034,20.0
59047,45.56852,-110.55174,Livingston,MT,Montana,True,,12711.0,6.3,30067,Park,"{""30067"": 100}",Park,30067,False,False,America/Denver,"(45.56852, -110.55174)",25.224216039084492,111590.0,3065_0_yes,45.83573644928142,-110.90791256345034,20.0
59086,46.05608,-110.65293,Wilsall,MT,Montana,True,,832.0,0.5,30067,Park,"{""30067"": 66.28, ""30031"": 31.45, ""30059"": 2.27}",Park|Gallatin|Meagher,30067|30031|30059,False,False,America/Denver,"(46.05608, -110.65293)",19.540856903491232,111590.0,3065_0_yes,45.83573644928142,-110.90791256345034,20.0
59714,45.97538,-111.13112,Belgrade,MT,Montana,True,,21530.0,19.9,30031,Gallatin,"{""30031"": 100}",Gallatin,30031,False,False,America/Denver,"(45.97538, -111.13112)",14.431056330255723,111590.0,3065_0_yes,45.83573644928142,-110.90791256345034,20.0
59715,45.6928,-110.9065,Bozeman,MT,Montana,True,,36760.0,48.1,30031,Gallatin,"{""30031"": 91.82, ""30067"": 8.18}",Gallatin|Park,30031|30067,False,False,America/Denver,"(45.6928, -110.9065)",9.876202672236337,111590.0,3065_0_yes,45.83573644928142,-110.90791256345034,20.0
59718,45.63999,-111.16978,Bozeman,MT,Montana,True,,39282.0,92.2,30031,Gallatin,"{""30031"": 100}",Gallatin,30031,False,False,America/Denver,"(45.63999, -111.16978)",18.503724493575856,111590.0,3065_0_yes,45.83573644928142,-110.90791256345034,20.0
