zip,lat,lng,city,state_id,state_name,zcta,parent_zcta,population,density,county_fips,county_name,county_weights,county_names_all,county_fips_all,imprecise,military,timezone,Coord,distance_miles,market_total_population,market_id,market_center_lat,market_center_lng,radius_miles
49820,46.18965,-85.67951,Curtis,MI,Michigan,True,,270.0,4.1,26097,Mackinac,"{""26097"": 100}",Mackinac,26097,False,False,America/Detroit,"(46.18965, -85.67951)",9.184236019371195,9973.0,3106_0_yes,46.32203192163445,-85.66215146884826,20.0
49827,46.1751,-85.53607,Engadine,MI,Michigan,True,,1171.0,4.0,26097,Mackinac,"{""26097"": 100}",Mackinac,26097,False,False,America/Detroit,"(46.1751, -85.53607)",11.804856305719145,9973.0,3106_0_yes,46.32203192163445,-85.66215146884826,20.0
49836,46.1971,-85.88725,Germfask,MI,Michigan,True,,988.0,3.9,26153,Schoolcraft,"{""26153"": 72.63, ""26097"": 27.26, ""26095"": 0.11}",Schoolcraft|Mackinac|Luce,26153|26097|26095,False,False,America/Detroit,"(46.1971, -85.88725)",13.789126430302183,9973.0,3106_0_yes,46.32203192163445,-85.66215146884826,20.0
49838,46.06473,-85.75035,Gould City,MI,Michigan,True,,421.0,1.2,26097,Mackinac,"{""26097"": 100}",Mackinac,26097,False,False,America/Detroit,"(46.06473, -85.75035)",18.27148850015747,9973.0,3106_0_yes,46.32203192163445,-85.66215146884826,20.0
49840,46.13742,-86.06009,Gulliver,MI,Michigan,True,,578.0,0.9,26153,Schoolcraft,"{""26153"": 100}",Schoolcraft,26153,False,False,America/Detroit,"(46.13742, -86.06009)",22.901207928818913,9973.0,3106_0_yes,46.32203192163445,-85.66215146884826,20.0
49853,46.36112,-85.74494,McMillan,MI,Michigan,True,,1262.0,2.9,26095,Luce,"{""26095"": 98.74, ""26097"": 1.26}",Luce|Mackinac,26095|26097,False,False,America/Detroit,"(46.36112, -85.74494)",4.78415010249892,9973.0,3106_0_yes,46.32203192163445,-85.66215146884826,20.0
49868,46.49317,-85.50586,Newberry,MI,Michigan,True,,5101.0,2.8,26095,Luce,"{""26095"": 100}",Luce,26095,False,False,America/Detroit,"(46.49317, -85.50586)",13.97359500986444,9973.0,3106_0_yes,46.32203192163445,-85.66215146884826,20.0
49883,46.42885,-86.0318,Seney,MI,Michigan,True,,182.0,0.2,26153,Schoolcraft,"{""26153"": 81.17, ""26003"": 18.83}",Schoolcraft|Alger,26153|26003,False,False,America/Detroit,"(46.42885, -86.0318)",19.104174654007924,9973.0,3106_0_yes,46.32203192163445,-85.66215146884826,20.0
