zip,lat,lng,city,state_id,state_name,zcta,parent_zcta,population,density,county_fips,county_name,county_weights,county_names_all,county_fips_all,imprecise,military,timezone,Coord,distance_miles,market_total_population,market_id,market_center_lat,market_center_lng,radius_miles
59002,45.99832,-108.6649,Acton,MT,Montana,True,,197.0,1.0,30111,Yellowstone,"{""30111"": 100}",Yellowstone,30111,False,False,America/Denver,"(45.99832, -108.6649)",12.14245276654905,34323.0,3128_0_no,46.11838827847633,-108.84983047783044,20.0
59015,46.08464,-108.83464,Broadview,MT,Montana,True,,439.0,0.7,30111,Yellowstone,"{""30111"": 51.72, ""30095"": 28.87, ""30065"": 19.41}",Yellowstone|Stillwater|Musselshell,30111|30095|30065,False,False,America/Denver,"(46.08464, -108.83464)",2.44271034424328,34323.0,3128_0_no,46.11838827847633,-108.84983047783044,20.0
59046,46.39147,-108.98604,Lavina,MT,Montana,True,,379.0,0.2,30037,Golden Valley,"{""30037"": 91.74, ""30065"": 8.26}",Golden Valley|Musselshell,30037|30065,False,False,America/Denver,"(46.39147, -108.98604)",19.958772230289807,34323.0,3128_0_no,46.11838827847633,-108.84983047783044,20.0
59057,45.85358,-108.95377,Molt,MT,Montana,True,,878.0,1.2,30095,Stillwater,"{""30095"": 68.46, ""30111"": 31.54}",Stillwater|Yellowstone,30095|30111,False,False,America/Denver,"(45.85358, -108.95377)",18.96475539579731,34323.0,3128_0_no,46.11838827847633,-108.84983047783044,20.0
59067,45.96827,-109.23433,Rapelje,MT,Montana,True,,262.0,0.3,30095,Stillwater,"{""30095"": 100}",Stillwater,30095,False,False,America/Denver,"(45.96827, -109.23433)",21.156990278190985,34323.0,3128_0_no,46.11838827847633,-108.84983047783044,20.0
59105,45.87708,-108.50145,Billings,MT,Montana,True,,32168.0,129.6,30111,Yellowstone,"{""30111"": 100}",Yellowstone,30111,False,False,America/Denver,"(45.87708, -108.50145)",23.613442380058828,34323.0,3128_0_no,46.11838827847633,-108.84983047783044,20.0
