zip,lat,lng,city,state_id,state_name,zcta,parent_zcta,population,density,county_fips,county_name,county_weights,county_names_all,county_fips_all,imprecise,military,timezone,Coord,distance_miles,market_total_population,market_id,market_center_lat,market_center_lng,radius_miles
59733,46.54922,-112.94987,Gold Creek,MT,Montana,True,,234.0,0.6,30077,Powell,"{""30077"": 100}",Powell,30077,False,False,America/Denver,"(46.54922, -112.94987)",17.61129682164982,5400.0,3139_0_yes,46.42303257348806,-113.27151764221372,20.0
59825,46.66009,-113.66421,Clinton,MT,Montana,True,,2341.0,2.2,30039,Granite,"{""30039"": 61.49, ""30063"": 38.51}",Granite|Missoula,30039|30063,False,False,America/Denver,"(46.66009, -113.66421)",24.830628178268164,5400.0,3139_0_yes,46.42303257348806,-113.27151764221372,20.0
59832,46.67864,-113.22904,Drummond,MT,Montana,True,,625.0,1.0,30039,Granite,"{""30039"": 100}",Granite,30039,False,False,America/Denver,"(46.67864, -113.22904)",17.77575220749705,5400.0,3139_0_yes,46.42303257348806,-113.27151764221372,20.0
59837,46.53898,-113.27688,Hall,MT,Montana,True,,560.0,1.1,30039,Granite,"{""30039"": 100}",Granite,30039,False,False,America/Denver,"(46.53898, -113.27688)",8.015265505352447,5400.0,3139_0_yes,46.42303257348806,-113.27151764221372,20.0
59858,46.29584,-113.48371,Philipsburg,MT,Montana,True,,1640.0,0.7,30039,Granite,"{""30039"": 100}",Granite,30039,False,False,America/Denver,"(46.29584, -113.48371)",13.401771267280981,5400.0,3139_0_yes,46.42303257348806,-113.27151764221372,20.0
