zip,lat,lng,city,state_id,state_name,zcta,parent_zcta,population,density,county_fips,county_name,county_weights,county_names_all,county_fips_all,imprecise,military,timezone,Coord,distance_miles,market_total_population,market_id,market_center_lat,market_center_lng,radius_miles
56433,46.9598,-94.68519,Akeley,MN,Minnesota,True,,1650.0,5.8,27057,Hubbard,"{""27057"": 69.63, ""27021"": 30.37}",Hubbard|Cass,27057|27021,False,False,America/Chicago,"(46.9598, -94.68519)",7.272199404692598,18101.0,3187_0_yes,46.93249962513895,-94.5362935171592,20.0
56435,46.80872,-94.53089,Backus,MN,Minnesota,True,,2760.0,6.7,27021,Cass,"{""27021"": 99.08, ""27035"": 0.92}",Cass|Crow Wing,27021|27035,False,False,America/Chicago,"(46.80872, -94.53089)",8.556165340418048,18101.0,3187_0_yes,46.93249962513895,-94.5362935171592,20.0
56452,46.94808,-94.46123,Hackensack,MN,Minnesota,True,,1968.0,8.0,27021,Cass,"{""27021"": 100}",Cass,27021,False,False,America/Chicago,"(46.94808, -94.46123)",3.7010792446362104,18101.0,3187_0_yes,46.93249962513895,-94.5362935171592,20.0
56467,46.97714,-94.83753,Nevis,MN,Minnesota,True,,2685.0,8.3,27057,Hubbard,"{""27057"": 100}",Hubbard,27057,False,False,America/Chicago,"(46.97714, -94.83753)",14.537692945208352,18101.0,3187_0_yes,46.93249962513895,-94.5362935171592,20.0
56474,46.72238,-94.39597,Pine River,MN,Minnesota,True,,4270.0,7.2,27021,Cass,"{""27021"": 70.46, ""27035"": 29.54}",Cass|Crow Wing,27021|27035,False,False,America/Chicago,"(46.72238, -94.39597)",15.961618848528538,18101.0,3187_0_yes,46.93249962513895,-94.5362935171592,20.0
56484,47.09744,-94.47416,Walker,MN,Minnesota,True,,2958.0,12.4,27021,Cass,"{""27021"": 99.7, ""27057"": 0.3}",Cass|Hubbard,27021|27057,False,False,America/Chicago,"(47.09744, -94.47416)",11.766175620874895,18101.0,3187_0_yes,46.93249962513895,-94.5362935171592,20.0
56641,47.19848,-94.25804,Federal Dam,MN,Minnesota,True,,358.0,4.4,27021,Cass,"{""27021"": 100}",Cass,27021,False,False,America/Chicago,"(47.19848, -94.25804)",22.566065127281774,18101.0,3187_0_yes,46.93249962513895,-94.5362935171592,20.0
56655,46.98292,-94.23014,Longville,MN,Minnesota,True,,1452.0,5.9,27021,Cass,"{""27021"": 100}",Cass,27021,False,False,America/Chicago,"(46.98292, -94.23014)",14.852194978816648,18101.0,3187_0_yes,46.93249962513895,-94.5362935171592,20.0
