zip,lat,lng,city,state_id,state_name,zcta,parent_zcta,population,density,county_fips,county_name,county_weights,county_names_all,county_fips_all,imprecise,military,timezone,Coord,distance_miles,market_total_population,market_id,market_center_lat,market_center_lng,radius_miles
56458,47.19924,-94.99341,Lake George,MN,Minnesota,True,,422.0,7.6,27057,Hubbard,"{""27057"": 100}",Hubbard,27057,False,False,America/Chicago,"(47.19924, -94.99341)",25.799140206878064,26055.0,3188_0_yes,46.93562052836065,-95.38164536470612,20.0
56464,46.76538,-95.10382,Menahga,MN,Minnesota,True,,4727.0,7.1,27159,Wadena,"{""27159"": 46.94, ""27005"": 33.56, ""27057"": 14.42, ""27111"": 4.23, ""27021"": 0.86}",Wadena|Becker|Hubbard|Otter Tail|Cass,27159|27005|27057|27111|27021,False,False,America/Chicago,"(46.76538, -95.10382)",17.626806584198093,26055.0,3188_0_yes,46.93562052836065,-95.38164536470612,20.0
56470,47.02368,-95.09433,Park Rapids,MN,Minnesota,True,,10654.0,10.8,27057,Hubbard,"{""27057"": 67.13, ""27005"": 22.15, ""27029"": 10.12, ""27159"": 0.6}",Hubbard|Becker|Clearwater|Wadena,27057|27005|27029|27159,False,False,America/Chicago,"(47.02368, -95.09433)",14.847772122396664,26055.0,3188_0_yes,46.93562052836065,-95.38164536470612,20.0
56544,46.75894,-95.59693,Frazee,MN,Minnesota,True,,5281.0,10.3,27005,Becker,"{""27005"": 76.79, ""27111"": 23.21}",Becker|Otter Tail,27005|27111,False,False,America/Chicago,"(46.75894, -95.59693)",15.890945253410736,26055.0,3188_0_yes,46.93562052836065,-95.38164536470612,20.0
56570,46.91051,-95.35552,Osage,MN,Minnesota,True,,1227.0,4.8,27005,Becker,"{""27005"": 100}",Becker,27005,False,False,America/Chicago,"(46.91051, -95.35552)",2.128385374950189,26055.0,3188_0_yes,46.93562052836065,-95.38164536470612,20.0
56575,47.03827,-95.43146,Ponsford,MN,Minnesota,True,,794.0,2.2,27005,Becker,"{""27005"": 100}",Becker,27005,False,False,America/Chicago,"(47.03827, -95.43146)",7.470936703796025,26055.0,3188_0_yes,46.93562052836065,-95.38164536470612,20.0
56578,46.9264,-95.65563,Rochert,MN,Minnesota,True,,716.0,5.0,27005,Becker,"{""27005"": 100}",Becker,27005,False,False,America/Chicago,"(46.9264, -95.65563)",12.942937246848828,26055.0,3188_0_yes,46.93562052836065,-95.38164536470612,20.0
56589,47.17959,-95.71984,Waubun,MN,Minnesota,True,,2234.0,3.5,27087,Mahnomen,"{""27087"": 59.89, ""27005"": 26.2, ""27029"": 13.91}",Mahnomen|Becker|Clearwater,27087|27005|27029,False,False,America/Chicago,"(47.17959, -95.71984)",23.185402540760983,26055.0,3188_0_yes,46.93562052836065,-95.38164536470612,20.0
