zip,lat,lng,city,state_id,state_name,zcta,parent_zcta,population,density,county_fips,county_name,county_weights,county_names_all,county_fips_all,imprecise,military,timezone,Coord,distance_miles,market_total_population,market_id,market_center_lat,market_center_lng,radius_miles
58520,46.6758,-101.5409,Almont,ND,North Dakota,True,,223.0,0.4,38059,Morton,"{""38059"": 68.85, ""38037"": 31.15}",Morton|Grant,38059|38037,False,False,America/North_Dakota/New_Salem,"(46.6758, -101.5409)",19.39069063923175,5725.0,3190_0_no,46.67157337835892,-101.94986596439334,20.0
58533,46.39433,-101.79598,Elgin,ND,North Dakota,True,,994.0,1.1,38037,Grant,"{""38037"": 100}",Grant,38037,False,False,America/Denver,"(46.39433, -101.79598)",20.504682056259046,5725.0,3190_0_no,46.67157337835892,-101.94986596439334,20.0
58631,46.7969,-101.82156,Glen Ullin,ND,North Dakota,True,,1027.0,1.1,38059,Morton,"{""38059"": 61.44, ""38037"": 29.75, ""38057"": 8.81}",Morton|Grant|Mercer,38059|38037|38057,False,False,America/North_Dakota/New_Salem,"(46.7969, -101.82156)",10.578284703085835,5725.0,3190_0_no,46.67157337835892,-101.94986596439334,20.0
58638,46.92201,-102.04867,Hebron,ND,North Dakota,True,,996.0,1.2,38059,Morton,"{""38059"": 42.58, ""38057"": 30.27, ""38089"": 16.44, ""38037"": 6.63, ""38025"": 4.08}",Morton|Mercer|Stark|Grant|Dunn,38059|38057|38089|38037|38025,False,False,America/North_Dakota/New_Salem,"(46.92201, -102.04867)",17.923536738041054,5725.0,3190_0_no,46.67157337835892,-101.94986596439334,20.0
58646,46.39826,-102.28782,Mott,ND,North Dakota,True,,1114.0,0.7,38041,Hettinger,"{""38041"": 89.66, ""38001"": 8.94, ""38089"": 1.4}",Hettinger|Adams|Stark,38041|38001|38089,False,False,America/Denver,"(46.39826, -102.28782)",24.79172720132478,5725.0,3190_0_no,46.67157337835892,-101.94986596439334,20.0
58652,46.88854,-102.27037,Richardton,ND,North Dakota,True,,1371.0,1.3,38089,Stark,"{""38089"": 72.44, ""38025"": 27.56}",Stark|Dunn,38089|38025,False,False,America/Denver,"(46.88854, -102.27037)",21.323609240159765,5725.0,3190_0_no,46.67157337835892,-101.94986596439334,20.0
