zip,lat,lng,city,state_id,state_name,zcta,parent_zcta,population,density,county_fips,county_name,county_weights,county_names_all,county_fips_all,imprecise,military,timezone,Coord,distance_miles,market_total_population,market_id,market_center_lat,market_center_lng,radius_miles
98841,48.37602,-119.29817,Omak,WA,Washington,True,,9335.0,12.2,53047,Okanogan,"{""53047"": 100}",Okanogan,53047,False,False,America/Los_Angeles,"(48.37602, -119.29817)",21.341857821299886,15670.0,3355_0_yes,48.18022032130999,-118.93920317420972,20.0
99116,48.01429,-118.93063,Coulee Dam,WA,Washington,True,,1672.0,13.7,53047,Okanogan,"{""53047"": 96.94, ""53025"": 2.75, ""53017"": 0.31}",Okanogan|Grant|Douglas,53047|53025|53017,False,False,America/Los_Angeles,"(48.01429, -118.93063)",11.471516837165183,15670.0,3355_0_yes,48.18022032130999,-118.93920317420972,20.0
99123,47.89738,-119.04017,Electric City,WA,Washington,True,,992.0,19.1,53025,Grant,"{""53025"": 100}",Grant,53025,False,False,America/Los_Angeles,"(47.89738, -119.04017)",20.091350560949206,15670.0,3355_0_yes,48.18022032130999,-118.93920317420972,20.0
99124,48.00284,-118.95243,Elmer City,WA,Washington,True,,277.0,306.8,53047,Okanogan,"{""53047"": 99.89, ""53017"": 0.11}",Okanogan|Douglas,53047|53017,False,False,America/Los_Angeles,"(48.00284, -118.95243)",12.271005038184075,15670.0,3355_0_yes,48.18022032130999,-118.93920317420972,20.0
99133,48.0067,-119.10613,Grand Coulee,WA,Washington,True,,1674.0,3.5,53017,Douglas,"{""53017"": 74.52, ""53025"": 16.26, ""53043"": 9.22}",Douglas|Grant|Lincoln,53017|53025|53043,False,False,America/Los_Angeles,"(48.0067, -119.10613)",14.250677900422728,15670.0,3355_0_yes,48.18022032130999,-118.93920317420972,20.0
99140,48.135,-118.68722,Keller,WA,Washington,True,,489.0,0.4,53019,Ferry,"{""53019"": 100}",Ferry,53019,False,False,America/Los_Angeles,"(48.135, -118.68722)",12.027099227240496,15670.0,3355_0_yes,48.18022032130999,-118.93920317420972,20.0
99155,48.27737,-118.9618,Nespelem,WA,Washington,True,,1231.0,1.6,53047,Okanogan,"{""53047"": 100}",Okanogan,53047,False,False,America/Los_Angeles,"(48.27737, -118.9618)",6.792503046784711,15670.0,3355_0_yes,48.18022032130999,-118.93920317420972,20.0
