zip,lat,lng,city,state_id,state_name,zcta,parent_zcta,population,density,county_fips,county_name,county_weights,county_names_all,county_fips_all,imprecise,military,timezone,Coord,distance_miles,market_total_population,market_id,market_center_lat,market_center_lng,radius_miles
59901,48.22873,-114.40564,Kalispell,MT,Montana,True,,56951.0,46.9,30029,Flathead,"{""30029"": 100}",Flathead,30029,False,False,America/Denver,"(48.22873, -114.40564)",17.363202399734554,88061.0,3412_0_no,48.45264958349266,-114.23402859685528,20.0
59912,48.43879,-114.16898,Columbia Falls,MT,Montana,True,,15673.0,32.0,30029,Flathead,"{""30029"": 100}",Flathead,30029,False,False,America/Denver,"(48.43879, -114.16898)",3.1313065696076072,88061.0,3412_0_no,48.45264958349266,-114.23402859685528,20.0
59913,48.41391,-113.95045,Coram,MT,Montana,True,,456.0,3.4,30029,Flathead,"{""30029"": 100}",Flathead,30029,False,False,America/Denver,"(48.41391, -113.95045)",13.272755091197736,88061.0,3412_0_no,48.45264958349266,-114.23402859685528,20.0
59919,48.3776,-114.05645,Hungry Horse,MT,Montana,True,,650.0,110.5,30029,Flathead,"{""30029"": 100}",Flathead,30029,False,False,America/Denver,"(48.3776, -114.05645)",9.654393796882573,88061.0,3412_0_no,48.45264958349266,-114.23402859685528,20.0
59926,48.36294,-114.00459,Martin City,MT,Montana,True,,369.0,14.2,30029,Flathead,"{""30029"": 100}",Flathead,30029,False,False,America/Denver,"(48.36294, -114.00459)",12.21316388571196,88061.0,3412_0_no,48.45264958349266,-114.23402859685528,20.0
59937,48.43893,-114.49769,Whitefish,MT,Montana,True,,13962.0,17.4,30029,Flathead,"{""30029"": 100}",Flathead,30029,False,False,America/Denver,"(48.43893, -114.49769)",12.12114784699393,88061.0,3412_0_no,48.45264958349266,-114.23402859685528,20.0
