zip,lat,lng,city,state_id,state_name,zcta,parent_zcta,population,density,county_fips,county_name,county_weights,county_names_all,county_fips_all,imprecise,military,timezone,Coord,distance_miles,market_total_population,market_id,market_center_lat,market_center_lng,radius_miles
98844,48.91618,-119.24767,Oroville,WA,Washington,True,,4428.0,5.1,53047,Okanogan,"{""53047"": 100}",Okanogan,53047,False,False,America/Los_Angeles,"(48.91618, -119.24767)",20.338334329802,15051.0,3423_0_yes,48.75865551298682,-118.86987379442884,20.0
98855,48.67641,-119.25634,Tonasket,WA,Washington,True,,6033.0,3.7,53047,Okanogan,"{""53047"": 100}",Okanogan,53047,False,False,America/Los_Angeles,"(48.67641, -119.25634)",18.511191771485137,15051.0,3423_0_yes,48.75865551298682,-118.86987379442884,20.0
98859,48.81181,-118.90871,Wauconda,WA,Washington,True,,137.0,0.4,53047,Okanogan,"{""53047"": 100}",Okanogan,53047,False,False,America/Los_Angeles,"(48.81181, -118.90871)",4.076026924610176,15051.0,3423_0_yes,48.75865551298682,-118.86987379442884,20.0
99118,48.89746,-118.63797,Curlew,WA,Washington,True,,794.0,1.5,53019,Ferry,"{""53019"": 100}",Ferry,53019,False,False,America/Los_Angeles,"(48.89746, -118.63797)",14.2563452005933,15051.0,3423_0_yes,48.75865551298682,-118.86987379442884,20.0
99121,48.94382,-118.45568,Danville,WA,Washington,True,,327.0,2.4,53019,Ferry,"{""53019"": 100}",Ferry,53019,False,False,America/Los_Angeles,"(48.94382, -118.45568)",22.765926303947584,15051.0,3423_0_yes,48.75865551298682,-118.86987379442884,20.0
99150,48.80622,-118.61071,Malo,WA,Washington,True,,310.0,3.7,53019,Ferry,"{""53019"": 100}",Ferry,53019,False,False,America/Los_Angeles,"(48.80622, -118.61071)",12.248088464754986,15051.0,3423_0_yes,48.75865551298682,-118.86987379442884,20.0
99166,48.61033,-118.6715,Republic,WA,Washington,True,,3022.0,2.4,53019,Ferry,"{""53019"": 98.47, ""53047"": 1.53}",Ferry|Okanogan,53019|53047,False,False,America/Los_Angeles,"(48.61033, -118.6715)",13.671569886795092,15051.0,3423_0_yes,48.75865551298682,-118.86987379442884,20.0
