zip,lat,lng,city,state_id,state_name,zcta,parent_zcta,population,density,county_fips,county_name,county_weights,county_names_all,county_fips_all,imprecise,military,timezone,Coord,distance_miles,market_total_population,market_id,market_center_lat,market_center_lng,radius_miles
77422,28.96492,-95.57268,Brazoria,TX,Texas,True,,13965.0,31.5,48039,Brazoria,"{""48039"": 100}",Brazoria,48039,False,False,America/Chicago,"(28.96492, -95.57268)",18.89263076889324,116787.0,686_0_yes,28.99363127757365,-95.2618362328157,20.0
77515,29.17604,-95.44955,Angleton,TX,Texas,True,,33634.0,63.5,48039,Brazoria,"{""48039"": 100}",Brazoria,48039,False,False,America/Chicago,"(29.17604, -95.44955)",16.950162595867823,116787.0,686_0_yes,28.99363127757365,-95.2618362328157,20.0
77531,29.03895,-95.40071,Clute,TX,Texas,True,,16352.0,537.4,48039,Brazoria,"{""48039"": 100}",Brazoria,48039,False,False,America/Chicago,"(29.03895, -95.40071)",8.95608637316524,116787.0,686_0_yes,28.99363127757365,-95.2618362328157,20.0
77534,29.21335,-95.30387,Danbury,TX,Texas,True,,2905.0,26.8,48039,Brazoria,"{""48039"": 100}",Brazoria,48039,False,False,America/Chicago,"(29.21335, -95.30387)",15.391737923895876,116787.0,686_0_yes,28.99363127757365,-95.2618362328157,20.0
77541,29.01496,-95.32667,Freeport,TX,Texas,True,,19072.0,52.0,48039,Brazoria,"{""48039"": 100}",Brazoria,48039,False,False,America/Chicago,"(29.01496, -95.32667)",4.1857678163986725,116787.0,686_0_yes,28.99363127757365,-95.2618362328157,20.0
77566,29.04971,-95.47511,Lake Jackson,TX,Texas,True,,29362.0,478.9,48039,Brazoria,"{""48039"": 100}",Brazoria,48039,False,False,America/Chicago,"(29.04971, -95.47511)",13.455478026920606,116787.0,686_0_yes,28.99363127757365,-95.2618362328157,20.0
77577,29.25966,-95.26731,Liverpool,TX,Texas,True,,1497.0,20.8,48039,Brazoria,"{""48039"": 100}",Brazoria,48039,False,False,America/Chicago,"(29.25966, -95.26731)",18.383802813586062,116787.0,686_0_yes,28.99363127757365,-95.2618362328157,20.0
