zip,lat,lng,city,state_id,state_name,zcta,parent_zcta,population,density,county_fips,county_name,county_weights,county_names_all,county_fips_all,imprecise,military,timezone,Coord,distance_miles,market_total_population,market_id,market_center_lat,market_center_lng,radius_miles
78007,28.48212,-98.40373,Calliham,TX,Texas,True,,198.0,2.7,48311,McMullen,"{""48311"": 100}",McMullen,48311,False,False,America/Chicago,"(28.48212, -98.40373)",16.66729581964664,32637.0,689_0_no,28.71177191568869,-98.31963973762188,20.0
78008,28.72478,-98.25911,Campbellton,TX,Texas,True,,351.0,1.3,48013,Atascosa,"{""48013"": 92.54, ""48297"": 7.46}",Atascosa|Live Oak,48013|48297,False,False,America/Chicago,"(28.72478, -98.25911)",3.7762808394366365,32637.0,689_0_no,28.71177191568869,-98.31963973762188,20.0
78012,28.75792,-98.45578,Christine,TX,Texas,True,,227.0,3.5,48013,Atascosa,"{""48013"": 100}",Atascosa,48013,False,False,America/Chicago,"(28.75792, -98.45578)",8.842895059064226,32637.0,689_0_no,28.71177191568869,-98.31963973762188,20.0
78026,28.75573,-98.54754,Jourdanton,TX,Texas,True,,7158.0,7.8,48013,Atascosa,"{""48013"": 72.31, ""48311"": 27.69}",Atascosa|McMullen,48013|48311,False,False,America/Chicago,"(28.75573, -98.54754)",14.137543229718844,32637.0,689_0_no,28.71177191568869,-98.31963973762188,20.0
78064,28.9206,-98.4249,Pleasanton,TX,Texas,True,,16722.0,22.9,48013,Atascosa,"{""48013"": 95.91, ""48493"": 4.09}",Atascosa|Wilson,48013|48493,False,False,America/Chicago,"(28.9206, -98.4249)",15.773102144680418,32637.0,689_0_no,28.71177191568869,-98.31963973762188,20.0
78071,28.47756,-98.19733,Three Rivers,TX,Texas,True,,4394.0,5.4,48297,Live Oak,"{""48297"": 89.55, ""48311"": 10.45}",Live Oak|McMullen,48297|48311,False,False,America/Chicago,"(28.47756, -98.19733)",17.802531170743425,32637.0,689_0_no,28.71177191568869,-98.31963973762188,20.0
78075,28.58862,-98.26823,Whitsett,TX,Texas,True,,249.0,1.4,48297,Live Oak,"{""48297"": 94.8, ""48311"": 5.2}",Live Oak|McMullen,48297|48311,False,False,America/Chicago,"(28.58862, -98.26823)",9.061986569986272,32637.0,689_0_no,28.71177191568869,-98.31963973762188,20.0
78113,28.94563,-98.13611,Falls City,TX,Texas,True,,3253.0,4.2,48493,Wilson,"{""48493"": 40.11, ""48013"": 31.77, ""48255"": 28.11}",Wilson|Atascosa|Karnes,48493|48013|48255,False,False,America/Chicago,"(28.94563, -98.13611)",19.60854098892422,32637.0,689_0_no,28.71177191568869,-98.31963973762188,20.0
78145,28.64539,-97.99248,Pawnee,TX,Texas,True,,85.0,10.1,48025,Bee,"{""48025"": 100}",Bee,48025,False,False,America/Chicago,"(28.64539, -97.99248)",20.355042849822738,32637.0,689_0_no,28.71177191568869,-98.31963973762188,20.0
