zip,lat,lng,city,state_id,state_name,zcta,parent_zcta,population,density,county_fips,county_name,county_weights,county_names_all,county_fips_all,imprecise,military,timezone,Coord,distance_miles,market_total_population,market_id,market_center_lat,market_center_lng,radius_miles
78838,29.53476,-99.70757,Concan,TX,Texas,True,,141.0,0.7,48463,Uvalde,"{""48463"": 100}",Uvalde,48463,False,False,America/Chicago,"(29.53476, -99.70757)",20.898569493963294,4380.0,780_0_no,29.294311283366238,-99.49691624315771,20.0
78850,29.27937,-99.33581,D Hanis,TX,Texas,True,,1056.0,1.7,48325,Medina,"{""48325"": 100}",Medina,48325,False,False,America/Chicago,"(29.27937, -99.33581)",9.763317476053976,4380.0,780_0_no,29.294311283366238,-99.49691624315771,20.0
78870,29.29829,-99.61255,Knippa,TX,Texas,True,,1092.0,3.2,48463,Uvalde,"{""48463"": 100}",Uvalde,48463,False,False,America/Chicago,"(29.29829, -99.61255)",6.973098080340823,4380.0,780_0_no,29.294311283366238,-99.49691624315771,20.0
78881,29.39333,-99.50972,Sabinal,TX,Texas,True,,1601.0,2.4,48463,Uvalde,"{""48463"": 100}",Uvalde,48463,False,False,America/Chicago,"(29.39333, -99.50972)",6.884864820882942,4380.0,780_0_no,29.294311283366238,-99.49691624315771,20.0
78886,29.15453,-99.18749,Yancey,TX,Texas,True,,490.0,2.6,48325,Medina,"{""48325"": 100}",Medina,48325,False,False,America/Chicago,"(29.15453, -99.18749)",21.009471511689963,4380.0,780_0_no,29.294311283366238,-99.49691624315771,20.0
