zip,lat,lng,city,state_id,state_name,zcta,parent_zcta,population,density,county_fips,county_name,county_weights,county_names_all,county_fips_all,imprecise,military,timezone,Coord,distance_miles,market_total_population,market_id,market_center_lat,market_center_lng,radius_miles
70501,30.2391,-91.99122,Lafayette,LA,Louisiana,True,,30044.0,757.7,22055,Lafayette,"{""22055"": 100}",Lafayette,22055,False,False,America/Chicago,"(30.2391, -91.99122)",16.596923634744137,370523.0,860_0_yes,30.144810511482287,-92.2468245336176,20.0
70503,30.17353,-92.05901,Lafayette,LA,Louisiana,True,,31542.0,1075.5,22055,Lafayette,"{""22055"": 100}",Lafayette,22055,False,False,America/Chicago,"(30.17353, -92.05901)",11.394241290574634,370523.0,860_0_yes,30.144810511482287,-92.2468245336176,20.0
70506,30.19586,-92.08075,Lafayette,LA,Louisiana,True,,41212.0,766.4,22055,Lafayette,"{""22055"": 100}",Lafayette,22055,False,False,America/Chicago,"(30.19586, -92.08075)",10.528639094999118,370523.0,860_0_yes,30.144810511482287,-92.2468245336176,20.0
70507,30.28293,-92.02825,Lafayette,LA,Louisiana,True,,18260.0,329.0,22055,Lafayette,"{""22055"": 100}",Lafayette,22055,False,False,America/Chicago,"(30.28293, -92.02825)",16.167460945600176,370523.0,860_0_yes,30.144810511482287,-92.2468245336176,20.0
70508,30.15627,-92.02913,Lafayette,LA,Louisiana,True,,38704.0,614.9,22055,Lafayette,"{""22055"": 100}",Lafayette,22055,False,False,America/Chicago,"(30.15627, -92.02913)",13.030383974341701,370523.0,860_0_yes,30.144810511482287,-92.2468245336176,20.0
70510,29.89493,-92.19569,Abbeville,LA,Louisiana,True,,25212.0,41.8,22113,Vermilion,"{""22113"": 100}",Vermilion,22113,False,False,America/Chicago,"(29.89493, -92.19569)",17.53401674045514,370523.0,860_0_yes,30.144810511482287,-92.2468245336176,20.0
70512,30.41333,-91.92337,Arnaudville,LA,Louisiana,True,,10315.0,40.7,22097,St. Landry,"{""22097"": 61.16, ""22099"": 38.84}",St. Landry|St. Martin,22097|22099,False,False,America/Chicago,"(30.41333, -91.92337)",26.771087757239535,370523.0,860_0_yes,30.144810511482287,-92.2468245336176,20.0
70516,30.3674,-92.30289,Branch,LA,Louisiana,True,,772.0,7.7,22001,Acadia,"{""22001"": 100}",Acadia,22001,False,False,America/Chicago,"(30.3674, -92.30289)",15.73925906388575,370523.0,860_0_yes,30.144810511482287,-92.2468245336176,20.0
70518,30.13503,-91.92922,Broussard,LA,Louisiana,True,,14721.0,136.2,22055,Lafayette,"{""22055"": 51.37, ""22099"": 45.44, ""22045"": 3.19}",Lafayette|St. Martin|Iberia,22055|22099|22045,False,False,America/Chicago,"(30.13503, -91.92922)",18.9895634619196,370523.0,860_0_yes,30.144810511482287,-92.2468245336176,20.0
70520,30.33265,-92.03619,Carencro,LA,Louisiana,True,,21805.0,216.7,22055,Lafayette,"{""22055"": 96.73, ""22097"": 3.27}",Lafayette|St. Landry,22055|22097,False,False,America/Chicago,"(30.33265, -92.03619)",18.07005023410208,370523.0,860_0_yes,30.144810511482287,-92.2468245336176,20.0
70525,30.40765,-92.21761,Church Point,LA,Louisiana,True,,15467.0,58.1,22001,Acadia,"{""22001"": 60.94, ""22097"": 38.23, ""22055"": 0.83}",Acadia|St. Landry|Lafayette,22001|22097|22055,False,False,America/Chicago,"(30.40765, -92.21761)",18.243951820196433,370523.0,860_0_yes,30.144810511482287,-92.2468245336176,20.0
70526,30.21051,-92.37951,Crowley,LA,Louisiana,True,,18210.0,55.8,22001,Acadia,"{""22001"": 98.79, ""22113"": 1.21}",Acadia|Vermilion,22001|22113,False,False,America/Chicago,"(30.21051, -92.37951)",9.133181048796152,370523.0,860_0_yes,30.144810511482287,-92.2468245336176,20.0
70528,29.89766,-91.96692,Delcambre,LA,Louisiana,True,,2370.0,57.3,22045,Iberia,"{""22045"": 88.46, ""22113"": 11.54}",Iberia|Vermilion,22045|22113,False,False,America/Chicago,"(29.89766, -91.96692)",23.916497346540126,370523.0,860_0_yes,30.144810511482287,-92.2468245336176,20.0
70529,30.19593,-92.16327,Duson,LA,Louisiana,True,,12999.0,137.9,22055,Lafayette,"{""22055"": 97.07, ""22001"": 2.17, ""22113"": 0.76}",Lafayette|Acadia|Vermilion,22055|22001|22113,False,False,America/Chicago,"(30.19593, -92.16327)",6.1143625566713755,370523.0,860_0_yes,30.144810511482287,-92.2468245336176,20.0
70531,30.23101,-92.49678,Egan,LA,Louisiana,True,,1757.0,20.3,22001,Acadia,"{""22001"": 100}",Acadia,22001,False,False,America/Chicago,"(30.23101, -92.49678)",16.072327627733625,370523.0,860_0_yes,30.144810511482287,-92.2468245336176,20.0
70533,29.90439,-92.03536,Erath,LA,Louisiana,True,,7098.0,36.9,22113,Vermilion,"{""22113"": 99.7, ""22045"": 0.3}",Vermilion|Iberia,22113|22045,False,False,America/Chicago,"(29.90439, -92.03536)",20.879845979312215,370523.0,860_0_yes,30.144810511482287,-92.2468245336176,20.0
70534,30.16564,-92.45499,Estherwood,LA,Louisiana,True,,676.0,41.1,22001,Acadia,"{""22001"": 100}",Acadia,22001,False,False,America/Chicago,"(30.16564, -92.45499)",12.519391311766977,370523.0,860_0_yes,30.144810511482287,-92.2468245336176,20.0
70537,30.25747,-92.56642,Evangeline,LA,Louisiana,True,,387.0,25.5,22001,Acadia,"{""22001"": 100}",Acadia,22001,False,False,America/Chicago,"(30.25747, -92.56642)",20.611025164914686,370523.0,860_0_yes,30.144810511482287,-92.2468245336176,20.0
70541,30.42062,-92.0426,Grand Coteau,LA,Louisiana,True,,376.0,70.7,22097,St. Landry,"{""22097"": 100}",St. Landry,22097,False,False,America/Chicago,"(30.42062, -92.0426)",22.61928570373659,370523.0,860_0_yes,30.144810511482287,-92.2468245336176,20.0
70543,30.33532,-92.5014,Iota,LA,Louisiana,True,,4738.0,25.6,22001,Acadia,"{""22001"": 100}",Acadia,22001,False,False,America/Chicago,"(30.33532, -92.5014)",20.10422910745675,370523.0,860_0_yes,30.144810511482287,-92.2468245336176,20.0
70555,30.08188,-92.14123,Maurice,LA,Louisiana,True,,8409.0,68.8,22113,Vermilion,"{""22113"": 97.06, ""22055"": 2.94}",Vermilion|Lafayette,22113|22055,False,False,America/Chicago,"(30.08188, -92.14123)",7.6640071968455254,370523.0,860_0_yes,30.144810511482287,-92.2468245336176,20.0
70558,30.10042,-92.07573,Milton,LA,Louisiana,True,,13.0,42.2,22055,Lafayette,"{""22055"": 100}",Lafayette,22055,False,False,America/Chicago,"(30.10042, -92.07573)",10.675144713013133,370523.0,860_0_yes,30.144810511482287,-92.2468245336176,20.0
70559,30.12876,-92.50903,Morse,LA,Louisiana,True,,3144.0,14.2,22001,Acadia,"{""22001"": 100}",Acadia,22001,False,False,America/Chicago,"(30.12876, -92.50903)",15.707023131055317,370523.0,860_0_yes,30.144810511482287,-92.2468245336176,20.0
70578,30.2291,-92.26261,Rayne,LA,Louisiana,True,,17727.0,59.6,22001,Acadia,"{""22001"": 67.91, ""22055"": 18.18, ""22113"": 13.91}",Acadia|Lafayette|Vermilion,22001|22055|22113,False,False,America/Chicago,"(30.2291, -92.26261)",5.899662889570902,370523.0,860_0_yes,30.144810511482287,-92.2468245336176,20.0
70583,30.25846,-92.12204,Scott,LA,Louisiana,True,,11072.0,150.7,22055,Lafayette,"{""22055"": 85.5, ""22001"": 14.5}",Lafayette|Acadia,22055|22001,False,False,America/Chicago,"(30.25846, -92.12204)",10.825205702828635,370523.0,860_0_yes,30.144810511482287,-92.2468245336176,20.0
70584,30.38856,-92.10193,Sunset,LA,Louisiana,True,,7051.0,78.6,22097,St. Landry,"{""22097"": 100}",St. Landry,22097,False,False,America/Chicago,"(30.38856, -92.10193)",18.931436561080456,370523.0,860_0_yes,30.144810511482287,-92.2468245336176,20.0
70592,30.08024,-92.01338,Youngsville,LA,Louisiana,True,,26442.0,240.3,22055,Lafayette,"{""22055"": 74.36, ""22113"": 23.74, ""22045"": 1.9}",Lafayette|Vermilion|Iberia,22055|22113|22045,False,False,America/Chicago,"(30.08024, -92.01338)",14.64858658986607,370523.0,860_0_yes,30.144810511482287,-92.2468245336176,20.0
