zip,lat,lng,city,state_id,state_name,zcta,parent_zcta,population,density,county_fips,county_name,county_weights,county_names_all,county_fips_all,imprecise,military,timezone,Coord,distance_miles,market_total_population,market_id,market_center_lat,market_center_lng,radius_miles
70712,30.96574,-91.58573,Angola,LA,Louisiana,True,,3804.0,71.4,22125,West Feliciana,"{""22125"": 100}",West Feliciana,22125,False,False,America/Chicago,"(30.96574, -91.58573)",20.805751563542742,288849.0,947_0_yes,30.72179606981817,-91.38010430399204,20.0
70714,30.58634,-91.12812,Baker,LA,Louisiana,True,,18775.0,209.4,22033,East Baton Rouge,"{""22033"": 100}",East Baton Rouge,22033,False,False,America/Chicago,"(30.58634, -91.12812)",17.661246885127216,288849.0,947_0_yes,30.72179606981817,-91.38010430399204,20.0
70715,30.81204,-91.66262,Batchelor,LA,Louisiana,True,,1480.0,4.5,22077,Pointe Coupee,"{""22077"": 100}",Pointe Coupee,22077,False,False,America/Chicago,"(30.81204, -91.66262)",17.894127939319763,288849.0,947_0_yes,30.72179606981817,-91.38010430399204,20.0
70729,30.58891,-91.34671,Erwinville,LA,Louisiana,True,,1083.0,24.2,22121,West Baton Rouge,"{""22121"": 77.84, ""22077"": 22.16}",West Baton Rouge|Pointe Coupee,22121|22077,False,False,America/Chicago,"(30.58891, -91.34671)",9.393649354821038,288849.0,947_0_yes,30.72179606981817,-91.38010430399204,20.0
70730,30.81588,-91.10869,Ethel,LA,Louisiana,True,,2789.0,14.9,22037,East Feliciana,"{""22037"": 100}",East Feliciana,22037,False,False,America/Chicago,"(30.81588, -91.10869)",17.37509644648381,288849.0,947_0_yes,30.72179606981817,-91.38010430399204,20.0
70732,30.6322,-91.60678,Fordoche,LA,Louisiana,True,,1235.0,11.0,22077,Pointe Coupee,"{""22077"": 100}",Pointe Coupee,22077,False,False,America/Chicago,"(30.6322, -91.60678)",14.82444526414877,288849.0,947_0_yes,30.72179606981817,-91.38010430399204,20.0
70736,30.63748,-91.33915,Glynn,LA,Louisiana,True,,808.0,54.7,22077,Pointe Coupee,"{""22077"": 100}",Pointe Coupee,22077,False,False,America/Chicago,"(30.63748, -91.33915)",6.313563686967741,288849.0,947_0_yes,30.72179606981817,-91.38010430399204,20.0
70747,30.87291,-91.68245,Innis,LA,Louisiana,True,,215.0,15.3,22077,Pointe Coupee,"{""22077"": 100}",Pointe Coupee,22077,False,False,America/Chicago,"(30.87291, -91.68245)",20.760769881778018,288849.0,947_0_yes,30.72179606981817,-91.38010430399204,20.0
70748,30.8164,-91.20613,Jackson,LA,Louisiana,True,,7531.0,39.2,22037,East Feliciana,"{""22037"": 98.75, ""22033"": 1.25}",East Feliciana|East Baton Rouge,22037|22033,False,False,America/Chicago,"(30.8164, -91.20613)",12.223023452136136,288849.0,947_0_yes,30.72179606981817,-91.38010430399204,20.0
70749,30.6326,-91.40985,Jarreau,LA,Louisiana,True,,1323.0,37.4,22077,Pointe Coupee,"{""22077"": 100}",Pointe Coupee,22077,False,False,America/Chicago,"(30.6326, -91.40985)",6.411342765979346,288849.0,947_0_yes,30.72179606981817,-91.38010430399204,20.0
70752,30.57986,-91.41915,Lakeland,LA,Louisiana,True,,791.0,52.2,22077,Pointe Coupee,"{""22077"": 100}",Pointe Coupee,22077,False,False,America/Chicago,"(30.57986, -91.41915)",10.077738071952558,288849.0,947_0_yes,30.72179606981817,-91.38010430399204,20.0
70755,30.59473,-91.52981,Livonia,LA,Louisiana,True,,1683.0,29.6,22077,Pointe Coupee,"{""22077"": 100}",Pointe Coupee,22077,False,False,America/Chicago,"(30.59473, -91.52981)",12.500022576820168,288849.0,947_0_yes,30.72179606981817,-91.38010430399204,20.0
70756,30.53256,-91.64705,Lottie,LA,Louisiana,True,,526.0,4.1,22077,Pointe Coupee,"{""22077"": 100}",Pointe Coupee,22077,False,False,America/Chicago,"(30.53256, -91.64705)",20.563323439647426,288849.0,947_0_yes,30.72179606981817,-91.38010430399204,20.0
70759,30.71346,-91.58762,Morganza,LA,Louisiana,True,,1468.0,23.7,22077,Pointe Coupee,"{""22077"": 100}",Pointe Coupee,22077,False,False,America/Chicago,"(30.71346, -91.58762)",12.339729842534988,288849.0,947_0_yes,30.72179606981817,-91.38010430399204,20.0
70760,30.69839,-91.48085,New Roads,LA,Louisiana,True,,6587.0,51.2,22077,Pointe Coupee,"{""22077"": 100}",Pointe Coupee,22077,False,False,America/Chicago,"(30.69839, -91.48085)",6.199342989968337,288849.0,947_0_yes,30.72179606981817,-91.38010430399204,20.0
70762,30.57843,-91.46695,Oscar,LA,Louisiana,True,,855.0,16.1,22077,Pointe Coupee,"{""22077"": 100}",Pointe Coupee,22077,False,False,America/Chicago,"(30.57843, -91.46695)",11.170049701994058,288849.0,947_0_yes,30.72179606981817,-91.38010430399204,20.0
70767,30.47737,-91.32787,Port Allen,LA,Louisiana,True,,15675.0,39.7,22121,West Baton Rouge,"{""22121"": 96.12, ""22077"": 3.88}",West Baton Rouge|Pointe Coupee,22121|22077,False,False,America/Chicago,"(30.47737, -91.32787)",17.171562069569067,288849.0,947_0_yes,30.72179606981817,-91.38010430399204,20.0
70772,30.43748,-91.46484,Rosedale,LA,Louisiana,True,,869.0,22.5,22047,Iberville,"{""22047"": 100}",Iberville,22047,False,False,America/Chicago,"(30.43748, -91.46484)",20.2807061879694,288849.0,947_0_yes,30.72179606981817,-91.38010430399204,20.0
70773,30.59678,-91.37333,Rougon,LA,Louisiana,True,,225.0,13.4,22077,Pointe Coupee,"{""22077"": 100}",Pointe Coupee,22077,False,False,America/Chicago,"(30.59678, -91.37333)",8.64716650728535,288849.0,947_0_yes,30.72179606981817,-91.38010430399204,20.0
70775,30.85982,-91.36847,Saint Francisville,LA,Louisiana,True,,11120.0,13.7,22125,West Feliciana,"{""22125"": 99.84, ""22037"": 0.16}",West Feliciana|East Feliciana,22125|22037,False,False,America/Chicago,"(30.85982, -91.36847)",9.561513789396383,288849.0,947_0_yes,30.72179606981817,-91.38010430399204,20.0
70777,30.73898,-91.07319,Slaughter,LA,Louisiana,True,,3681.0,21.8,22037,East Feliciana,"{""22037"": 87.41, ""22033"": 12.59}",East Feliciana|East Baton Rouge,22037|22033,False,False,America/Chicago,"(30.73898, -91.07319)",18.26669598470976,288849.0,947_0_yes,30.72179606981817,-91.38010430399204,20.0
70782,30.94378,-91.51856,Tunica,LA,Louisiana,True,,103.0,1.5,22125,West Feliciana,"{""22125"": 100}",West Feliciana,22125,False,False,America/Chicago,"(30.94378, -91.51856)",17.39878987565214,288849.0,947_0_yes,30.72179606981817,-91.38010430399204,20.0
70783,30.67032,-91.4087,Ventress,LA,Louisiana,True,,2500.0,33.4,22077,Pointe Coupee,"{""22077"": 100}",Pointe Coupee,22077,False,False,America/Chicago,"(30.67032, -91.4087)",3.941601493316765,288849.0,947_0_yes,30.72179606981817,-91.38010430399204,20.0
70787,30.9629,-91.44342,Weyanoke,LA,Louisiana,True,,287.0,22.9,22125,West Feliciana,"{""22125"": 100}",West Feliciana,22125,False,False,America/Chicago,"(30.9629, -91.44342)",17.076880808668548,288849.0,947_0_yes,30.72179606981817,-91.38010430399204,20.0
70789,30.92973,-91.07109,Wilson,LA,Louisiana,True,,624.0,12.8,22037,East Feliciana,"{""22037"": 100}",East Feliciana,22037,False,False,America/Chicago,"(30.92973, -91.07109)",23.292999006692238,288849.0,947_0_yes,30.72179606981817,-91.38010430399204,20.0
70791,30.65013,-91.15734,Zachary,LA,Louisiana,True,,27365.0,88.7,22033,East Baton Rouge,"{""22033"": 96.45, ""22037"": 3.55}",East Baton Rouge|East Feliciana,22033|22037,False,False,America/Chicago,"(30.65013, -91.15734)",14.132252914103525,288849.0,947_0_yes,30.72179606981817,-91.38010430399204,20.0
70801,30.44954,-91.18608,Baton Rouge,LA,Louisiana,True,,362.0,1304.3,22033,East Baton Rouge,"{""22033"": 100}",East Baton Rouge,22033,False,False,America/Chicago,"(30.44954, -91.18608)",22.069062253177922,288849.0,947_0_yes,30.72179606981817,-91.38010430399204,20.0
70802,30.44691,-91.17554,Baton Rouge,LA,Louisiana,True,,23295.0,1272.1,22033,East Baton Rouge,"{""22033"": 100}",East Baton Rouge,22033,False,False,America/Chicago,"(30.44691, -91.17554)",22.556157687094466,288849.0,947_0_yes,30.72179606981817,-91.38010430399204,20.0
70805,30.48831,-91.15951,Baton Rouge,LA,Louisiana,True,,26263.0,892.2,22033,East Baton Rouge,"{""22033"": 100}",East Baton Rouge,22033,False,False,America/Chicago,"(30.48831, -91.15951)",20.79290712628461,288849.0,947_0_yes,30.72179606981817,-91.38010430399204,20.0
70806,30.44879,-91.1247,Baton Rouge,LA,Louisiana,True,,30180.0,1307.5,22033,East Baton Rouge,"{""22033"": 100}",East Baton Rouge,22033,False,False,America/Chicago,"(30.44879, -91.1247)",24.219700373019748,288849.0,947_0_yes,30.72179606981817,-91.38010430399204,20.0
70807,30.5425,-91.2068,Baton Rouge,LA,Louisiana,True,,17037.0,260.1,22033,East Baton Rouge,"{""22033"": 100}",East Baton Rouge,22033,False,False,America/Chicago,"(30.5425, -91.2068)",16.112852664884176,288849.0,947_0_yes,30.72179606981817,-91.38010430399204,20.0
70811,30.53122,-91.11617,Baton Rouge,LA,Louisiana,True,,14127.0,482.1,22033,East Baton Rouge,"{""22033"": 100}",East Baton Rouge,22033,False,False,America/Chicago,"(30.53122, -91.11617)",20.484925596857796,288849.0,947_0_yes,30.72179606981817,-91.38010430399204,20.0
70812,30.50018,-91.11051,Baton Rouge,LA,Louisiana,True,,12341.0,1062.8,22033,East Baton Rouge,"{""22033"": 100}",East Baton Rouge,22033,False,False,America/Chicago,"(30.50018, -91.11051)",22.1690881821452,288849.0,947_0_yes,30.72179606981817,-91.38010430399204,20.0
70814,30.48502,-91.06164,Baton Rouge,LA,Louisiana,True,,11646.0,504.2,22033,East Baton Rouge,"{""22033"": 100}",East Baton Rouge,22033,False,False,America/Chicago,"(30.48502, -91.06164)",25.02638787819238,288849.0,947_0_yes,30.72179606981817,-91.38010430399204,20.0
70815,30.45537,-91.06648,Baton Rouge,LA,Louisiana,True,,30124.0,1230.4,22033,East Baton Rouge,"{""22033"": 100}",East Baton Rouge,22033,False,False,America/Chicago,"(30.45537, -91.06648)",26.207499486270525,288849.0,947_0_yes,30.72179606981817,-91.38010430399204,20.0
70818,30.54233,-91.05006,Baton Rouge,LA,Louisiana,True,,10072.0,263.5,22033,East Baton Rouge,"{""22033"": 100}",East Baton Rouge,22033,False,False,America/Chicago,"(30.54233, -91.05006)",23.211439829504876,288849.0,947_0_yes,30.72179606981817,-91.38010430399204,20.0
